{
    "fixes": [
        {
            "name": "BIKEZ",
            "lat": 29.52195,
            "lon": 81.16669721666666
        },
        {
            "name": "GAMGY",
            "lat": 29.024502783333332,
            "lon": 81.12697221666667
        },
        {
            "name": "GUANO",
            "lat": 29.099647216666668,
            "lon": 81.38859166666667
        },
        {
            "name": "JAGGZ",
            "lat": 30.273230566666665,
            "lon": 81.26430278333333
        },
        {
            "name": "KIZER",
            "lat": 28.923888883333333,
            "lon": 81.37161943333334
        },
        {
            "name": "KYLEG",
            "lat": 30.826225,
            "lon": 81.64608888333333
        },
        {
            "name": "LPERD",
            "lat": 30.60255,
            "lon": 81.28115556666667
        },
        {
            "name": "PIXEE",
            "lat": 29.04660833333333,
            "lon": 81.09510278333333
        },
        {
            "name": "POBNE",
            "lat": 28.961413883333332,
            "lon": 81.2178
        },
        {
            "name": "SMYRA",
            "lat": 29.005411116666668,
            "lon": 80.99291943333333
        },
        {
            "name": "TTHOR",
            "lat": 29.664777783333335,
            "lon": 81.23334166666666
        },
        {
            "name": "WEEEK",
            "lat": 29.921891666666667,
            "lon": 81.24271388333334
        }
    ],
    "rnws": [
        "RNW 06",
        "RNW 24"
    ],
    "sids": [],
    "stars": [
        {
            "name": "TTHOR3",
            "runway": "RNW 06 RNW 24",
            "fixes": {
                "TTHOR": "TTHOR 12000",
                "BIKEZ": "OVERFLY BIKEZ 12000 TRK 165 VECTORS"
            }
        }
    ],
    "approaches": [
        {
            "name": "RNAV06",
            "fixes": {
                "POBNE": "POBNE AT OR ABOVE 2800",
                "GAMGY": "GAMGY 1700",
                "PIXEE": "PIXEE AT OR ABOVE 1020 RNW 06 TRK 057 UNTIL 1200 TURN RIGHT DIRECT",
                "SMYRA": "OVERFLY SMYRA AT OR ABOVE 2000 HOLD AT SMYRA LEFT TURN INBOUNDCOURSE 341 LEGDIST 4 FAF GAMGY MAP RNW 06"
            },
            "transitions": [
                {
                    "name": "GUANO",
                    "fixes": {
                        "GUANO": "GUANO"
                    }
                },
                {
                    "name": "KIZER",
                    "fixes": {
                        "KIZER": "KIZER"
                    }
                }
            ]
        }
    ]
}