{
    "fixes": [
        {
            "name": "IGBAR",
            "lat": 4.1521,
            "lon": 152.43255556666668
        },
        {
            "name": "VASNO",
            "lat": 4.624833333333333,
            "lon": 152.11726111666667
        },
        {
            "name": "YTKSD",
            "lat": 4.2937305666666665,
            "lon": 152.57590833333333
        },
        {
            "name": "YTKSF",
            "lat": 4.366447216666667,
            "lon": 152.46758333333332
        },
        {
            "name": "YTKSG",
            "lat": 4.486505566666667,
            "lon": 152.5193
        },
        {
            "name": "YTKSH",
            "lat": 4.31895,
            "lon": 152.30711666666667
        },
        {
            "name": "YTKSI",
            "lat": 4.390119433333333,
            "lon": 152.54760833333333
        },
        {
            "name": "YTKSM",
            "lat": 4.342638883333334,
            "lon": 152.38712778333334
        },
        {
            "name": "YTKWA",
            "lat": 4.388091666666667,
            "lon": 152.18682221666666
        },
        {
            "name": "YTKWB",
            "lat": 4.2632666666666665,
            "lon": 152.11915556666668
        },
        {
            "name": "YTKWF",
            "lat": 4.313925,
            "lon": 152.29013888333333
        },
        {
            "name": "YTKWH",
            "lat": 4.218133333333333,
            "lon": 152.43141943333333
        },
        {
            "name": "YTKWI",
            "lat": 4.291713883333333,
            "lon": 152.21515833333333
        },
        {
            "name": "YTKWM",
            "lat": 4.338238883333333,
            "lon": 152.37226666666666
        },
        {
            "name": "YTKWT",
            "lat": 4.35245,
            "lon": 152.420275
        }
    ],
    "rnws": [
        "RNW 10",
        "RNW 28"
    ],
    "sids": [],
    "stars": [],
    "approaches": [
        {
            "name": "RNAV10",
            "fixes": {
                "YTKWI": "YTKWI AT OR ABOVE 2800",
                "YTKWF": "YTKWF 1700",
                "YTKWM": "OVERFLY YTKWM 74 RNW 10",
                "YTKWT": "OVERFLY YTKWT TURN LEFT DIRECT",
                "YTKWH": "YTKWH HDG 300 VECTORS FAF YTKWF MAP YTKWM"
            },
            "transitions": [
                {
                    "name": "VASNO",
                    "fixes": {
                        "VASNO": "VASNO",
                        "YTKWA": "YTKWA AT OR ABOVE 4300 SPEED 210"
                    }
                },
                {
                    "name": "YTKWB",
                    "fixes": {
                        "YTKWB": "YTKWB AT OR ABOVE 4300 SPEED 210"
                    }
                }
            ]
        },
        {
            "name": "RNAV28",
            "fixes": {
                "YTKSI": "YTKSI AT OR ABOVE 3000",
                "YTKSF": "YTKSF 1700",
                "YTKSM": "OVERFLY YTKSM 116 RNW 28",
                "YTKSH": "YTKSH TRK 280 UNTIL 4300 FAF YTKSF MAP YTKSM"
            },
            "transitions": [
                {
                    "name": "IGBAR",
                    "fixes": {
                        "IGBAR": "IGBAR",
                        "YTKSD": "YTKSD AT OR ABOVE 3600"
                    }
                },
                {
                    "name": "VASNO",
                    "fixes": {
                        "VASNO": "VASNO",
                        "YTKSG": "YTKSG AT OR ABOVE 3600"
                    }
                }
            ]
        }
    ]
}