{
    "fixes": [
        {
            "name": "URBEL",
            "lat": 9.109497216666666,
            "lon": 148.6393
        },
        {
            "name": "YTUEA",
            "lat": 8.919813883333333,
            "lon": 149.46293611666667
        },
        {
            "name": "YTUEB",
            "lat": 8.961586116666666,
            "lon": 149.57435556666667
        },
        {
            "name": "YTUEC",
            "lat": 9.072380566666666,
            "lon": 149.53234721666666
        },
        {
            "name": "YTUEF",
            "lat": 9.030597216666667,
            "lon": 149.42089721666667
        },
        {
            "name": "YTUEI",
            "lat": 8.9961,
            "lon": 149.49763333333334
        },
        {
            "name": "YTUEM",
            "lat": 9.065277783333332,
            "lon": 149.34370278333333
        },
        {
            "name": "YTUWD",
            "lat": 9.055358333333333,
            "lon": 148.9718
        },
        {
            "name": "YTUWF",
            "lat": 9.070191666666666,
            "lon": 149.23704721666667
        },
        {
            "name": "YTUWH",
            "lat": 9.101125,
            "lon": 149.40259166666667
        },
        {
            "name": "YTUWI",
            "lat": 9.039058333333333,
            "lon": 149.07153056666667
        },
        {
            "name": "YTUWM",
            "lat": 9.085730566666667,
            "lon": 149.31981666666667
        },
        {
            "name": "YTUWZ",
            "lat": 9.078894433333334,
            "lon": 149.28339721666666
        }
    ],
    "rnws": [
        "RNW 06",
        "RNW 24"
    ],
    "sids": [],
    "stars": [],
    "approaches": [
        {
            "name": "RNAVA06",
            "fixes": {
                "YTUWI": "YTUWI AT OR ABOVE 5800",
                "YTUWF": "YTUWF 2700",
                "YTUWZ": "YTUWZ AT OR ABOVE 1900",
                "YTUWM": "OVERFLY YTUWM 1580 RNW 06",
                "YTUWH": "YTUWH TRK 094 UNTIL 3400 FAF YTUWF MAP YTUWM"
            },
            "transitions": [
                {
                    "name": "URBEL",
                    "fixes": {
                        "URBEL": "URBEL",
                        "YTUWD": "YTUWD AT OR ABOVE 7900"
                    }
                }
            ]
        },
        {
            "name": "RNAV24",
            "fixes": {
                "YTUEI": "YTUEI AT OR ABOVE 3400",
                "YTUEF": "YTUEF 2100",
                "YTUEM": "OVERFLY YTUEM 489 RNW 24 TRK 239 UNTIL 630 TURN LEFT DIRECT",
                "YTUEC": "YTUEC AT OR ABOVE 3400 FAF YTUEF MAP YTUEM"
            },
            "transitions": [
                {
                    "name": "YTUEA",
                    "fixes": {
                        "YTUEA": "YTUEA AT OR ABOVE 3400"
                    }
                },
                {
                    "name": "YTUEB",
                    "fixes": {
                        "YTUEB": "YTUEB AT OR ABOVE 3400"
                    }
                },
                {
                    "name": "YTUEC",
                    "fixes": {
                        "YTUEC": "YTUEC AT OR ABOVE 3400"
                    }
                }
            ]
        },
        {
            "name": "RNAVA24",
            "fixes": {
                "YTUWI": "YTUWI AT OR ABOVE 5800",
                "YTUWF": "YTUWF 2700",
                "YTUWZ": "YTUWZ AT OR ABOVE 1900",
                "YTUWM": "OVERFLY YTUWM 1580 RNW 24",
                "YTUWH": "YTUWH TRK 094 UNTIL 3400 FAF YTUWF MAP YTUWM"
            },
            "transitions": [
                {
                    "name": "URBEL",
                    "fixes": {
                        "URBEL": "URBEL",
                        "YTUWD": "YTUWD AT OR ABOVE 7900"
                    }
                }
            ]
        }
    ]
}