{
    "fixes": [
        {
            "name": "D122E",
            "lat": 63.392375,
            "lon": 20.097497216666667
        },
        {
            "name": "D309G",
            "lat": 63.36672778333333,
            "lon": 20.041791666666665
        },
        {
            "name": "FQ12",
            "lat": 63.456063883333336,
            "lon": 20.467858333333332
        },
        {
            "name": "FQ30",
            "lat": 63.39734443333333,
            "lon": 20.059458333333332
        },
        {
            "name": "HETJA",
            "lat": 63.427083333333336,
            "lon": 19.867952783333333
        },
        {
            "name": "HLNB",
            "lat": 63.42425,
            "lon": 20.281944433333333
        },
        {
            "name": "LUNDI",
            "lat": 63.645277783333334,
            "lon": 20.821388883333334
        },
        {
            "name": "LUZOR",
            "lat": 63.31016388333333,
            "lon": 20.559338883333332
        },
        {
            "name": "MAVUR",
            "lat": 63.50305556666667,
            "lon": 20.594722216666668
        },
        {
            "name": "MIDAF",
            "lat": 63.341447216666666,
            "lon": 19.781777783333332
        },
        {
            "name": "MIDJA",
            "lat": 63.284,
            "lon": 20.384183333333333
        },
        {
            "name": "MQ12",
            "lat": 63.4371,
            "lon": 20.356816666666667
        },
        {
            "name": "MQ138",
            "lat": 63.451875,
            "lon": 20.443608333333334
        },
        {
            "name": "MQ30",
            "lat": 63.417325,
            "lon": 20.224372216666666
        },
        {
            "name": "NORNU",
            "lat": 63.48616666666667,
            "lon": 20.652572216666666
        },
        {
            "name": "PENUM",
            "lat": 63.548605566666666,
            "lon": 20.601613883333332
        },
        {
            "name": "RAFGO",
            "lat": 63.257613883333335,
            "lon": 20.209352783333333
        },
        {
            "name": "VEPIR",
            "lat": 63.42370556666667,
            "lon": 20.703311116666665
        },
        {
            "name": "VIZZU",
            "lat": 63.30271943333333,
            "lon": 19.972180566666665
        },
        {
            "name": "VM12F",
            "lat": 63.46381111666667,
            "lon": 20.515263883333333
        },
        {
            "name": "VMF03",
            "lat": 63.34129721666667,
            "lon": 20.341644433333332
        },
        {
            "name": "VMF30",
            "lat": 63.394047216666664,
            "lon": 20.093508333333332
        },
        {
            "name": "VMI30",
            "lat": 63.36491111666667,
            "lon": 19.920180566666666
        },
        {
            "name": "VMNB",
            "lat": 63.39958333333333,
            "lon": 20.288305566666665
        }
    ],
    "rnws": [
        "RNW 03",
        "RNW 12",
        "RNW 21",
        "RNW 30"
    ],
    "sids": [],
    "stars": [],
    "approaches": [
        {
            "name": "NDBDC03",
            "fixes": {
                "MAVUR": "MAVUR 2200",
                "MQ138": "MQ138 630 RNW 03 TRK 138 UNTIL 2000",
                "VMNB": "VMNB 2000 HOLD AT VMNB RIGHT TURN INBOUNDCOURSE 138 ALT 2000 LEGTIME 1 FAF MAVUR MAP MQ138"
            },
            "transitions": [
                {
                    "name": "LUNDI",
                    "fixes": {
                        "LUNDI": "LUNDI"
                    }
                }
            ]
        },
        {
            "name": "NDBD12",
            "fixes": {
                "FQ12": "FQ12 2000",
                "MQ12": "MQ12 978 RNW 12",
                "D122E": "OVERFLY D122E TURN RIGHT DIRECT",
                "HLNB": "HLNB 2000 HOLD AT HLNB RIGHT TURN INBOUNDCOURSE 122 ALT 2000 LEGTIME 1 FAF FQ12 MAP MQ12"
            },
            "transitions": []
        },
        {
            "name": "NDBDC12",
            "fixes": {
                "MAVUR": "MAVUR 2200",
                "MQ138": "MQ138 630 RNW 12 TRK 138 UNTIL 2000",
                "VMNB": "VMNB 2000 HOLD AT VMNB RIGHT TURN INBOUNDCOURSE 138 ALT 2000 LEGTIME 1 FAF MAVUR MAP MQ138"
            },
            "transitions": [
                {
                    "name": "LUNDI",
                    "fixes": {
                        "LUNDI": "LUNDI"
                    }
                }
            ]
        },
        {
            "name": "NDBDC21",
            "fixes": {
                "MAVUR": "MAVUR 2200",
                "MQ138": "MQ138 630 RNW 21 TRK 138 UNTIL 2000",
                "VMNB": "VMNB 2000 HOLD AT VMNB RIGHT TURN INBOUNDCOURSE 138 ALT 2000 LEGTIME 1 FAF MAVUR MAP MQ138"
            },
            "transitions": [
                {
                    "name": "LUNDI",
                    "fixes": {
                        "LUNDI": "LUNDI"
                    }
                }
            ]
        },
        {
            "name": "NDBD30",
            "fixes": {
                "FQ30": "FQ30 2500",
                "MQ30": "MQ30 789 RNW 30 TRK 296 UNTIL 2000 TURN LEFT DIRECT",
                "HLNB": "HLNB 2500 HOLD AT HLNB RIGHT TURN INBOUNDCOURSE 129 ALT 2500 LEGTIME 1 FAF FQ30 MAP MQ30"
            },
            "transitions": [
                {
                    "name": "HL",
                    "fixes": {
                        "HLNB": "HLNB",
                        "D309G": "OVERFLY D309G"
                    }
                }
            ]
        },
        {
            "name": "NDBDC30",
            "fixes": {
                "MAVUR": "MAVUR 2200",
                "MQ138": "MQ138 630 RNW 30 TRK 138 UNTIL 2000",
                "VMNB": "VMNB 2000 HOLD AT VMNB RIGHT TURN INBOUNDCOURSE 138 ALT 2000 LEGTIME 1 FAF MAVUR MAP MQ138"
            },
            "transitions": [
                {
                    "name": "LUNDI",
                    "fixes": {
                        "LUNDI": "LUNDI"
                    }
                }
            ]
        },
        {
            "name": "RNAV03",
            "fixes": {
                "MIDJA": "MIDJA AT OR ABOVE 2000 MIDJA 2000 HOLD AT MIDJA RIGHT TURN INBOUNDCOURSE 029 ALT 2000 LEGTIME 1 FAF VMF03 MAP RNW 03",
                "VMF03": "VMF03 2000 RNW 03 TRK 044 UNTIL 1500 TURN RIGHT DIRECT"
            },
            "transitions": [
                {
                    "name": "LUZOR",
                    "fixes": {
                        "LUZOR": "LUZOR AT OR ABOVE 2800"
                    }
                },
                {
                    "name": "RAFGO",
                    "fixes": {
                        "RAFGO": "RAFGO AT OR ABOVE 2000"
                    }
                }
            ]
        },
        {
            "name": "RNAV12",
            "fixes": {
                "VM12F": "VM12F 2500 RNW 12 TRK 121 UNTIL 1500 TURN RIGHT DIRECT",
                "NORNU": "NORNU 2500 HOLD AT NORNU RIGHT TURN INBOUNDCOURSE 121 ALT 2500 LEGTIME 1 FAF VM12F MAP RNW 12"
            },
            "transitions": [
                {
                    "name": "NORNU",
                    "fixes": {
                        "NORNU": "NORNU AT OR ABOVE 2500"
                    }
                },
                {
                    "name": "PENUM",
                    "fixes": {
                        "PENUM": "PENUM AT OR ABOVE 3700",
                        "NORNU": "NORNU AT OR ABOVE 2500"
                    }
                },
                {
                    "name": "VEPIR",
                    "fixes": {
                        "VEPIR": "VEPIR AT OR ABOVE 2500",
                        "NORNU": "NORNU AT OR ABOVE 2500"
                    }
                }
            ]
        },
        {
            "name": "RNAV30",
            "fixes": {
                "VMI30": "VMI30 AT OR ABOVE 3300 OVERFLY VMI30 3300 HOLD AT VMI30 RIGHT TURN INBOUNDCOURSE 302 ALT 3300 LEGTIME 1 FAF VMF30 MAP RNW 30",
                "VMF30": "VMF30 2200 RNW 30 TRK 301 UNTIL 1900 TURN LEFT DIRECT"
            },
            "transitions": [
                {
                    "name": "HETJA",
                    "fixes": {
                        "HETJA": "HETJA AT OR ABOVE 4700"
                    }
                },
                {
                    "name": "MIDAF",
                    "fixes": {
                        "MIDAF": "MIDAF AT OR ABOVE 4700"
                    }
                },
                {
                    "name": "VIZZU",
                    "fixes": {
                        "VIZZU": "VIZZU AT OR ABOVE 3300"
                    }
                }
            ]
        }
    ]
}