{
    "fixes": [
        {
            "name": "DEBEV",
            "lat": 51.045344433333334,
            "lon": 113.557425
        },
        {
            "name": "DEPRA",
            "lat": 51.22292778333333,
            "lon": 113.56290278333333
        },
        {
            "name": "EMPUD",
            "lat": 50.962122216666664,
            "lon": 113.55487221666667
        },
        {
            "name": "GOSUX",
            "lat": 51.13706943333333,
            "lon": 113.29561388333333
        },
        {
            "name": "IKBET",
            "lat": 51.30614443333333,
            "lon": 113.56548611666666
        },
        {
            "name": "IKDIS",
            "lat": 50.96408888333333,
            "lon": 113.38355
        },
        {
            "name": "KESPU",
            "lat": 51.094625,
            "lon": 113.55866666666667
        },
        {
            "name": "LESOB",
            "lat": 50.90210278333333,
            "lon": 113.64613611666667
        },
        {
            "name": "VETBO",
            "lat": 51.363802783333334,
            "lon": 113.66131388333334
        },
        {
            "name": "XOSAR",
            "lat": 51.308125,
            "lon": 113.39288611666667
        }
    ],
    "rnws": [
        "RNW 16",
        "RNW 34"
    ],
    "sids": [],
    "stars": [],
    "approaches": [
        {
            "name": "RNAV16",
            "fixes": {
                "IKBET": "IKBET AT OR ABOVE 4800 SPEED 180",
                "DEPRA": "DEPRA 4750 RNW 16 TURN LEFT DIRECT",
                "GOSUX": "OVERFLY GOSUX 4700 HOLD AT GOSUX RIGHT TURN INBOUNDCOURSE 344 SPEED 265 LEGTIME 1 FAF DEPRA MAP RNW 16"
            },
            "transitions": [
                {
                    "name": "VETBO",
                    "fixes": {
                        "VETBO": "VETBO SPEED 210"
                    }
                },
                {
                    "name": "XOSAR",
                    "fixes": {
                        "XOSAR": "XOSAR SPEED 210"
                    }
                }
            ]
        },
        {
            "name": "RNAV34",
            "fixes": {
                "EMPUD": "EMPUD AT OR ABOVE 4800 SPEED 180",
                "DEBEV": "DEBEV 4730",
                "KESPU": "KESPU AT OR ABOVE 3790 RNW 34 TURN RIGHT DIRECT",
                "GOSUX": "OVERFLY GOSUX 4700 HOLD AT GOSUX RIGHT TURN INBOUNDCOURSE 344 SPEED 265 LEGTIME 1 FAF DEBEV MAP RNW 34"
            },
            "transitions": [
                {
                    "name": "IKDIS",
                    "fixes": {
                        "IKDIS": "IKDIS SPEED 210"
                    }
                },
                {
                    "name": "LESOB",
                    "fixes": {
                        "LESOB": "LESOB SPEED 210"
                    }
                }
            ]
        }
    ]
}