{
    "fixes": [
        {
            "name": "BAILS",
            "lat": 52.21923888333333,
            "lon": 113.03103056666667
        },
        {
            "name": "IKNEN",
            "lat": 52.30843333333333,
            "lon": 112.47790556666666
        },
        {
            "name": "ILENU",
            "lat": 52.310780566666665,
            "lon": 113.03056943333333
        },
        {
            "name": "IMISU",
            "lat": 52.30939443333333,
            "lon": 112.64081943333333
        },
        {
            "name": "IRBOD",
            "lat": 52.39996943333333,
            "lon": 112.47629721666667
        },
        {
            "name": "ITGES",
            "lat": 52.310408333333335,
            "lon": 112.88338888333334
        },
        {
            "name": "MUTMU",
            "lat": 52.2169,
            "lon": 112.47950556666666
        },
        {
            "name": "MUTNI",
            "lat": 52.40231943333333,
            "lon": 113.03010278333333
        },
        {
            "name": "RERIL",
            "lat": 52.31035833333333,
            "lon": 112.86764166666667
        },
        {
            "name": "TAKOK",
            "lat": 52.30931388333333,
            "lon": 112.62526111666666
        }
    ],
    "rnws": [
        "RNW 07",
        "RNW 25"
    ],
    "sids": [],
    "stars": [],
    "approaches": [
        {
            "name": "RNAV07",
            "fixes": {
                "ILENU": "ILENU AT OR ABOVE 4000 SPEED 180",
                "RERIL": "RERIL 4000 RNW 07",
                "TAKOK": "OVERFLY TAKOK 4100 HOLD AT TAKOK RIGHT TURN INBOUNDCOURSE 076 SPEED 250 LEGTIME 1 FAF RERIL MAP RNW 07"
            },
            "transitions": [
                {
                    "name": "BAILS",
                    "fixes": {
                        "BAILS": "BAILS SPEED 210"
                    }
                },
                {
                    "name": "MUTNI",
                    "fixes": {
                        "MUTNI": "MUTNI SPEED 210"
                    }
                }
            ]
        },
        {
            "name": "RNAV25",
            "fixes": {
                "IKNEN": "IKNEN AT OR ABOVE 4100 SPEED 180",
                "IMISU": "IMISU 3990 RNW 25",
                "ITGES": "OVERFLY ITGES 4100 HOLD AT ITGES RIGHT TURN INBOUNDCOURSE 256 SPEED 250 LEGTIME 1 FAF IMISU MAP RNW 25"
            },
            "transitions": [
                {
                    "name": "IRBOD",
                    "fixes": {
                        "IRBOD": "IRBOD SPEED 210"
                    }
                },
                {
                    "name": "MUTMU",
                    "fixes": {
                        "MUTMU": "MUTMU SPEED 210"
                    }
                }
            ]
        }
    ]
}