{
    "fixes": [
        {
            "name": "DUXEV",
            "lat": 54.00546943333333,
            "lon": 111.534425
        },
        {
            "name": "IGRUP",
            "lat": 53.869725,
            "lon": 111.07535833333333
        },
        {
            "name": "IMUGU",
            "lat": 54.01785278333333,
            "lon": 111.70261666666667
        },
        {
            "name": "LIDAL",
            "lat": 54.007813883333334,
            "lon": 111.56600278333333
        },
        {
            "name": "SELEB",
            "lat": 53.968688883333336,
            "lon": 111.05306666666667
        },
        {
            "name": "TADOK",
            "lat": 53.98174443333333,
            "lon": 111.22096666666667
        },
        {
            "name": "TIGAB",
            "lat": 53.97935556666667,
            "lon": 111.19001943333333
        },
        {
            "name": "URLUS",
            "lat": 54.11692778333333,
            "lon": 111.68173888333334
        },
        {
            "name": "XOTUB",
            "lat": 54.067647216666664,
            "lon": 111.03067221666667
        },
        {
            "name": "XUGAG",
            "lat": 53.91877221666667,
            "lon": 111.72339443333334
        }
    ],
    "rnws": [
        "RNW 08",
        "RNW 26"
    ],
    "sids": [],
    "stars": [],
    "approaches": [
        {
            "name": "RNAV08",
            "fixes": {
                "IMUGU": "IMUGU AT OR ABOVE 3900 SPEED 180",
                "DUXEV": "DUXEV 3900 RNW 08",
                "TIGAB": "OVERFLY TIGAB 4100 HOLD AT TIGAB RIGHT TURN INBOUNDCOURSE 083 LEGTIME 1 FAF DUXEV MAP RNW 08"
            },
            "transitions": [
                {
                    "name": "URLUS",
                    "fixes": {
                        "URLUS": "URLUS SPEED 210"
                    }
                },
                {
                    "name": "XUGAG",
                    "fixes": {
                        "XUGAG": "XUGAG SPEED 210"
                    }
                }
            ]
        },
        {
            "name": "RNAV26",
            "fixes": {
                "SELEB": "SELEB AT OR ABOVE 4000 SPEED 180",
                "TADOK": "TADOK 3900 RNW 26",
                "LIDAL": "OVERFLY LIDAL 4100 HOLD AT LIDAL RIGHT TURN INBOUNDCOURSE 263 LEGTIME 1 FAF TADOK MAP RNW 26"
            },
            "transitions": [
                {
                    "name": "IGRUP",
                    "fixes": {
                        "IGRUP": "IGRUP SPEED 210"
                    }
                },
                {
                    "name": "XOTUB",
                    "fixes": {
                        "XOTUB": "XOTUB SPEED 210"
                    }
                }
            ]
        }
    ]
}