{
    "fixes": [
        {
            "name": "KISUB",
            "lat": 45.914144433333334,
            "lon": 63.55129443333333
        },
        {
            "name": "MESBU",
            "lat": 45.971719433333334,
            "lon": 63.66231388333333
        },
        {
            "name": "MISIP",
            "lat": 45.81975,
            "lon": 63.354761116666666
        },
        {
            "name": "MUPTU",
            "lat": 45.70405556666667,
            "lon": 63.32290556666667
        },
        {
            "name": "MUSVU",
            "lat": 45.77302221666667,
            "lon": 63.256152783333334
        },
        {
            "name": "ROVRI",
            "lat": 46.03921666666667,
            "lon": 63.59223611666667
        },
        {
            "name": "TARGU",
            "lat": 45.91505278333333,
            "lon": 63.5501
        },
        {
            "name": "VEVKO",
            "lat": 45.90417778333333,
            "lon": 63.732219433333334
        },
        {
            "name": "VIGVU",
            "lat": 45.84195,
            "lon": 63.18923888333333
        },
        {
            "name": "VIPLA",
            "lat": 45.81846388333334,
            "lon": 63.35576388333333
        }
    ],
    "rnws": [
        "RNW 15",
        "RNW 33"
    ],
    "sids": [],
    "stars": [],
    "approaches": [
        {
            "name": "RNAV15",
            "fixes": {
                "MESBU": "MESBU AT OR ABOVE 1400 SPEED 180",
                "TARGU": "TARGU 1100 RNW 15",
                "VIPLA": "OVERFLY VIPLA 1700 HOLD AT VIPLA RIGHT TURN INBOUNDCOURSE 143 LEGTIME 1 FAF TARGU MAP RNW 15"
            },
            "transitions": [
                {
                    "name": "ROVRI",
                    "fixes": {
                        "ROVRI": "ROVRI SPEED 210"
                    }
                },
                {
                    "name": "VEVKO",
                    "fixes": {
                        "VEVKO": "VEVKO SPEED 210"
                    }
                }
            ]
        },
        {
            "name": "RNAV33",
            "fixes": {
                "MUSVU": "MUSVU AT OR ABOVE 1700 SPEED 180",
                "MISIP": "MISIP 1700 RNW 33",
                "KISUB": "OVERFLY KISUB 1700 HOLD AT KISUB RIGHT TURN INBOUNDCOURSE 323 LEGTIME 1 FAF MISIP MAP RNW 33"
            },
            "transitions": [
                {
                    "name": "MUPTU",
                    "fixes": {
                        "MUPTU": "MUPTU SPEED 210"
                    }
                },
                {
                    "name": "VIGVU",
                    "fixes": {
                        "VIGVU": "VIGVU SPEED 210"
                    }
                }
            ]
        }
    ]
}