{
    "fixes": [
        {
            "name": "AVREM",
            "lat": 55.709,
            "lon": 117.42655278333334
        },
        {
            "name": "KASIB",
            "lat": 55.70929443333333,
            "lon": 117.24978333333334
        },
        {
            "name": "KETRA",
            "lat": 55.61739166666667,
            "lon": 116.76374721666667
        },
        {
            "name": "LIBOV",
            "lat": 55.80036666666667,
            "lon": 116.76216111666666
        },
        {
            "name": "MEPKO",
            "lat": 55.61751111666667,
            "lon": 117.42586666666666
        },
        {
            "name": "ONKAD",
            "lat": 55.7092,
            "lon": 117.29340556666666
        },
        {
            "name": "TOTUV",
            "lat": 55.80048611666667,
            "lon": 117.42724443333333
        },
        {
            "name": "UDBEK",
            "lat": 55.709241666666664,
            "lon": 116.939725
        },
        {
            "name": "VIGNI",
            "lat": 55.709122216666664,
            "lon": 116.89538611666667
        },
        {
            "name": "VOKIK",
            "lat": 55.708880566666664,
            "lon": 116.76295556666666
        }
    ],
    "rnws": [
        "RNW 07",
        "RNW 25"
    ],
    "sids": [],
    "stars": [],
    "approaches": [
        {
            "name": "RNAVY07",
            "fixes": {
                "AVREM": "AVREM AT OR ABOVE 3600 SPEED 180",
                "KASIB": "KASIB 3600 RNW 07",
                "VIGNI": "OVERFLY VIGNI 3900 HOLD AT VIGNI RIGHT TURN INBOUNDCOURSE 073 LEGTIME 1 FAF KASIB MAP RNW 07"
            },
            "transitions": [
                {
                    "name": "MEPKO",
                    "fixes": {
                        "MEPKO": "MEPKO SPEED 200"
                    }
                },
                {
                    "name": "TOTUV",
                    "fixes": {
                        "TOTUV": "TOTUV SPEED 200"
                    }
                }
            ]
        },
        {
            "name": "RNAVZ07",
            "fixes": {
                "AVREM": "AVREM AT OR ABOVE 3600 SPEED 180",
                "KASIB": "KASIB 3600 RNW 07",
                "VIGNI": "OVERFLY VIGNI 3900 HOLD AT VIGNI RIGHT TURN INBOUNDCOURSE 073 LEGTIME 1 FAF KASIB MAP RNW 07"
            },
            "transitions": [
                {
                    "name": "MEPKO",
                    "fixes": {
                        "MEPKO": "MEPKO SPEED 200"
                    }
                },
                {
                    "name": "TOTUV",
                    "fixes": {
                        "TOTUV": "TOTUV SPEED 200"
                    }
                }
            ]
        },
        {
            "name": "RNAV25",
            "fixes": {
                "VOKIK": "VOKIK AT OR ABOVE 3600 SPEED 180",
                "UDBEK": "UDBEK 3600 RNW 25",
                "ONKAD": "OVERFLY ONKAD 3900 HOLD AT ONKAD RIGHT TURN INBOUNDCOURSE 253 LEGTIME 1 FAF UDBEK MAP RNW 25"
            },
            "transitions": [
                {
                    "name": "KETRA",
                    "fixes": {
                        "KETRA": "KETRA SPEED 200"
                    }
                },
                {
                    "name": "LIBOV",
                    "fixes": {
                        "LIBOV": "LIBOV SPEED 200"
                    }
                }
            ]
        }
    ]
}