{
    "fixes": [
        {
            "name": "ALILO",
            "lat": 49.17260278333333,
            "lon": 98.37490556666667
        },
        {
            "name": "APLUR",
            "lat": 49.183205566666665,
            "lon": 97.93113611666666
        },
        {
            "name": "AVTID",
            "lat": 49.37686111666667,
            "lon": 98.01047778333333
        },
        {
            "name": "BOROV",
            "lat": 49.176741666666665,
            "lon": 97.89770833333333
        },
        {
            "name": "DASGI",
            "lat": 49.359425,
            "lon": 97.88581111666667
        },
        {
            "name": "DUVIP",
            "lat": 49.34858611666667,
            "lon": 98.29723611666667
        },
        {
            "name": "EBLAB",
            "lat": 49.26060278333333,
            "lon": 98.33613888333333
        },
        {
            "name": "ETKAN",
            "lat": 49.15487221666667,
            "lon": 97.78501388333333
        },
        {
            "name": "IGSUR",
            "lat": 49.29542778333333,
            "lon": 98.03703611666667
        },
        {
            "name": "MOBIG",
            "lat": 49.067058333333335,
            "lon": 97.82466943333333
        },
        {
            "name": "MUSAV",
            "lat": 49.45828611666666,
            "lon": 97.98383056666667
        },
        {
            "name": "NOTON",
            "lat": 49.24266943333333,
            "lon": 97.74521388333334
        },
        {
            "name": "ONDON",
            "lat": 49.394163883333334,
            "lon": 98.13523333333333
        },
        {
            "name": "PURAP",
            "lat": 49.15697778333333,
            "lon": 98.08198333333333
        },
        {
            "name": "TUMEG",
            "lat": 49.20831388333333,
            "lon": 98.4549
        },
        {
            "name": "UKTOD",
            "lat": 49.23922221666667,
            "lon": 98.22339166666667
        },
        {
            "name": "UKUDA",
            "lat": 49.21895833333333,
            "lon": 98.11714721666667
        },
        {
            "name": "VODOS",
            "lat": 49.23278333333333,
            "lon": 98.18955833333334
        }
    ],
    "rnws": [
        "RNW 10",
        "RNW 18",
        "RNW 28",
        "RNW 36"
    ],
    "sids": [],
    "stars": [],
    "approaches": [
        {
            "name": "RNAV10",
            "fixes": {
                "EBLAB": "EBLAB AT OR ABOVE 2900 SPEED 180",
                "VODOS": "VODOS 2600",
                "UKUDA": "UKUDA AT OR ABOVE 1630 RNW 10",
                "BOROV": "OVERFLY BOROV 3300 HOLD AT BOROV RIGHT TURN INBOUNDCOURSE 102 SPEED 200 LEGTIME 1 FAF VODOS MAP RNW 10"
            },
            "transitions": [
                {
                    "name": "ALILO",
                    "fixes": {
                        "ALILO": "ALILO SPEED 210"
                    }
                },
                {
                    "name": "DUVIP",
                    "fixes": {
                        "DUVIP": "DUVIP AT OR BELOW 4000 SPEED 210"
                    }
                }
            ]
        },
        {
            "name": "RNAV18",
            "fixes": {
                "AVTID": "AVTID AT OR ABOVE 3500",
                "IGSUR": "IGSUR 2590 RNW 18",
                "PURAP": "OVERFLY PURAP AT OR ABOVE 2500",
                "TUMEG": "OVERFLY TUMEG 3500 HOLD AT TUMEG RIGHT TURN INBOUNDCOURSE 278 LEGTIME 1 FAF IGSUR MAP RNW 18"
            },
            "transitions": [
                {
                    "name": "DASGI",
                    "fixes": {
                        "DASGI": "DASGI"
                    }
                },
                {
                    "name": "MUSAV",
                    "fixes": {
                        "MUSAV": "MUSAV"
                    }
                },
                {
                    "name": "ONDON",
                    "fixes": {
                        "ONDON": "ONDON"
                    }
                }
            ]
        },
        {
            "name": "RNAV28",
            "fixes": {
                "ETKAN": "ETKAN AT OR ABOVE 2600 SPEED 180",
                "APLUR": "APLUR 2600 RNW 28",
                "UKTOD": "OVERFLY UKTOD 3300 HOLD AT UKTOD RIGHT TURN INBOUNDCOURSE 282 SPEED 200 LEGTIME 1 FAF APLUR MAP RNW 28"
            },
            "transitions": [
                {
                    "name": "MOBIG",
                    "fixes": {
                        "MOBIG": "MOBIG SPEED 210"
                    }
                },
                {
                    "name": "NOTON",
                    "fixes": {
                        "NOTON": "NOTON SPEED 210"
                    }
                }
            ]
        }
    ]
}