{
    "fixes": [
        {
            "name": "APDUD",
            "lat": 57.95287221666667,
            "lon": 104.938925
        },
        {
            "name": "BOTAK",
            "lat": 57.58037221666667,
            "lon": 105.109375
        },
        {
            "name": "DUVUL",
            "lat": 57.85597778333333,
            "lon": 104.98361111666667
        },
        {
            "name": "EMKID",
            "lat": 57.693641666666664,
            "lon": 105.05792778333333
        },
        {
            "name": "GORAG",
            "lat": 57.599930566666664,
            "lon": 105.25986111666667
        },
        {
            "name": "IKDUS",
            "lat": 57.84113611666667,
            "lon": 104.99043333333333
        },
        {
            "name": "IMEKI",
            "lat": 57.972630566666666,
            "lon": 105.090875
        },
        {
            "name": "IRGES",
            "lat": 57.560636116666664,
            "lon": 104.95905
        },
        {
            "name": "KERDO",
            "lat": 57.67731388333333,
            "lon": 105.06536388333333
        },
        {
            "name": "URTAX",
            "lat": 57.93293056666667,
            "lon": 104.78714166666667
        }
    ],
    "rnws": [
        "RNW 18",
        "RNW 36"
    ],
    "sids": [],
    "stars": [],
    "approaches": [
        {
            "name": "RNAV18",
            "fixes": {
                "APDUD": "APDUD AT OR ABOVE 3400 SPEED 180",
                "DUVUL": "DUVUL 3400 RNW 18",
                "EMKID": "OVERFLY EMKID 3400 HOLD AT EMKID RIGHT TURN INBOUNDCOURSE 184 LEGTIME 1 FAF DUVUL MAP RNW 18"
            },
            "transitions": [
                {
                    "name": "IMEKI",
                    "fixes": {
                        "IMEKI": "IMEKI SPEED 210"
                    }
                },
                {
                    "name": "URTAX",
                    "fixes": {
                        "URTAX": "URTAX SPEED 210"
                    }
                }
            ]
        },
        {
            "name": "RNAV36",
            "fixes": {
                "BOTAK": "BOTAK AT OR ABOVE 3400 SPEED 180",
                "KERDO": "KERDO 3400 RNW 36",
                "IKDUS": "OVERFLY IKDUS 3400 HOLD AT IKDUS RIGHT TURN INBOUNDCOURSE 004 LEGTIME 1 FAF KERDO MAP RNW 36"
            },
            "transitions": [
                {
                    "name": "GORAG",
                    "fixes": {
                        "GORAG": "GORAG SPEED 210"
                    }
                },
                {
                    "name": "IRGES",
                    "fixes": {
                        "IRGES": "IRGES SPEED 210"
                    }
                }
            ]
        }
    ]
}