{
    "fixes": [
        {
            "name": "DASBO",
            "lat": 53.93265556666667,
            "lon": 91.14776111666667
        },
        {
            "name": "ETGUS",
            "lat": 53.93395,
            "lon": 91.14305278333333
        },
        {
            "name": "ETLOM",
            "lat": 53.99740833333333,
            "lon": 90.91071666666667
        },
        {
            "name": "ILAGI",
            "lat": 53.89173888333333,
            "lon": 91.29629443333333
        },
        {
            "name": "IPSAL",
            "lat": 53.81636666666667,
            "lon": 91.23671666666667
        },
        {
            "name": "MUSIS",
            "lat": 53.963486116666665,
            "lon": 90.69788611666667
        },
        {
            "name": "OKUTU",
            "lat": 53.96708056666667,
            "lon": 91.35608888333333
        },
        {
            "name": "PYETT",
            "lat": 54.03912221666667,
            "lon": 90.75669721666667
        },
        {
            "name": "URPAG",
            "lat": 54.114730566666665,
            "lon": 90.815725
        },
        {
            "name": "XOSEK",
            "lat": 53.998561116666664,
            "lon": 90.906475
        }
    ],
    "rnws": [
        "RNW 07",
        "RNW 25"
    ],
    "sids": [],
    "stars": [],
    "approaches": [
        {
            "name": "RNAV07",
            "fixes": {
                "ILAGI": "ILAGI AT OR ABOVE 2200",
                "ETGUS": "ETGUS 2200 RNW 07",
                "XOSEK": "OVERFLY XOSEK 2300 HOLD AT XOSEK RIGHT TURN INBOUNDCOURSE 069 LEGTIME 1 FAF ETGUS MAP RNW 07"
            },
            "transitions": [
                {
                    "name": "IPSAL",
                    "fixes": {
                        "IPSAL": "IPSAL SPEED 210"
                    }
                },
                {
                    "name": "OKUTU",
                    "fixes": {
                        "OKUTU": "OKUTU SPEED 210"
                    }
                }
            ]
        },
        {
            "name": "RNAV25",
            "fixes": {
                "PYETT": "PYETT AT OR ABOVE 2200",
                "ETLOM": "ETLOM 2200 RNW 25",
                "DASBO": "OVERFLY DASBO 2300 HOLD AT DASBO RIGHT TURN INBOUNDCOURSE 249 LEGTIME 1 FAF ETLOM MAP RNW 25"
            },
            "transitions": [
                {
                    "name": "MUSIS",
                    "fixes": {
                        "MUSIS": "MUSIS SPEED 210"
                    }
                },
                {
                    "name": "URPAG",
                    "fixes": {
                        "URPAG": "URPAG SPEED 210"
                    }
                }
            ]
        }
    ]
}