{
    "fixes": [
        {
            "name": "NAGNU",
            "lat": 44.442019433333336,
            "lon": 79.00383611666666
        },
        {
            "name": "ODKIL",
            "lat": 44.36716943333333,
            "lon": 79.05493333333334
        },
        {
            "name": "OKUMO",
            "lat": 44.33056943333333,
            "lon": 78.68804443333333
        },
        {
            "name": "PIBKA",
            "lat": 44.51684721666667,
            "lon": 78.95260833333333
        },
        {
            "name": "SELUK",
            "lat": 44.39796666666667,
            "lon": 78.87857221666667
        },
        {
            "name": "SIGPU",
            "lat": 44.21151666666667,
            "lon": 78.61477778333334
        },
        {
            "name": "TIKOP",
            "lat": 44.360802783333334,
            "lon": 78.51160556666666
        },
        {
            "name": "UBTIV",
            "lat": 44.32974721666667,
            "lon": 78.68572778333333
        },
        {
            "name": "UDLUS",
            "lat": 44.286172216666664,
            "lon": 78.56325556666667
        },
        {
            "name": "VIDKA",
            "lat": 44.3992,
            "lon": 78.882075
        },
        {
            "name": "XIDOP",
            "lat": 44.379902783333335,
            "lon": 78.82737778333333
        },
        {
            "name": "XOVMU",
            "lat": 44.34911388333333,
            "lon": 78.74033056666667
        }
    ],
    "rnws": [
        "RNW 03",
        "RNW 13",
        "RNW 21",
        "RNW 31"
    ],
    "sids": [],
    "stars": [],
    "approaches": [
        {
            "name": "RNAV13",
            "fixes": {
                "NAGNU": "NAGNU AT OR ABOVE 2300",
                "SELUK": "SELUK 2300",
                "XIDOP": "XIDOP AT OR ABOVE 1520 RNW 13",
                "UBTIV": "OVERFLY UBTIV 2700 HOLD AT UBTIV RIGHT TURN INBOUNDCOURSE 127 LEGTIME 1 FAF SELUK MAP RNW 13"
            },
            "transitions": [
                {
                    "name": "ODKIL",
                    "fixes": {
                        "ODKIL": "ODKIL SPEED 210"
                    }
                },
                {
                    "name": "PIBKA",
                    "fixes": {
                        "PIBKA": "PIBKA SPEED 210"
                    }
                }
            ]
        },
        {
            "name": "RNAV31",
            "fixes": {
                "UDLUS": "UDLUS AT OR ABOVE 2400",
                "OKUMO": "OKUMO 2300",
                "XOVMU": "XOVMU AT OR ABOVE 1500 RNW 31",
                "VIDKA": "OVERFLY VIDKA 2500 HOLD AT VIDKA RIGHT TURN INBOUNDCOURSE 307 LEGTIME 1 FAF OKUMO MAP RNW 31"
            },
            "transitions": [
                {
                    "name": "SIGPU",
                    "fixes": {
                        "SIGPU": "SIGPU SPEED 210"
                    }
                },
                {
                    "name": "TIKOP",
                    "fixes": {
                        "TIKOP": "TIKOP SPEED 210"
                    }
                }
            ]
        }
    ]
}