{
    "fixes": [
        {
            "name": "EMLEM",
            "lat": 52.945111116666666,
            "lon": 89.59307221666667
        },
        {
            "name": "EMUTA",
            "lat": 53.084569433333336,
            "lon": 90.11395278333333
        },
        {
            "name": "IKBOM",
            "lat": 53.16011388333333,
            "lon": 90.05597221666666
        },
        {
            "name": "IKDAX",
            "lat": 53.021594433333334,
            "lon": 89.53876666666666
        },
        {
            "name": "KEVMA",
            "lat": 52.98431111666667,
            "lon": 89.745175
        },
        {
            "name": "MUVID",
            "lat": 52.86860278333333,
            "lon": 89.64718888333333
        },
        {
            "name": "ODGUV",
            "lat": 53.008994433333335,
            "lon": 90.17172778333334
        },
        {
            "name": "UBVAG",
            "lat": 52.97919721666667,
            "lon": 89.73756111666667
        },
        {
            "name": "UDGEG",
            "lat": 53.043019433333335,
            "lon": 89.97493333333334
        },
        {
            "name": "XESAV",
            "lat": 53.04265556666667,
            "lon": 89.96350556666667
        }
    ],
    "rnws": [
        "RNW 12",
        "RNW 30"
    ],
    "sids": [],
    "stars": [],
    "approaches": [
        {
            "name": "RNAV12",
            "fixes": {
                "EMUTA": "EMUTA AT OR ABOVE 2200",
                "XESAV": "XESAV 2200 RNW 12",
                "UBVAG": "OVERFLY UBVAG 2400 HOLD AT UBVAG RIGHT TURN INBOUNDCOURSE 119 ALT 2400 SPEED 230 LEGTIME 1 FAF XESAV MAP RNW 12"
            },
            "transitions": [
                {
                    "name": "IKBOM",
                    "fixes": {
                        "IKBOM": "IKBOM SPEED 210"
                    }
                },
                {
                    "name": "ODGUV",
                    "fixes": {
                        "ODGUV": "ODGUV SPEED 210"
                    }
                }
            ]
        },
        {
            "name": "RNAV30",
            "fixes": {
                "EMLEM": "EMLEM AT OR ABOVE 2200",
                "KEVMA": "KEVMA 2200 RNW 30",
                "UDGEG": "OVERFLY UDGEG 2400 HOLD AT UDGEG RIGHT TURN INBOUNDCOURSE 297 SPEED 230 LEGTIME 1 FAF KEVMA MAP RNW 30"
            },
            "transitions": [
                {
                    "name": "IKDAX",
                    "fixes": {
                        "IKDAX": "IKDAX SPEED 210"
                    }
                },
                {
                    "name": "MUVID",
                    "fixes": {
                        "MUVID": "MUVID SPEED 210"
                    }
                }
            ]
        }
    ]
}