{
    "fixes": [
        {
            "name": "APREM",
            "lat": 43.71598611666667,
            "lon": 81.17000556666666
        },
        {
            "name": "BODLU",
            "lat": 43.85948056666667,
            "lon": 81.05293056666666
        },
        {
            "name": "DUSIG",
            "lat": 43.78775,
            "lon": 81.11153888333334
        },
        {
            "name": "KITUL",
            "lat": 43.84365,
            "lon": 81.24238888333333
        },
        {
            "name": "PEKNO",
            "lat": 43.83011388333333,
            "lon": 81.21064443333333
        },
        {
            "name": "URSED",
            "lat": 43.92048056666667,
            "lon": 81.42320556666667
        }
    ],
    "rnws": [
        "RNW 13",
        "RNW 31"
    ],
    "sids": [],
    "stars": [],
    "approaches": [
        {
            "name": "RNAV31",
            "fixes": {
                "DUSIG": "DUSIG AT OR ABOVE 2600 SPEED 180",
                "PEKNO": "PEKNO 2410",
                "KITUL": "KITUL AT OR ABOVE 1900 RNW 31",
                "URSED": "OVERFLY URSED 5500 HOLD AT URSED RIGHT TURN INBOUNDCOURSE 310 SPEED 265 LEGDIST 9 FAF PEKNO MAP RNW 31"
            },
            "transitions": [
                {
                    "name": "APREM",
                    "fixes": {
                        "APREM": "APREM SPEED 210"
                    }
                },
                {
                    "name": "BODLU",
                    "fixes": {
                        "BODLU": "BODLU SPEED 210"
                    }
                }
            ]
        }
    ]
}