{
    "fixes": [
        {
            "name": "AVINU",
            "lat": 43.92826388333334,
            "lon": 60.008608333333335
        },
        {
            "name": "AXIPI",
            "lat": 44.001161116666665,
            "lon": 60.21347778333333
        },
        {
            "name": "KITAV",
            "lat": 43.93466111666667,
            "lon": 59.74936388333333
        },
        {
            "name": "LOLDO",
            "lat": 43.99025,
            "lon": 59.6634
        },
        {
            "name": "NABTI",
            "lat": 43.926608333333334,
            "lon": 60.07206111666667
        },
        {
            "name": "OBRUD",
            "lat": 43.92398333333333,
            "lon": 60.16993333333333
        },
        {
            "name": "OTNUB",
            "lat": 43.931891666666665,
            "lon": 59.86462221666667
        },
        {
            "name": "UBVEL",
            "lat": 43.932316666666665,
            "lon": 59.847261116666665
        },
        {
            "name": "URTOR",
            "lat": 43.92706388333333,
            "lon": 60.05470278333333
        }
    ],
    "rnws": [
        "RNW 11",
        "RNW 29"
    ],
    "sids": [],
    "stars": [],
    "approaches": [
        {
            "name": "RNAV11",
            "fixes": {
                "OBRUD": "OBRUD AT OR ABOVE 1400 SPEED 140",
                "URTOR": "URTOR 1330",
                "AVINU": "AVINU AT OR ABOVE 690 RNW 11",
                "UBVEL": "OVERFLY UBVEL 1300 HOLD AT UBVEL RIGHT TURN INBOUNDCOURSE 105 LEGTIME 1 FAF URTOR MAP RNW 11"
            },
            "transitions": [
                {
                    "name": "AXIPI",
                    "fixes": {
                        "AXIPI": "AXIPI SPEED 140"
                    }
                }
            ]
        },
        {
            "name": "RNAV29",
            "fixes": {
                "KITAV": "KITAV AT OR ABOVE 1400 SPEED 140",
                "OTNUB": "OTNUB 1330 RNW 29",
                "NABTI": "OVERFLY NABTI 1300 HOLD AT NABTI LEFT TURN INBOUNDCOURSE 285 LEGTIME 1 FAF OTNUB MAP RNW 29"
            },
            "transitions": [
                {
                    "name": "LOLDO",
                    "fixes": {
                        "LOLDO": "LOLDO SPEED 140"
                    }
                }
            ]
        }
    ]
}