{
    "fixes": [
        {
            "name": "ADVIB",
            "lat": 54.60350833333333,
            "lon": 70.88540556666666
        },
        {
            "name": "AXEPO",
            "lat": 54.53235278333333,
            "lon": 71.29671111666667
        },
        {
            "name": "BOLRI",
            "lat": 54.42386666666667,
            "lon": 71.41953611666666
        },
        {
            "name": "DARSO",
            "lat": 54.52370556666666,
            "lon": 70.84499721666667
        },
        {
            "name": "ETGEP",
            "lat": 54.5762,
            "lon": 71.04438333333333
        },
        {
            "name": "GOSIL",
            "lat": 54.503475,
            "lon": 71.46096388333333
        },
        {
            "name": "ITPEX",
            "lat": 54.57519166666667,
            "lon": 71.05023333333334
        },
        {
            "name": "LIVBU",
            "lat": 54.583072216666665,
            "lon": 71.50255278333333
        },
        {
            "name": "REXUK",
            "lat": 54.5319,
            "lon": 71.29929443333333
        },
        {
            "name": "UKPOV",
            "lat": 54.683297216666666,
            "lon": 70.92597221666666
        }
    ],
    "rnws": [
        "RNW 09",
        "RNW 27"
    ],
    "sids": [],
    "stars": [],
    "approaches": [
        {
            "name": "RNAVY09",
            "fixes": {
                "GOSIL": "GOSIL AT OR ABOVE 2900",
                "AXEPO": "AXEPO 2900 RNW 09",
                "ETGEP": "OVERFLY ETGEP 3600 HOLD AT ETGEP RIGHT TURN INBOUNDCOURSE 094 LEGTIME 1 FAF AXEPO MAP RNW 09"
            },
            "transitions": [
                {
                    "name": "BOLRI",
                    "fixes": {
                        "BOLRI": "BOLRI SPEED 210"
                    }
                },
                {
                    "name": "LIVBU",
                    "fixes": {
                        "LIVBU": "LIVBU SPEED 210"
                    }
                }
            ]
        },
        {
            "name": "RNAVZ09",
            "fixes": {
                "GOSIL": "GOSIL AT OR ABOVE 2900",
                "AXEPO": "AXEPO 2900 RNW 09",
                "ETGEP": "OVERFLY ETGEP 3600 HOLD AT ETGEP RIGHT TURN INBOUNDCOURSE 094 LEGTIME 1 FAF AXEPO MAP RNW 09"
            },
            "transitions": [
                {
                    "name": "BOLRI",
                    "fixes": {
                        "BOLRI": "BOLRI SPEED 210"
                    }
                },
                {
                    "name": "LIVBU",
                    "fixes": {
                        "LIVBU": "LIVBU SPEED 210"
                    }
                }
            ]
        },
        {
            "name": "RNAVY27",
            "fixes": {
                "ADVIB": "ADVIB AT OR ABOVE 3200",
                "ITPEX": "ITPEX 2900 RNW 27",
                "REXUK": "OVERFLY REXUK 3600 HOLD AT REXUK RIGHT TURN INBOUNDCOURSE 274 LEGTIME 1 FAF ITPEX MAP RNW 27"
            },
            "transitions": [
                {
                    "name": "DARSO",
                    "fixes": {
                        "DARSO": "DARSO SPEED 210"
                    }
                },
                {
                    "name": "UKPOV",
                    "fixes": {
                        "UKPOV": "UKPOV SPEED 210"
                    }
                }
            ]
        },
        {
            "name": "RNAVZ27",
            "fixes": {
                "ADVIB": "ADVIB AT OR ABOVE 3200",
                "ITPEX": "ITPEX 2900 RNW 27",
                "REXUK": "OVERFLY REXUK 3600 HOLD AT REXUK RIGHT TURN INBOUNDCOURSE 274 LEGTIME 1 FAF ITPEX MAP RNW 27"
            },
            "transitions": [
                {
                    "name": "DARSO",
                    "fixes": {
                        "DARSO": "DARSO SPEED 210"
                    }
                },
                {
                    "name": "UKPOV",
                    "fixes": {
                        "UKPOV": "UKPOV SPEED 210"
                    }
                }
            ]
        }
    ]
}