{
    "fixes": [
        {
            "name": "AF001",
            "lat": 48.916281266666665,
            "lon": 68.40936015
        },
        {
            "name": "AF002",
            "lat": 48.95089193333333,
            "lon": 68.48165926666667
        },
        {
            "name": "AF003",
            "lat": 48.99560113333333,
            "lon": 68.53976638333333
        },
        {
            "name": "AF004",
            "lat": 48.98902111666666,
            "lon": 68.53283448333333
        },
        {
            "name": "AF005",
            "lat": 49.01744746666667,
            "lon": 68.55964371666667
        },
        {
            "name": "BESEM",
            "lat": 49.098591666666664,
            "lon": 68.49032778333333
        },
        {
            "name": "BUBON",
            "lat": 49.245044433333334,
            "lon": 67.96317778333334
        },
        {
            "name": "D268O",
            "lat": 49.04803056666667,
            "lon": 68.57913611666666
        },
        {
            "name": "DAVKA",
            "lat": 49.081013883333334,
            "lon": 67.91937778333333
        },
        {
            "name": "DURUV",
            "lat": 49.11644166666667,
            "lon": 68.34058611666667
        },
        {
            "name": "EBKUR",
            "lat": 49.1805,
            "lon": 68.51313888333334
        },
        {
            "name": "GADOX",
            "lat": 49.16303333333333,
            "lon": 67.94124166666667
        },
        {
            "name": "KIVOM",
            "lat": 49.11818888333333,
            "lon": 68.32583611666666
        },
        {
            "name": "LESIK",
            "lat": 49.1457,
            "lon": 68.09126666666667
        },
        {
            "name": "MIWAK",
            "lat": 48.836666666666666,
            "lon": 68.058
        },
        {
            "name": "OBVAN",
            "lat": 49.088355566666664,
            "lon": 68.57545833333333
        },
        {
            "name": "PI001",
            "lat": 49.10802615,
            "lon": 68.41359056666667
        },
        {
            "name": "PI002",
            "lat": 49.04930325,
            "lon": 68.4763091
        },
        {
            "name": "PI003",
            "lat": 49.08897615,
            "lon": 68.5764673
        },
        {
            "name": "ROGVU",
            "lat": 48.850833333333334,
            "lon": 68.215
        },
        {
            "name": "SEGED",
            "lat": 49.016677783333336,
            "lon": 68.46758888333333
        },
        {
            "name": "SUVOR",
            "lat": 49.095444433333334,
            "lon": 68.51655833333334
        },
        {
            "name": "VOBID",
            "lat": 48.89385278333334,
            "lon": 68.32645556666667
        },
        {
            "name": "XOVMA",
            "lat": 48.963327783333334,
            "lon": 68.49948888333333
        },
        {
            "name": "XUBEX",
            "lat": 49.12370833333333,
            "lon": 68.27912221666666
        },
        {
            "name": "YBC",
            "lat": 49.134022216666665,
            "lon": 68.22203056666666
        }
    ],
    "rnws": [
        "RNW 10",
        "RNW 28"
    ],
    "sids": [
        {
            "name": "MIWAK8",
            "rnw": "08R",
            "fixes": {},
            "sub_fixes": [
                {
                    "rwy": "RNW 10",
                    "fixes": {
                        "RNW 10": "RNW 10 HDG 098 UNTIL 480 TURN RIGHT HDG 246 INTERCEPT RADIAL 178 TO",
                        "MIWAK": "MIWAK MIWAK"
                    }
                },
                {
                    "rwy": "RNW 28",
                    "fixes": {
                        "RNW 28": "RNW 28 HDG 278 UNTIL 480 TURN LEFT HDG 123 INTERCEPT RADIAL 178 TO",
                        "MIWAK": "MIWAK MIWAK"
                    }
                }
            ],
            "transitions": []
        },
        {
            "name": "ROGVU8",
            "rnw": "08R",
            "fixes": {},
            "sub_fixes": [
                {
                    "rwy": "RNW 10",
                    "fixes": {
                        "RNW 10": "RNW 10 HDG 098 UNTIL 480 TURN RIGHT HDG 264 INTERCEPT RADIAL 197 TO",
                        "ROGVU": "ROGVU ROGVU"
                    }
                },
                {
                    "rwy": "RNW 28",
                    "fixes": {
                        "RNW 28": "RNW 28 HDG 278 UNTIL 480 TURN LEFT HDG 152 INTERCEPT RADIAL 197 TO",
                        "ROGVU": "ROGVU ROGVU"
                    }
                }
            ],
            "transitions": []
        }
    ],
    "stars": [],
    "approaches": [
        {
            "name": "ILS10",
            "fixes": {
                "OBVAN": "OBVAN AT OR ABOVE 2200",
                "KIVOM": "KIVOM 1290 RNW 10 HDG 098 UNTIL 2200 TURN LEFT DIRECT KIVOM 2200 HOLD AT KIVOM RIGHT TURN INBOUNDCOURSE 098 LEGTIME 1 FAF KIVOM MAP RNW 10",
                "YBC": "YBC"
            },
            "transitions": [
                {
                    "name": "VOBID",
                    "fixes": {
                        "VOBID": "VOBID",
                        "AF001": "AF001",
                        "AF002": "AF002",
                        "AF003": "AF003",
                        "D268O": "D268O AT OR ABOVE 2200"
                    }
                },
                {
                    "name": "XOVMA",
                    "fixes": {
                        "XOVMA": "XOVMA",
                        "AF004": "AF004",
                        "AF005": "AF005",
                        "D268O": "D268O AT OR ABOVE 2200"
                    }
                },
                {
                    "name": "YBC",
                    "fixes": {
                        "YBC": "YBC",
                        "KIVOM": "KIVOM AT OR ABOVE 2200",
                        "PI001": "PI001 AT OR ABOVE 2200 SPEED 210",
                        "PI002": "OVERFLY PI002 AT OR ABOVE 2200 SPEED 210",
                        "PI003": "PI003 AT OR ABOVE 2200 SPEED 210"
                    }
                }
            ]
        },
        {
            "name": "RNAV10",
            "fixes": {
                "BESEM": "BESEM AT OR ABOVE 2400",
                "DURUV": "DURUV 1700",
                "XUBEX": "XUBEX AT OR ABOVE 920 RNW 10",
                "LESIK": "OVERFLY LESIK 2200 HOLD AT LESIK LEFT TURN INBOUNDCOURSE 098 LEGTIME 1 FAF DURUV MAP RNW 10"
            },
            "transitions": [
                {
                    "name": "BESEM",
                    "fixes": {
                        "BESEM": "BESEM RIGHT TURN INBOUNDCOURSE 098 ALT 2400 SPEED 250 LEGTIME 1"
                    }
                },
                {
                    "name": "EBKUR",
                    "fixes": {
                        "EBKUR": "EBKUR SPEED 210"
                    }
                },
                {
                    "name": "SEGED",
                    "fixes": {
                        "SEGED": "SEGED SPEED 210"
                    }
                }
            ]
        },
        {
            "name": "RNAV28",
            "fixes": {
                "GADOX": "GADOX AT OR ABOVE 2800",
                "LESIK": "LESIK 1400 RNW 28",
                "SUVOR": "OVERFLY SUVOR 3300 HOLD AT SUVOR RIGHT TURN INBOUNDCOURSE 278 SPEED 250 LEGTIME 1 FAF LESIK MAP RNW 28"
            },
            "transitions": [
                {
                    "name": "BUBON",
                    "fixes": {
                        "BUBON": "BUBON SPEED 210"
                    }
                },
                {
                    "name": "DAVKA",
                    "fixes": {
                        "DAVKA": "DAVKA SPEED 210"
                    }
                },
                {
                    "name": "GADOX",
                    "fixes": {
                        "GADOX": "GADOX RIGHT TURN INBOUNDCOURSE 278 ALT 2800 SPEED 210 LEGTIME 1"
                    }
                }
            ]
        }
    ]
}