{
    "fixes": [
        {
            "name": "AGDAT",
            "lat": 50.02888333333333,
            "lon": 125.39241388333333
        },
        {
            "name": "AGLAT",
            "lat": 50.220813883333335,
            "lon": 125.28822778333333
        },
        {
            "name": "AMOBA",
            "lat": 50.2213,
            "lon": 125.69378888333334
        },
        {
            "name": "DASGO",
            "lat": 50.05346943333333,
            "lon": 125.430725
        },
        {
            "name": "DEKSO",
            "lat": 50.091116666666665,
            "lon": 125.48950556666667
        },
        {
            "name": "EBDUV",
            "lat": 49.899425,
            "lon": 125.19164721666667
        },
        {
            "name": "GADAR",
            "lat": 50.11227778333333,
            "lon": 125.52260278333333
        },
        {
            "name": "GOSAP",
            "lat": 50.020625,
            "lon": 125.37955556666667
        },
        {
            "name": "IKLIM",
            "lat": 49.917116666666665,
            "lon": 125.21898611666667
        },
        {
            "name": "KELSY",
            "lat": 50.455,
            "lon": 126.06611111666666
        },
        {
            "name": "KESRO",
            "lat": 50.12708056666666,
            "lon": 125.12886943333334
        },
        {
            "name": "LEVON",
            "lat": 49.98893888333333,
            "lon": 125.33029166666667
        },
        {
            "name": "MEVRO",
            "lat": 49.85627778333333,
            "lon": 125.04965278333333
        },
        {
            "name": "OMREV",
            "lat": 49.82864721666667,
            "lon": 125.08256943333333
        },
        {
            "name": "PI001",
            "lat": 50.0476774,
            "lon": 125.42174238333334
        },
        {
            "name": "PI002",
            "lat": 50.04762388333333,
            "lon": 125.53334656666667
        },
        {
            "name": "PI003",
            "lat": 50.112395883333335,
            "lon": 125.52290478333333
        },
        {
            "name": "PIKVI",
            "lat": 50.149788883333336,
            "lon": 125.58136388333334
        },
        {
            "name": "RESIP",
            "lat": 49.9014,
            "lon": 124.96925833333333
        },
        {
            "name": "TUBIG",
            "lat": 50.03398333333333,
            "lon": 125.40035556666666
        },
        {
            "name": "UQQ",
            "lat": 49.71236111666666,
            "lon": 124.89451388333333
        },
        {
            "name": "XUGTA",
            "lat": 50.13242221666667,
            "lon": 125.42558056666667
        },
        {
            "name": "YBLNB",
            "lat": 50.006447216666665,
            "lon": 125.35750833333333
        }
    ],
    "rnws": [
        "RNW 12",
        "RNW 30"
    ],
    "sids": [
        {
            "name": "KELSY1",
            "rnw": "02",
            "fixes": {},
            "sub_fixes": [
                {
                    "rwy": "RNW 12",
                    "fixes": {
                        "RNW 12": "RNW 12 HDG 117 UNTIL 1500 TURN LEFT DIRECT",
                        "KELSY": "KELSY"
                    }
                },
                {
                    "rwy": "RNW 30",
                    "fixes": {
                        "RNW 30": "RNW 30 HDG 297 UNTIL 900",
                        "KELSY": "KELSY"
                    }
                }
            ],
            "transitions": []
        },
        {
            "name": "OYSTR1",
            "rnw": "02",
            "fixes": {},
            "sub_fixes": [
                {
                    "rwy": "RNW 12",
                    "fixes": {
                        "RNW 12": "RNW 12 HDG 117 UNTIL 900",
                        "UQQ": "UQQ AT OR ABOVE 4000"
                    }
                },
                {
                    "rwy": "RNW 30",
                    "fixes": {
                        "RNW 30": "RNW 30 HDG 297 UNTIL 900 TURN RIGHT DIRECT",
                        "UQQ": "UQQ AT OR ABOVE 4000"
                    }
                }
            ],
            "transitions": []
        }
    ],
    "stars": [],
    "approaches": [
        {
            "name": "ILSY12",
            "fixes": {
                "DEKSO": "DEKSO AT OR ABOVE 2900",
                "AGDAT": "AGDAT 2350 RNW 12 TRK 117 UNTIL 760 TURN LEFT DIRECT",
                "KESRO": "OVERFLY KESRO 3700 HOLD AT KESRO LEFT TURN INBOUNDCOURSE 295 LEGTIME 1 FAF AGDAT MAP RNW 12"
            },
            "transitions": [
                {
                    "name": "KELSY",
                    "fixes": {
                        "KELSY": "KELSY",
                        "AMOBA": "AMOBA AT OR ABOVE 8100",
                        "PIKVI": "PIKVI AT OR ABOVE 5100"
                    }
                },
                {
                    "name": "KESRO",
                    "fixes": {
                        "KESRO": "KESRO",
                        "AGLAT": "AGLAT AT OR ABOVE 3700 SPEED 210",
                        "XUGTA": "XUGTA AT OR ABOVE 3700"
                    }
                }
            ]
        },
        {
            "name": "ILSZ12",
            "fixes": {
                "DASGO": "DASGO AT OR ABOVE 2900",
                "AGDAT": "AGDAT 2350 RNW 12 HDG 117 UNTIL 2600 TURN LEFT DIRECT",
                "YBLNB": "YBLNB 5400 HOLD AT YBLNB RIGHT TURN INBOUNDCOURSE 117 SPEED 265 LEGTIME 1 FAF AGDAT MAP RNW 12"
            },
            "transitions": [
                {
                    "name": "KELSY",
                    "fixes": {
                        "KELSY": "KELSY",
                        "AMOBA": "AMOBA AT OR ABOVE 8100",
                        "GADAR": "GADAR AT OR ABOVE 4600"
                    }
                },
                {
                    "name": "YBL",
                    "fixes": {
                        "YBLNB": "YBLNB AT OR ABOVE 5100",
                        "PI001": "PI001 AT OR ABOVE 4200 SPEED 210",
                        "PI002": "OVERFLY PI002 AT OR ABOVE 4200 SPEED 210",
                        "PI003": "PI003 AT OR ABOVE 4200 SPEED 210"
                    }
                }
            ]
        },
        {
            "name": "RNAV12",
            "fixes": {
                "DEKSO": "DEKSO AT OR ABOVE 3500",
                "GOSAP": "GOSAP 2100",
                "LEVON": "LEVON AT OR ABOVE 1240 RNW 12",
                "IKLIM": "IKLIM",
                "MEVRO": "OVERFLY MEVRO 3100 HOLD AT MEVRO LEFT TURN INBOUNDCOURSE 117 LEGTIME 1 FAF GOSAP MAP RNW 12"
            },
            "transitions": [
                {
                    "name": "AGLAT",
                    "fixes": {
                        "AGLAT": "AGLAT"
                    }
                }
            ]
        },
        {
            "name": "RNAV30",
            "fixes": {
                "OMREV": "OMREV AT OR ABOVE 2000",
                "EBDUV": "EBDUV 1600 RNW 30",
                "TUBIG": "OVERFLY TUBIG 3700 HOLD AT TUBIG RIGHT TURN INBOUNDCOURSE 297 ALT 3700 SPEED 265 LEGTIME 1 FAF EBDUV MAP RNW 30"
            },
            "transitions": [
                {
                    "name": "RESIP",
                    "fixes": {
                        "RESIP": "RESIP"
                    }
                },
                {
                    "name": "UQQ",
                    "fixes": {
                        "UQQ": "UQQ"
                    }
                }
            ]
        }
    ]
}