{
    "fixes": [
        {
            "name": "AGPEL",
            "lat": 62.012708333333336,
            "lon": 132.63048056666668
        },
        {
            "name": "AVTAV",
            "lat": 62.21200278333333,
            "lon": 133.38684721666667
        },
        {
            "name": "EBGIS",
            "lat": 61.983586116666665,
            "lon": 132.48783888333332
        },
        {
            "name": "IGVUV",
            "lat": 61.898713883333336,
            "lon": 132.18455
        },
        {
            "name": "IKUXA",
            "lat": 62.039008333333335,
            "lon": 132.76016943333335
        },
        {
            "name": "NOXIT",
            "lat": 62.13025,
            "lon": 133.21662221666668
        },
        {
            "name": "XUDGI",
            "lat": 62.07829721666667,
            "lon": 132.95545556666667
        }
    ],
    "rnws": [
        "RNW 09",
        "RNW 27"
    ],
    "sids": [],
    "stars": [],
    "approaches": [
        {
            "name": "RNAV09",
            "fixes": {
                "XUDGI": "XUDGI AT OR ABOVE 6800",
                "IKUXA": "IKUXA 6100",
                "AGPEL": "AGPEL AT OR ABOVE 4620",
                "EBGIS": "OVERFLY EBGIS 3000 RNW 09",
                "IGVUV": "OVERFLY IGVUV 6000 HOLD AT IGVUV LEFT TURN INBOUNDCOURSE 101 SPEED 175 LEGTIME 1 FAF IKUXA MAP EBGIS"
            },
            "transitions": [
                {
                    "name": "AVTAV",
                    "fixes": {
                        "AVTAV": "AVTAV",
                        "NOXIT": "NOXIT AT OR ABOVE 7000"
                    }
                }
            ]
        }
    ]
}