{
    "fixes": [
        {
            "name": "AVSUG",
            "lat": 51.16775,
            "lon": 100.11361666666667
        },
        {
            "name": "DURUB",
            "lat": 51.03525833333333,
            "lon": 99.99282221666667
        },
        {
            "name": "FS14",
            "lat": 51.16738888333333,
            "lon": 100.13573611666666
        },
        {
            "name": "KEGMI",
            "lat": 50.96615,
            "lon": 99.778375
        },
        {
            "name": "MAREB",
            "lat": 51.06669721666667,
            "lon": 100.02141388333334
        },
        {
            "name": "MIDBO",
            "lat": 50.924925,
            "lon": 99.89283888333334
        },
        {
            "name": "OMPOX",
            "lat": 51.24529166666667,
            "lon": 100.18469166666667
        },
        {
            "name": "PEPNU",
            "lat": 51.011633333333336,
            "lon": 99.97136666666667
        },
        {
            "name": "PI001",
            "lat": 51.15025225,
            "lon": 100.11086471666667
        },
        {
            "name": "PI002",
            "lat": 51.157688416666666,
            "lon": 100.22450703333334
        },
        {
            "name": "PI003",
            "lat": 51.23433825,
            "lon": 100.2198558
        },
        {
            "name": "ROLRA",
            "lat": 50.88358611666666,
            "lon": 100.0071
        },
        {
            "name": "SIDGI",
            "lat": 51.20379166666667,
            "lon": 100.29959443333334
        },
        {
            "name": "TIGOL",
            "lat": 50.99429443333333,
            "lon": 99.95563888333334
        },
        {
            "name": "TUKAS",
            "lat": 51.2868,
            "lon": 100.06969443333334
        },
        {
            "name": "UDBIG",
            "lat": 51.233016666666664,
            "lon": 100.22133333333333
        },
        {
            "name": "URPEL",
            "lat": 51.17367778333333,
            "lon": 100.11904443333333
        },
        {
            "name": "VIPKU",
            "lat": 51.15619721666667,
            "lon": 100.11982778333333
        },
        {
            "name": "YDN",
            "lat": 51.104933333333335,
            "lon": 100.05234166666666
        }
    ],
    "rnws": [
        "RNW 02",
        "RNW 08",
        "RNW 14",
        "RNW 20",
        "RNW 26",
        "RNW 32"
    ],
    "sids": [],
    "stars": [],
    "approaches": [
        {
            "name": "VORD14",
            "fixes": {
                "UDBIG": "UDBIG AT OR ABOVE 2500",
                "VIPKU": "VIPKU 2220 RNW 14 TRK 135 UNTIL 1400 HDG 045 UNTIL 3000 TURN LEFT DIRECT",
                "YDN": "YDN 3000 HOLD AT YDN RIGHT TURN INBOUNDCOURSE 135 SPEED 250 LEGTIME 1 FAF VIPKU MAP RNW 14"
            },
            "transitions": [
                {
                    "name": "YDN",
                    "fixes": {
                        "PI001": "PI001 AT OR ABOVE 2500 SPEED 210",
                        "PI002": "OVERFLY PI002 AT OR ABOVE 2500 SPEED 210",
                        "PI003": "PI003 AT OR ABOVE 2500 SPEED 210"
                    }
                }
            ]
        },
        {
            "name": "RNAV14",
            "fixes": {
                "OMPOX": "OMPOX AT OR ABOVE 2500",
                "URPEL": "URPEL 2500 RNW 14",
                "DURUB": "OVERFLY DURUB 3700 HOLD AT DURUB RIGHT TURN INBOUNDCOURSE 144 LEGTIME 1 FAF URPEL MAP RNW 14"
            },
            "transitions": [
                {
                    "name": "SIDGI",
                    "fixes": {
                        "SIDGI": "SIDGI SPEED 210"
                    }
                },
                {
                    "name": "TUKAS",
                    "fixes": {
                        "TUKAS": "TUKAS SPEED 210"
                    }
                }
            ]
        },
        {
            "name": "RNAV32",
            "fixes": {
                "MIDBO": "MIDBO AT OR ABOVE 3600",
                "TIGOL": "TIGOL AT OR ABOVE 3280",
                "PEPNU": "PEPNU 2900",
                "MAREB": "MAREB AT OR ABOVE 1690 RNW 32",
                "AVSUG": "OVERFLY AVSUG 3700 HOLD AT AVSUG RIGHT TURN INBOUNDCOURSE 324 LEGTIME 1 FAF PEPNU MAP RNW 32"
            },
            "transitions": [
                {
                    "name": "KEGMI",
                    "fixes": {
                        "KEGMI": "KEGMI SPEED 210"
                    }
                },
                {
                    "name": "ROLRA",
                    "fixes": {
                        "ROLRA": "ROLRA SPEED 210"
                    }
                }
            ]
        },
        {
            "name": "VOR14",
            "fixes": {
                "FS14": "FS14 2500 RNW 14",
                "YDN": "OVERFLY YDN AT OR ABOVE 1400 HDG 045 UNTIL 3000 TURN LEFT DIRECT YDN 3000 HOLD AT YDN RIGHT TURN INBOUNDCOURSE 135 SPEED 250 LEGTIME 1 FAF FS14 MAP RNW 14"
            },
            "transitions": [
                {
                    "name": "YDN",
                    "fixes": {
                        "PI001": "PI001 AT OR ABOVE 2500 SPEED 210",
                        "PI002": "OVERFLY PI002 AT OR ABOVE 2500 SPEED 210",
                        "PI003": "PI003 AT OR ABOVE 2500 SPEED 210"
                    }
                }
            ]
        }
    ]
}