{
    "fixes": [
        {
            "name": "EPMIV",
            "lat": 46.323405566666665,
            "lon": 82.46246666666667
        },
        {
            "name": "GOXOS",
            "lat": 46.416952783333336,
            "lon": 82.79133611666667
        },
        {
            "name": "MEVGA",
            "lat": 46.379069433333335,
            "lon": 82.65762221666667
        },
        {
            "name": "OLILU",
            "lat": 46.20819721666667,
            "lon": 82.37523333333333
        },
        {
            "name": "OMEGU",
            "lat": 46.28514166666667,
            "lon": 82.32920833333333
        },
        {
            "name": "RORNU",
            "lat": 46.32215278333334,
            "lon": 82.45808888333333
        },
        {
            "name": "SEVRO",
            "lat": 46.494058333333335,
            "lon": 82.74572221666666
        },
        {
            "name": "UDLOV",
            "lat": 46.362066666666664,
            "lon": 82.28305833333333
        },
        {
            "name": "VIDBI",
            "lat": 46.339825,
            "lon": 82.83681943333333
        },
        {
            "name": "XEVAB",
            "lat": 46.386502783333334,
            "lon": 82.79973056666667
        },
        {
            "name": "XOVMI",
            "lat": 46.37167221666667,
            "lon": 82.63159166666667
        }
    ],
    "rnws": [
        "RNW 12",
        "RNW 30"
    ],
    "sids": [],
    "stars": [],
    "approaches": [
        {
            "name": "RNAV12",
            "fixes": {
                "GOXOS": "GOXOS AT OR ABOVE 2700",
                "MEVGA": "MEVGA 2400",
                "XOVMI": "XOVMI AT OR ABOVE 2030 RNW 12",
                "RORNU": "OVERFLY RORNU 2800 HOLD AT RORNU RIGHT TURN INBOUNDCOURSE 121 SPEED 230 LEGTIME 1 FAF MEVGA MAP RNW 12"
            },
            "transitions": [
                {
                    "name": "SEVRO",
                    "fixes": {
                        "SEVRO": "SEVRO SPEED 210"
                    }
                },
                {
                    "name": "VIDBI",
                    "fixes": {
                        "VIDBI": "VIDBI SPEED 210"
                    }
                }
            ]
        },
        {
            "name": "RNAV30",
            "fixes": {
                "OMEGU": "OMEGU AT OR ABOVE 2400",
                "EPMIV": "EPMIV 2400 RNW 30",
                "XEVAB": "OVERFLY XEVAB 3100 HOLD AT XEVAB RIGHT TURN INBOUNDCOURSE 290 ALT 3100 SPEED 230 LEGTIME 1 FAF EPMIV MAP RNW 30"
            },
            "transitions": [
                {
                    "name": "OLILU",
                    "fixes": {
                        "OLILU": "OLILU SPEED 210"
                    }
                },
                {
                    "name": "UDLOV",
                    "fixes": {
                        "UDLOV": "UDLOV SPEED 210"
                    }
                }
            ]
        }
    ]
}