{
    "fixes": [
        {
            "name": "ALPUL",
            "lat": 46.36509443333333,
            "lon": 74.79191666666667
        },
        {
            "name": "APKIP",
            "lat": 46.57438056666667,
            "lon": 74.61251111666667
        },
        {
            "name": "DEBEB",
            "lat": 46.60499721666667,
            "lon": 74.85005556666667
        },
        {
            "name": "EMBUL",
            "lat": 46.23888611666667,
            "lon": 74.94786943333334
        },
        {
            "name": "GUDAN",
            "lat": 46.564908333333335,
            "lon": 74.73798333333333
        },
        {
            "name": "IKBAS",
            "lat": 46.322025,
            "lon": 74.80348888333333
        },
        {
            "name": "MEVRI",
            "lat": 46.507863883333336,
            "lon": 74.75342221666666
        },
        {
            "name": "MUPDO",
            "lat": 46.335141666666665,
            "lon": 74.79996666666666
        },
        {
            "name": "PENDA",
            "lat": 46.22374166666667,
            "lon": 74.82982778333333
        },
        {
            "name": "VETGO",
            "lat": 46.208472216666664,
            "lon": 74.71185278333333
        },
        {
            "name": "VEVLU",
            "lat": 46.58975,
            "lon": 74.73125
        }
    ],
    "rnws": [
        "RNW 02",
        "RNW 20"
    ],
    "sids": [],
    "stars": [],
    "approaches": [
        {
            "name": "RNAV02",
            "fixes": {
                "PENDA": "PENDA AT OR ABOVE 2800",
                "IKBAS": "IKBAS 2400",
                "ALPUL": "ALPUL AT OR ABOVE 1560 RNW 02",
                "GUDAN": "OVERFLY GUDAN 3700 HOLD AT GUDAN RIGHT TURN INBOUNDCOURSE 025 ALT 3700 SPEED 230 LEGTIME 1 FAF IKBAS MAP RNW 02"
            },
            "transitions": [
                {
                    "name": "EMBUL",
                    "fixes": {
                        "EMBUL": "EMBUL SPEED 210"
                    }
                },
                {
                    "name": "VETGO",
                    "fixes": {
                        "VETGO": "VETGO SPEED 210"
                    }
                }
            ]
        },
        {
            "name": "RNAV20",
            "fixes": {
                "VEVLU": "VEVLU AT OR ABOVE 3600",
                "MEVRI": "MEVRI 2700 RNW 20",
                "MUPDO": "OVERFLY MUPDO 3400 HOLD AT MUPDO RIGHT TURN INBOUNDCOURSE 205 ALT 3400 SPEED 230 LEGTIME 1 FAF MEVRI MAP RNW 20"
            },
            "transitions": [
                {
                    "name": "APKIP",
                    "fixes": {
                        "APKIP": "APKIP SPEED 210"
                    }
                },
                {
                    "name": "DEBEB",
                    "fixes": {
                        "DEBEB": "DEBEB SPEED 210"
                    }
                }
            ]
        }
    ]
}