{
    "fixes": [
        {
            "name": "DUSPO",
            "lat": 61.43614443333333,
            "lon": 117.92336388333334
        },
        {
            "name": "IKLOD",
            "lat": 61.20155833333333,
            "lon": 117.29144443333334
        },
        {
            "name": "KITAD",
            "lat": 61.38965833333334,
            "lon": 117.67998333333334
        },
        {
            "name": "KIVUK",
            "lat": 61.511080566666664,
            "lon": 117.613225
        },
        {
            "name": "LITRU",
            "lat": 61.164541666666665,
            "lon": 117.44555556666667
        },
        {
            "name": "MITOD",
            "lat": 61.4737,
            "lon": 117.76848056666667
        },
        {
            "name": "TAVGU",
            "lat": 61.38466388333333,
            "lon": 117.67474166666666
        },
        {
            "name": "TESUT",
            "lat": 61.127352783333336,
            "lon": 117.59930556666667
        },
        {
            "name": "UKSUP",
            "lat": 61.24846111666667,
            "lon": 117.53250278333333
        },
        {
            "name": "VITUN",
            "lat": 61.253738883333334,
            "lon": 117.53798888333333
        },
        {
            "name": "XUGNI",
            "lat": 61.34502221666666,
            "lon": 117.63319721666667
        }
    ],
    "rnws": [
        "RNW 14",
        "RNW 32"
    ],
    "sids": [],
    "stars": [],
    "approaches": [
        {
            "name": "RNAVY14",
            "fixes": {
                "MITOD": "MITOD AT OR ABOVE 1900",
                "TAVGU": "TAVGU 1900 RNW 14",
                "UKSUP": "OVERFLY UKSUP 2300 HOLD AT UKSUP RIGHT TURN INBOUNDCOURSE 136 SPEED 230 LEGTIME 1 FAF TAVGU MAP RNW 14"
            },
            "transitions": [
                {
                    "name": "DUSPO",
                    "fixes": {
                        "DUSPO": "DUSPO"
                    }
                },
                {
                    "name": "KIVUK",
                    "fixes": {
                        "KIVUK": "KIVUK"
                    }
                }
            ]
        },
        {
            "name": "RNAVZ14",
            "fixes": {
                "MITOD": "MITOD AT OR ABOVE 1900",
                "TAVGU": "TAVGU 1200",
                "XUGNI": "XUGNI AT OR ABOVE 1160 RNW 14",
                "UKSUP": "OVERFLY UKSUP 2300 HOLD AT UKSUP RIGHT TURN INBOUNDCOURSE 136 SPEED 230 LEGTIME 1 FAF TAVGU MAP RNW 14"
            },
            "transitions": [
                {
                    "name": "DUSPO",
                    "fixes": {
                        "DUSPO": "DUSPO"
                    }
                },
                {
                    "name": "KIVUK",
                    "fixes": {
                        "KIVUK": "KIVUK"
                    }
                }
            ]
        },
        {
            "name": "RNAV32",
            "fixes": {
                "LITRU": "LITRU AT OR ABOVE 1900",
                "VITUN": "VITUN 1900 RNW 32",
                "KITAD": "OVERFLY KITAD 2300 HOLD AT KITAD RIGHT TURN INBOUNDCOURSE 316 SPEED 230 LEGTIME 1 FAF VITUN MAP RNW 32"
            },
            "transitions": [
                {
                    "name": "IKLOD",
                    "fixes": {
                        "IKLOD": "IKLOD"
                    }
                },
                {
                    "name": "TESUT",
                    "fixes": {
                        "TESUT": "TESUT"
                    }
                }
            ]
        }
    ]
}