{
    "fixes": [
        {
            "name": "ANVEM",
            "lat": 58.39716943333333,
            "lon": 103.48178056666667
        },
        {
            "name": "AVADI",
            "lat": 58.159708333333334,
            "lon": 103.76989166666667
        },
        {
            "name": "DUXIS",
            "lat": 58.02196943333333,
            "lon": 103.71216111666666
        },
        {
            "name": "LOLMI",
            "lat": 58.075488883333335,
            "lon": 103.87096388333333
        },
        {
            "name": "NUDUR",
            "lat": 58.128813883333336,
            "lon": 104.03024166666667
        },
        {
            "name": "ONDAX",
            "lat": 58.300255566666664,
            "lon": 103.59993056666667
        },
        {
            "name": "OTIVI",
            "lat": 58.20215,
            "lon": 103.71873611666666
        },
        {
            "name": "PEPSU",
            "lat": 58.178308333333334,
            "lon": 103.74749166666666
        },
        {
            "name": "RESAD",
            "lat": 58.450975,
            "lon": 103.64192221666667
        },
        {
            "name": "USBET",
            "lat": 58.34316388333333,
            "lon": 103.32213056666667
        },
        {
            "name": "VOBOP",
            "lat": 58.313183333333335,
            "lon": 103.58421388333333
        },
        {
            "name": "XONPI",
            "lat": 58.17205833333333,
            "lon": 103.75502221666666
        }
    ],
    "rnws": [
        "RNW 02",
        "RNW 20"
    ],
    "sids": [],
    "stars": [],
    "approaches": [
        {
            "name": "RNAV02",
            "fixes": {
                "LOLMI": "LOLMI AT OR ABOVE 3000 SPEED 180",
                "AVADI": "AVADI 3000",
                "PEPSU": "PEPSU AT OR ABOVE 2560",
                "OTIVI": "OTIVI AT OR ABOVE 2000 RNW 02",
                "ONDAX": "OVERFLY ONDAX 3100 HOLD AT ONDAX RIGHT TURN INBOUNDCOURSE 024 LEGTIME 1 FAF AVADI MAP RNW 02"
            },
            "transitions": [
                {
                    "name": "DUXIS",
                    "fixes": {
                        "DUXIS": "DUXIS SPEED 210"
                    }
                },
                {
                    "name": "NUDUR",
                    "fixes": {
                        "NUDUR": "NUDUR SPEED 210"
                    }
                }
            ]
        },
        {
            "name": "RNAV20",
            "fixes": {
                "ANVEM": "ANVEM AT OR ABOVE 3000 SPEED 180",
                "VOBOP": "VOBOP 3000 RNW 20",
                "XONPI": "OVERFLY XONPI 3100 HOLD AT XONPI RIGHT TURN INBOUNDCOURSE 204 LEGTIME 1 FAF VOBOP MAP RNW 20"
            },
            "transitions": [
                {
                    "name": "RESAD",
                    "fixes": {
                        "RESAD": "RESAD SPEED 210"
                    }
                },
                {
                    "name": "USBET",
                    "fixes": {
                        "USBET": "USBET SPEED 210"
                    }
                }
            ]
        }
    ]
}