{
    "fixes": [
        {
            "name": "ADGAP",
            "lat": 62.80801111666667,
            "lon": 69.47140278333333
        },
        {
            "name": "DEMLU",
            "lat": 62.89748888333333,
            "lon": 70.01629721666667
        },
        {
            "name": "DURLI",
            "lat": 62.870080566666665,
            "lon": 69.93905833333334
        },
        {
            "name": "GORIB",
            "lat": 62.89071388333333,
            "lon": 69.997175
        },
        {
            "name": "KARUR",
            "lat": 62.95177221666667,
            "lon": 70.17005833333333
        },
        {
            "name": "MASAN",
            "lat": 62.67745278333334,
            "lon": 69.69551111666667
        },
        {
            "name": "MIVIM",
            "lat": 63.01746943333333,
            "lon": 70.05826388333334
        },
        {
            "name": "OLOMI",
            "lat": 62.885986116666665,
            "lon": 70.28135278333333
        },
        {
            "name": "PUXAX",
            "lat": 62.79849721666667,
            "lon": 69.73855
        },
        {
            "name": "RADUX",
            "lat": 62.74277778333333,
            "lon": 69.58370278333334
        },
        {
            "name": "TAGBI",
            "lat": 62.804344433333334,
            "lon": 69.75486111666666
        }
    ],
    "rnws": [
        "RNW 15",
        "RNW 33"
    ],
    "sids": [],
    "stars": [],
    "approaches": [
        {
            "name": "RNAV15",
            "fixes": {
                "KARUR": "KARUR AT OR ABOVE 3100",
                "GORIB": "GORIB 1710",
                "DURLI": "DURLI AT OR ABOVE 960 RNW 15",
                "PUXAX": "OVERFLY PUXAX 2100 HOLD AT PUXAX RIGHT TURN INBOUNDCOURSE 154 SPEED 230 LEGTIME 1 FAF GORIB MAP RNW 15"
            },
            "transitions": [
                {
                    "name": "MIVIM",
                    "fixes": {
                        "MIVIM": "MIVIM"
                    }
                },
                {
                    "name": "OLOMI",
                    "fixes": {
                        "OLOMI": "OLOMI"
                    }
                }
            ]
        },
        {
            "name": "RNAV33",
            "fixes": {
                "RADUX": "RADUX AT OR ABOVE 3100",
                "TAGBI": "TAGBI 1500 RNW 33",
                "DEMLU": "OVERFLY DEMLU 2200 HOLD AT DEMLU RIGHT TURN INBOUNDCOURSE 334 SPEED 230 LEGTIME 1 FAF TAGBI MAP RNW 33"
            },
            "transitions": [
                {
                    "name": "ADGAP",
                    "fixes": {
                        "ADGAP": "ADGAP"
                    }
                },
                {
                    "name": "MASAN",
                    "fixes": {
                        "MASAN": "MASAN"
                    }
                }
            ]
        }
    ]
}