{
    "fixes": [
        {
            "name": "DAPEV",
            "lat": 44.48228056666667,
            "lon": 79.63896943333333
        },
        {
            "name": "LEVIP",
            "lat": 44.492705566666665,
            "lon": 79.40427221666667
        },
        {
            "name": "MURON",
            "lat": 44.37379166666667,
            "lon": 79.81783333333334
        },
        {
            "name": "MURVO",
            "lat": 44.59768888333333,
            "lon": 79.29221943333333
        },
        {
            "name": "NOXOR",
            "lat": 44.57335833333333,
            "lon": 79.836175
        },
        {
            "name": "NUGUL",
            "lat": 44.398041666666664,
            "lon": 79.27571666666667
        },
        {
            "name": "OBVEG",
            "lat": 44.48005833333333,
            "lon": 79.68761666666667
        },
        {
            "name": "ODKIK",
            "lat": 44.491875,
            "lon": 79.42341111666667
        },
        {
            "name": "PIDKA",
            "lat": 44.47911943333333,
            "lon": 79.70795
        },
        {
            "name": "ULINO",
            "lat": 44.49786666666667,
            "lon": 79.28395278333333
        },
        {
            "name": "UMEDI",
            "lat": 44.473575,
            "lon": 79.82698888333333
        }
    ],
    "rnws": [
        "RNW 10",
        "RNW 28"
    ],
    "sids": [],
    "stars": [],
    "approaches": [
        {
            "name": "RNAVY10",
            "fixes": {
                "UMEDI": "UMEDI AT OR ABOVE 2700 SPEED 180",
                "OBVEG": "OBVEG 2700",
                "DAPEV": "DAPEV AT OR ABOVE 2030 RNW 10",
                "LEVIP": "OVERFLY LEVIP 3000 HOLD AT LEVIP RIGHT TURN INBOUNDCOURSE 098 LEGTIME 1 FAF OBVEG MAP RNW 10"
            },
            "transitions": [
                {
                    "name": "MURON",
                    "fixes": {
                        "MURON": "MURON SPEED 210"
                    }
                },
                {
                    "name": "NOXOR",
                    "fixes": {
                        "NOXOR": "NOXOR SPEED 210"
                    }
                }
            ]
        },
        {
            "name": "RNAVZ10",
            "fixes": {
                "UMEDI": "UMEDI AT OR ABOVE 2700 SPEED 180",
                "OBVEG": "OBVEG 2700",
                "DAPEV": "DAPEV AT OR ABOVE 2030 RNW 10",
                "LEVIP": "OVERFLY LEVIP 3000 HOLD AT LEVIP RIGHT TURN INBOUNDCOURSE 098 LEGTIME 1 FAF OBVEG MAP RNW 10"
            },
            "transitions": [
                {
                    "name": "MURON",
                    "fixes": {
                        "MURON": "MURON SPEED 210"
                    }
                },
                {
                    "name": "NOXOR",
                    "fixes": {
                        "NOXOR": "NOXOR SPEED 210"
                    }
                }
            ]
        },
        {
            "name": "RNAV28",
            "fixes": {
                "ULINO": "ULINO AT OR ABOVE 2700 SPEED 180",
                "ODKIK": "ODKIK 2700 RNW 28",
                "PIDKA": "OVERFLY PIDKA 3000 HOLD AT PIDKA RIGHT TURN INBOUNDCOURSE 277 LEGTIME 1 FAF ODKIK MAP RNW 28"
            },
            "transitions": [
                {
                    "name": "MURVO",
                    "fixes": {
                        "MURVO": "MURVO SPEED 210"
                    }
                },
                {
                    "name": "NUGUL",
                    "fixes": {
                        "NUGUL": "NUGUL SPEED 210"
                    }
                }
            ]
        }
    ]
}