{
    "fixes": [
        {
            "name": "ANASO",
            "lat": 48.88018888333333,
            "lon": 67.34465833333333
        },
        {
            "name": "DASUX",
            "lat": 48.832911116666665,
            "lon": 67.16102778333334
        },
        {
            "name": "GOTIR",
            "lat": 48.832033333333335,
            "lon": 67.56099721666666
        },
        {
            "name": "ILABI",
            "lat": 48.72008888333333,
            "lon": 67.66789443333333
        },
        {
            "name": "IMEBO",
            "lat": 48.91190556666667,
            "lon": 67.20095
        },
        {
            "name": "ITKIL",
            "lat": 48.831075,
            "lon": 67.56527221666667
        },
        {
            "name": "KEVPI",
            "lat": 48.990883333333336,
            "lon": 67.24099443333333
        },
        {
            "name": "LEXOG",
            "lat": 48.87771111666667,
            "lon": 67.749275
        },
        {
            "name": "MEBUL",
            "lat": 48.79890833333333,
            "lon": 67.70851943333334
        },
        {
            "name": "NOSEP",
            "lat": 48.88044443333333,
            "lon": 67.34350278333334
        }
    ],
    "rnws": [
        "RNW 09",
        "RNW 27"
    ],
    "sids": [],
    "stars": [],
    "approaches": [
        {
            "name": "RNAVY09",
            "fixes": {
                "MEBUL": "MEBUL AT OR ABOVE 2600",
                "ITKIL": "ITKIL 1500 RNW 09",
                "NOSEP": "OVERFLY NOSEP 3800 HOLD AT NOSEP RIGHT TURN INBOUNDCOURSE 090 LEGTIME 1 FAF ITKIL MAP RNW 09"
            },
            "transitions": [
                {
                    "name": "ILABI",
                    "fixes": {
                        "ILABI": "ILABI SPEED 210"
                    }
                },
                {
                    "name": "LEXOG",
                    "fixes": {
                        "LEXOG": "LEXOG SPEED 210"
                    }
                }
            ]
        },
        {
            "name": "RNAVZ09",
            "fixes": {
                "MEBUL": "MEBUL AT OR ABOVE 2600",
                "ITKIL": "ITKIL 1500 RNW 09",
                "NOSEP": "OVERFLY NOSEP 3800 HOLD AT NOSEP RIGHT TURN INBOUNDCOURSE 090 LEGTIME 1 FAF ITKIL MAP RNW 09"
            },
            "transitions": [
                {
                    "name": "ILABI",
                    "fixes": {
                        "ILABI": "ILABI SPEED 210"
                    }
                },
                {
                    "name": "LEXOG",
                    "fixes": {
                        "LEXOG": "LEXOG SPEED 210"
                    }
                }
            ]
        },
        {
            "name": "RNAVY27",
            "fixes": {
                "IMEBO": "IMEBO AT OR ABOVE 3300",
                "ANASO": "ANASO 1700 RNW 27",
                "GOTIR": "OVERFLY GOTIR 3700 HOLD AT GOTIR RIGHT TURN INBOUNDCOURSE 270 LEGTIME 1 FAF ANASO MAP RNW 27"
            },
            "transitions": [
                {
                    "name": "DASUX",
                    "fixes": {
                        "DASUX": "DASUX SPEED 210"
                    }
                },
                {
                    "name": "KEVPI",
                    "fixes": {
                        "KEVPI": "KEVPI SPEED 210"
                    }
                }
            ]
        },
        {
            "name": "RNAVZ27",
            "fixes": {
                "IMEBO": "IMEBO AT OR ABOVE 3300",
                "ANASO": "ANASO 1700 RNW 27",
                "GOTIR": "OVERFLY GOTIR 3700 HOLD AT GOTIR RIGHT TURN INBOUNDCOURSE 270 LEGTIME 1 FAF ANASO MAP RNW 27"
            },
            "transitions": [
                {
                    "name": "DASUX",
                    "fixes": {
                        "DASUX": "DASUX SPEED 210"
                    }
                },
                {
                    "name": "KEVPI",
                    "fixes": {
                        "KEVPI": "KEVPI SPEED 210"
                    }
                }
            ]
        }
    ]
}