{
    "fixes": [
        {
            "name": "APNOV",
            "lat": 58.81369443333333,
            "lon": 111.00543611666667
        },
        {
            "name": "DUNUN",
            "lat": 58.602525,
            "lon": 111.25858888333333
        },
        {
            "name": "DUSUK",
            "lat": 58.78929443333333,
            "lon": 111.06465556666667
        },
        {
            "name": "LESOV",
            "lat": 58.81490278333333,
            "lon": 111.00249721666667
        },
        {
            "name": "ROVMI",
            "lat": 58.86529443333333,
            "lon": 110.87970278333333
        },
        {
            "name": "SATEP",
            "lat": 58.93048056666667,
            "lon": 110.97939166666667
        },
        {
            "name": "TESUL",
            "lat": 58.80003333333333,
            "lon": 110.78038888333333
        },
        {
            "name": "ULOGO",
            "lat": 58.71936388333334,
            "lon": 111.23355
        },
        {
            "name": "VISUT",
            "lat": 58.667419433333336,
            "lon": 111.35823056666666
        },
        {
            "name": "WACBO",
            "lat": 58.71987778333333,
            "lon": 111.23231388333333
        },
        {
            "name": "XEROG",
            "lat": 58.73223611666667,
            "lon": 111.45824443333333
        }
    ],
    "rnws": [
        "RNW 04",
        "RNW 22"
    ],
    "sids": [],
    "stars": [],
    "approaches": [
        {
            "name": "RNAV04",
            "fixes": {
                "VISUT": "VISUT AT OR ABOVE 2100",
                "ULOGO": "ULOGO 2100 RNW 04",
                "LESOV": "OVERFLY LESOV 2300 HOLD AT LESOV RIGHT TURN INBOUNDCOURSE 037 LEGTIME 1 FAF ULOGO MAP RNW 04"
            },
            "transitions": [
                {
                    "name": "DUNUN",
                    "fixes": {
                        "DUNUN": "DUNUN SPEED 210"
                    }
                },
                {
                    "name": "XEROG",
                    "fixes": {
                        "XEROG": "XEROG SPEED 210"
                    }
                }
            ]
        },
        {
            "name": "RNAV22",
            "fixes": {
                "ROVMI": "ROVMI AT OR ABOVE 2200",
                "APNOV": "APNOV 2100",
                "DUSUK": "DUSUK AT OR ABOVE 1350 RNW 22",
                "WACBO": "OVERFLY WACBO 2300 HOLD AT WACBO RIGHT TURN INBOUNDCOURSE 217 LEGTIME 1 FAF APNOV MAP RNW 22"
            },
            "transitions": [
                {
                    "name": "SATEP",
                    "fixes": {
                        "SATEP": "SATEP SPEED 210"
                    }
                },
                {
                    "name": "TESUL",
                    "fixes": {
                        "TESUL": "TESUL SPEED 210"
                    }
                }
            ]
        }
    ]
}