{
    "fixes": [
        {
            "name": "APMEM",
            "lat": 60.15216388333333,
            "lon": 128.95575556666665
        },
        {
            "name": "BIPTU",
            "lat": 59.97430833333333,
            "lon": 128.52670278333332
        },
        {
            "name": "DEGBO",
            "lat": 60.273744433333334,
            "lon": 129.04723888333334
        },
        {
            "name": "DUXAD",
            "lat": 60.12248888333333,
            "lon": 128.85166111666666
        },
        {
            "name": "ETNAG",
            "lat": 60.186827783333335,
            "lon": 129.2771
        },
        {
            "name": "FERDS",
            "lat": 60.13813056666667,
            "lon": 128.95819166666666
        },
        {
            "name": "KEKNI",
            "lat": 60.06219166666666,
            "lon": 128.65243333333333
        },
        {
            "name": "KENRI",
            "lat": 60.05235278333333,
            "lon": 128.46961111666667
        },
        {
            "name": "KERGU",
            "lat": 60.201475,
            "lon": 129.12978056666665
        },
        {
            "name": "LOKVI",
            "lat": 60.086558333333336,
            "lon": 128.65706666666668
        },
        {
            "name": "MAXOK",
            "lat": 60.17543611666667,
            "lon": 129.15298888333334
        },
        {
            "name": "MUNLA",
            "lat": 60.191580566666666,
            "lon": 129.02546111666666
        },
        {
            "name": "NUDER",
            "lat": 60.07872221666667,
            "lon": 128.69976111666668
        },
        {
            "name": "OMRUV",
            "lat": 60.01448333333333,
            "lon": 128.51638611666667
        },
        {
            "name": "ONDEG",
            "lat": 60.082461116666664,
            "lon": 128.42075278333334
        },
        {
            "name": "PETNI",
            "lat": 60.25374721666667,
            "lon": 129.09703888333334
        },
        {
            "name": "PI001",
            "lat": 60.15610973333333,
            "lon": 129.06967483333332
        },
        {
            "name": "PI002",
            "lat": 60.1235118,
            "lon": 129.19786478333333
        },
        {
            "name": "PI003",
            "lat": 60.18925083333333,
            "lon": 129.27703756666668
        },
        {
            "name": "SIBKU",
            "lat": 60.130372216666665,
            "lon": 128.41225
        },
        {
            "name": "SINSI",
            "lat": 60.0971,
            "lon": 129.20867221666666
        },
        {
            "name": "TUDOK",
            "lat": 59.946438883333336,
            "lon": 128.611625
        },
        {
            "name": "VIBVO",
            "lat": 60.141933333333334,
            "lon": 128.96451666666667
        },
        {
            "name": "VIRPI",
            "lat": 60.12915278333333,
            "lon": 129.21196111666666
        },
        {
            "name": "VIXOP",
            "lat": 60.1158,
            "lon": 128.80625833333335
        },
        {
            "name": "XOVNA",
            "lat": 59.97464443333333,
            "lon": 128.75362221666666
        },
        {
            "name": "YQH",
            "lat": 60.086525,
            "lon": 128.85758056666666
        }
    ],
    "rnws": [
        "RNW 09",
        "RNW 27"
    ],
    "sids": [],
    "stars": [],
    "approaches": [
        {
            "name": "ILS09",
            "fixes": {
                "ETNAG": "ETNAG AT OR ABOVE 4200",
                "FERDS": "FERDS 3530 RNW 09 HDG 088 UNTIL 2700 HDG 152 UNTIL 5200 TURN RIGHT DIRECT",
                "YQH": "YQH 5200 HOLD AT YQH RIGHT TURN INBOUNDCOURSE 002 ALT 5200 SPEED 230 LEGTIME 1 FAF FERDS MAP RNW 09"
            },
            "transitions": [
                {
                    "name": "YQH",
                    "fixes": {
                        "YQH": "YQH",
                        "FERDS": "FERDS AT OR ABOVE 4700",
                        "PI001": "PI001 AT OR ABOVE 4200 SPEED 210",
                        "PI002": "OVERFLY PI002 AT OR ABOVE 4200 SPEED 210",
                        "PI003": "PI003 AT OR ABOVE 4200 SPEED 210"
                    }
                }
            ]
        },
        {
            "name": "RNAVY09",
            "fixes": {
                "MAXOK": "MAXOK AT OR ABOVE 5000",
                "VIBVO": "VIBVO 3600 RNW 09 HDG 090 UNTIL 2700",
                "XOVNA": "OVERFLY XOVNA 5000 SPEED 185 HOLD AT XOVNA RIGHT TURN INBOUNDCOURSE 090 SPEED 230 LEGTIME 1 FAF VIBVO MAP RNW 09"
            },
            "transitions": [
                {
                    "name": "PETNI",
                    "fixes": {
                        "PETNI": "PETNI SPEED 210"
                    }
                },
                {
                    "name": "SINSI",
                    "fixes": {
                        "SINSI": "SINSI SPEED 210"
                    }
                }
            ]
        },
        {
            "name": "RNAVZ09",
            "fixes": {
                "KERGU": "KERGU AT OR ABOVE 5000",
                "APMEM": "APMEM 3600",
                "DUXAD": "OVERFLY DUXAD 2459 RNW 09 TRK 100 UNTIL 2660",
                "XOVNA": "OVERFLY XOVNA 5000 SPEED 230 HOLD AT XOVNA RIGHT TURN INBOUNDCOURSE 090 SPEED 230 LEGTIME 1 FAF APMEM MAP DUXAD"
            },
            "transitions": [
                {
                    "name": "DEGBO",
                    "fixes": {
                        "DEGBO": "DEGBO SPEED 210"
                    }
                },
                {
                    "name": "VIRPI",
                    "fixes": {
                        "VIRPI": "VIRPI SPEED 210"
                    }
                }
            ]
        },
        {
            "name": "RNAVY27",
            "fixes": {
                "KENRI": "KENRI AT OR ABOVE 5400",
                "LOKVI": "LOKVI 4100 RNW 27 HDG 270 UNTIL 2700",
                "MUNLA": "OVERFLY MUNLA 5700 HOLD AT MUNLA RIGHT TURN INBOUNDCOURSE 285 LEGTIME 1 FAF LOKVI MAP RNW 27"
            },
            "transitions": [
                {
                    "name": "BIPTU",
                    "fixes": {
                        "BIPTU": "BIPTU SPEED 210"
                    }
                },
                {
                    "name": "SIBKU",
                    "fixes": {
                        "SIBKU": "SIBKU SPEED 210"
                    }
                }
            ]
        },
        {
            "name": "RNAVZ27",
            "fixes": {
                "OMRUV": "OMRUV AT OR ABOVE 5400",
                "KEKNI": "KEKNI 4100",
                "NUDER": "NUDER AT OR ABOVE 3550",
                "VIXOP": "OVERFLY VIXOP 2301 RNW 27",
                "MUNLA": "OVERFLY MUNLA 5700 HOLD AT MUNLA RIGHT TURN INBOUNDCOURSE 285 LEGTIME 1 FAF KEKNI MAP VIXOP"
            },
            "transitions": [
                {
                    "name": "ONDEG",
                    "fixes": {
                        "ONDEG": "ONDEG SPEED 210"
                    }
                },
                {
                    "name": "TUDOK",
                    "fixes": {
                        "TUDOK": "TUDOK SPEED 210"
                    }
                }
            ]
        }
    ]
}