{
    "fixes": [
        {
            "name": "AVTEP",
            "lat": 48.582180566666665,
            "lon": 72.33714721666666
        },
        {
            "name": "BONUD",
            "lat": 48.45896666666667,
            "lon": 72.19656111666667
        },
        {
            "name": "DULTI",
            "lat": 48.661725,
            "lon": 72.42837221666667
        },
        {
            "name": "ENEKI",
            "lat": 48.712122216666664,
            "lon": 72.32825556666667
        },
        {
            "name": "IKMUK",
            "lat": 48.611241666666665,
            "lon": 72.52829166666666
        },
        {
            "name": "KELGI",
            "lat": 48.426861116666664,
            "lon": 72.00336111666667
        },
        {
            "name": "MITAP",
            "lat": 48.376744433333336,
            "lon": 72.10323611666666
        },
        {
            "name": "NAGPA",
            "lat": 48.326541666666664,
            "lon": 72.20291666666667
        },
        {
            "name": "OTNEK",
            "lat": 48.57414443333333,
            "lon": 72.32795
        },
        {
            "name": "PI001",
            "lat": 48.58744665,
            "lon": 72.35456533333333
        },
        {
            "name": "PI002",
            "lat": 48.58989701666667,
            "lon": 72.46284815
        },
        {
            "name": "PI003",
            "lat": 48.66656426666667,
            "lon": 72.46652931666667
        },
        {
            "name": "RJNB",
            "lat": 48.5448,
            "lon": 72.29442221666666
        },
        {
            "name": "TIBOK",
            "lat": 48.456477783333334,
            "lon": 72.19373056666667
        }
    ],
    "rnws": [
        "RNW 16",
        "RNW 34"
    ],
    "sids": [],
    "stars": [],
    "approaches": [
        {
            "name": "NDBA16",
            "fixes": {
                "RJNB": "RJNB 1400 RNW 16 TRK 160 UNTIL 2400 TURN LEFT DIRECT RJNB 2400 HOLD AT RJNB RIGHT TURN INBOUNDCOURSE 154 SPEED 230 LEGTIME 1 FAF RJNB MAP RNW 16"
            },
            "transitions": [
                {
                    "name": "RJ",
                    "fixes": {
                        "PI001": "PI001 AT OR ABOVE 2400 SPEED 210",
                        "PI002": "OVERFLY PI002 AT OR ABOVE 2400 SPEED 210",
                        "PI003": "PI003 AT OR ABOVE 2400 SPEED 210"
                    }
                }
            ]
        },
        {
            "name": "RNAV16",
            "fixes": {
                "DULTI": "DULTI AT OR ABOVE 2100",
                "AVTEP": "AVTEP 2000 RNW 16",
                "BONUD": "OVERFLY BONUD 2700 HOLD AT BONUD RIGHT TURN INBOUNDCOURSE 160 SPEED 230 LEGTIME 1 FAF AVTEP MAP RNW 16"
            },
            "transitions": [
                {
                    "name": "ENEKI",
                    "fixes": {
                        "ENEKI": "ENEKI SPEED 210"
                    }
                },
                {
                    "name": "IKMUK",
                    "fixes": {
                        "IKMUK": "IKMUK SPEED 210"
                    }
                }
            ]
        },
        {
            "name": "RNAV34",
            "fixes": {
                "MITAP": "MITAP AT OR ABOVE 2400",
                "TIBOK": "TIBOK 2000 RNW 34",
                "OTNEK": "OVERFLY OTNEK 2700 HOLD AT OTNEK LEFT TURN INBOUNDCOURSE 340 SPEED 230 LEGTIME 1 FAF TIBOK MAP RNW 34"
            },
            "transitions": [
                {
                    "name": "KELGI",
                    "fixes": {
                        "KELGI": "KELGI SPEED 210"
                    }
                },
                {
                    "name": "NAGPA",
                    "fixes": {
                        "NAGPA": "NAGPA SPEED 210"
                    }
                }
            ]
        }
    ]
}