{
    "fixes": [
        {
            "name": "AGIWA",
            "lat": 45.480041666666665,
            "lon": 71.79894443333333
        },
        {
            "name": "ALNAP",
            "lat": 45.420125,
            "lon": 71.64396111666667
        },
        {
            "name": "CUVIE",
            "lat": 45.52003333333333,
            "lon": 71.90288333333334
        },
        {
            "name": "DEDMI",
            "lat": 45.39525833333333,
            "lon": 71.57988888333334
        },
        {
            "name": "DERPI",
            "lat": 45.419786116666664,
            "lon": 71.39843333333333
        },
        {
            "name": "EMEGA",
            "lat": 45.491802783333334,
            "lon": 72.03928611666667
        },
        {
            "name": "ETLES",
            "lat": 45.575861116666665,
            "lon": 72.04864166666667
        },
        {
            "name": "KAXIR",
            "lat": 45.346902783333334,
            "lon": 71.45573056666667
        },
        {
            "name": "KEDID",
            "lat": 45.27399166666667,
            "lon": 71.51288056666667
        },
        {
            "name": "ULBUK",
            "lat": 45.514688883333335,
            "lon": 71.88896943333333
        },
        {
            "name": "VITEG",
            "lat": 45.36193611666667,
            "lon": 71.49426943333333
        },
        {
            "name": "XOXIS",
            "lat": 45.458425,
            "lon": 71.74293056666667
        }
    ],
    "rnws": [
        "RNW 13",
        "RNW 31"
    ],
    "sids": [],
    "stars": [],
    "approaches": [
        {
            "name": "RNAV13",
            "fixes": {
                "CUVIE": "CUVIE AT OR ABOVE 2400",
                "AGIWA": "AGIWA 2300",
                "XOXIS": "XOXIS AT OR ABOVE 1440 RNW 13",
                "VITEG": "OVERFLY VITEG 3300 HOLD AT VITEG RIGHT TURN INBOUNDCOURSE 135 SPEED 250 LEGTIME 1 FAF AGIWA MAP RNW 13"
            },
            "transitions": [
                {
                    "name": "EMEGA",
                    "fixes": {
                        "EMEGA": "EMEGA"
                    }
                },
                {
                    "name": "ETLES",
                    "fixes": {
                        "ETLES": "ETLES"
                    }
                }
            ]
        },
        {
            "name": "RNAV31",
            "fixes": {
                "KAXIR": "KAXIR AT OR ABOVE 3100",
                "DEDMI": "DEDMI 2400",
                "ALNAP": "ALNAP AT OR ABOVE 1420 RNW 31",
                "ULBUK": "OVERFLY ULBUK 3300 HOLD AT ULBUK RIGHT TURN INBOUNDCOURSE 314 LEGTIME 1 FAF DEDMI MAP RNW 31"
            },
            "transitions": [
                {
                    "name": "DERPI",
                    "fixes": {
                        "DERPI": "DERPI SPEED 210"
                    }
                },
                {
                    "name": "KEDID",
                    "fixes": {
                        "KEDID": "KEDID SPEED 210"
                    }
                }
            ]
        }
    ]
}