{
    "fixes": [
        {
            "name": "ALMIB",
            "lat": 52.61648056666667,
            "lon": 66.82850833333333
        },
        {
            "name": "AMUSA",
            "lat": 52.877369433333335,
            "lon": 66.8379
        },
        {
            "name": "ARAME",
            "lat": 51.33831943333333,
            "lon": 67.46217778333333
        },
        {
            "name": "BOPEP",
            "lat": 52.68771388333333,
            "lon": 66.55956388333334
        },
        {
            "name": "DUPLI",
            "lat": 53.08485278333333,
            "lon": 65.20950278333333
        },
        {
            "name": "DUTAS",
            "lat": 52.76559721666667,
            "lon": 66.77218056666666
        },
        {
            "name": "ESVUT",
            "lat": 53.016866666666665,
            "lon": 66.92043333333334
        },
        {
            "name": "HECIT",
            "lat": 53.11085833333333,
            "lon": 66.97636666666666
        },
        {
            "name": "IGVIN",
            "lat": 53.08268056666667,
            "lon": 67.10643333333333
        },
        {
            "name": "KATPA",
            "lat": 52.703122216666664,
            "lon": 67.00744721666666
        },
        {
            "name": "KERMU",
            "lat": 52.485086116666665,
            "lon": 66.68738333333333
        },
        {
            "name": "NANRO",
            "lat": 52.655819433333335,
            "lon": 66.70797778333333
        },
        {
            "name": "ODGAL",
            "lat": 53.056755566666666,
            "lon": 66.47195556666667
        },
        {
            "name": "ODKUD",
            "lat": 53.138894433333334,
            "lon": 66.84612778333333
        },
        {
            "name": "PI001",
            "lat": 52.71077725,
            "lon": 66.73924906666667
        },
        {
            "name": "PI002",
            "lat": 52.6804413,
            "lon": 66.63211336666667
        },
        {
            "name": "PI003",
            "lat": 52.65594818333334,
            "lon": 66.70640023333333
        },
        {
            "name": "SAXET",
            "lat": 52.78499443333333,
            "lon": 66.78355833333333
        },
        {
            "name": "SEBUT",
            "lat": 52.82831111666667,
            "lon": 66.80901111666667
        },
        {
            "name": "UDBAK",
            "lat": 52.975911116666666,
            "lon": 66.89614443333333
        },
        {
            "name": "YWK",
            "lat": 52.96010556666667,
            "lon": 66.85388888333334
        }
    ],
    "rnws": [
        "RNW 18",
        "RNW 36"
    ],
    "sids": [],
    "stars": [],
    "approaches": [
        {
            "name": "ILS36",
            "fixes": {
                "NANRO": "NANRO AT OR ABOVE 4800",
                "SEBUT": "SEBUT 3590 RNW 36 HDG 359 UNTIL 2400 TURN RIGHT HDG 116 INTERCEPT RADIAL 086 TO",
                "ODGAL": "ODGAL ODGAL 4800 HOLD AT ODGAL RIGHT TURN INBOUNDCOURSE 086 SPEED 200 LEGTIME 1 FAF SEBUT MAP RNW 36"
            },
            "transitions": [
                {
                    "name": "KERMU",
                    "fixes": {
                        "KERMU": "KERMU"
                    }
                },
                {
                    "name": "NANRO",
                    "fixes": {
                        "NANRO": "NANRO RIGHT TURN INBOUNDCOURSE 359 ALT 4800 SPEED 265 LEGTIME 1"
                    }
                },
                {
                    "name": "YWK",
                    "fixes": {
                        "YWK": "YWK",
                        "DUTAS": "DUTAS AT OR ABOVE 4800",
                        "PI001": "PI001 AT OR ABOVE 4800 SPEED 210",
                        "PI002": "OVERFLY PI002 AT OR ABOVE 4800 SPEED 210",
                        "PI003": "PI003 AT OR ABOVE 4800 SPEED 210"
                    }
                }
            ]
        },
        {
            "name": "RNAV18",
            "fixes": {
                "HECIT": "HECIT AT OR ABOVE 5000",
                "ESVUT": "ESVUT 3600",
                "UDBAK": "UDBAK AT OR ABOVE 2770 RNW 18",
                "NANRO": "NANRO 4000 HOLD AT NANRO RIGHT TURN INBOUNDCOURSE 359 SPEED 230 LEGTIME 1 FAF ESVUT MAP RNW 18"
            },
            "transitions": [
                {
                    "name": "ARAME",
                    "fixes": {
                        "ARAME": "ARAME",
                        "KATPA": "KATPA AT OR ABOVE 5100",
                        "IGVIN": "IGVIN AT OR ABOVE 5000 SPEED 210"
                    }
                },
                {
                    "name": "DUPLI",
                    "fixes": {
                        "DUPLI": "DUPLI",
                        "ODKUD": "ODKUD AT OR ABOVE 5000 SPEED 210"
                    }
                }
            ]
        },
        {
            "name": "RNAV36",
            "fixes": {
                "NANRO": "NANRO AT OR ABOVE 4800",
                "SAXET": "SAXET 4500",
                "AMUSA": "AMUSA AT OR ABOVE 2620 RNW 36 HDG 359 UNTIL 2600 TURN RIGHT DIRECT",
                "ODGAL": "OVERFLY ODGAL 4800 HOLD AT ODGAL RIGHT TURN INBOUNDCOURSE 086 SPEED 230 LEGTIME 1 FAF SAXET MAP RNW 36"
            },
            "transitions": [
                {
                    "name": "ALMIB",
                    "fixes": {
                        "ALMIB": "ALMIB SPEED 210"
                    }
                },
                {
                    "name": "BOPEP",
                    "fixes": {
                        "BOPEP": "BOPEP SPEED 210"
                    }
                },
                {
                    "name": "KERMU",
                    "fixes": {
                        "KERMU": "KERMU"
                    }
                },
                {
                    "name": "NANRO",
                    "fixes": {
                        "NANRO": "NANRO RIGHT TURN INBOUNDCOURSE 359 ALT 4800 SPEED 230 LEGTIME 1"
                    }
                }
            ]
        }
    ]
}