{
    "fixes": [
        {
            "name": "ATHAM",
            "lat": 47.65746111666667,
            "lon": 79.96518888333334
        },
        {
            "name": "EBMUG",
            "lat": 47.8491,
            "lon": 79.67408611666667
        },
        {
            "name": "ESVOD",
            "lat": 47.69452221666667,
            "lon": 80.13003056666666
        },
        {
            "name": "IPVID",
            "lat": 47.73765556666667,
            "lon": 79.72856388333334
        },
        {
            "name": "KEKVU",
            "lat": 47.77457221666667,
            "lon": 79.6189
        },
        {
            "name": "MEBOP",
            "lat": 47.700122216666664,
            "lon": 79.56356388333333
        },
        {
            "name": "OVIGA",
            "lat": 47.620213883333335,
            "lon": 80.07436111666667
        },
        {
            "name": "URNAV",
            "lat": 47.54577221666667,
            "lon": 80.01915833333334
        },
        {
            "name": "VIKDA",
            "lat": 47.66388611666667,
            "lon": 79.94630833333333
        },
        {
            "name": "XORIX",
            "lat": 47.73124443333333,
            "lon": 79.74756666666667
        }
    ],
    "rnws": [
        "RNW 08",
        "RNW 16",
        "RNW 26",
        "RNW 34"
    ],
    "sids": [],
    "stars": [],
    "approaches": [
        {
            "name": "RNAV08",
            "fixes": {
                "OVIGA": "OVIGA AT OR ABOVE 2400",
                "ATHAM": "ATHAM 2400 RNW 08",
                "XORIX": "OVERFLY XORIX 3200 HOLD AT XORIX RIGHT TURN INBOUNDCOURSE 075 SPEED 230 LEGTIME 1 FAF ATHAM MAP RNW 08"
            },
            "transitions": [
                {
                    "name": "ESVOD",
                    "fixes": {
                        "ESVOD": "ESVOD SPEED 210"
                    }
                },
                {
                    "name": "URNAV",
                    "fixes": {
                        "URNAV": "URNAV SPEED 210"
                    }
                }
            ]
        },
        {
            "name": "RNAV26",
            "fixes": {
                "KEKVU": "KEKVU AT OR ABOVE 2400",
                "IPVID": "IPVID 2400 RNW 26",
                "VIKDA": "OVERFLY VIKDA 3200 HOLD AT VIKDA RIGHT TURN INBOUNDCOURSE 255 SPEED 230 LEGTIME 1 FAF IPVID MAP RNW 26"
            },
            "transitions": [
                {
                    "name": "EBMUG",
                    "fixes": {
                        "EBMUG": "EBMUG SPEED 210"
                    }
                },
                {
                    "name": "MEBOP",
                    "fixes": {
                        "MEBOP": "MEBOP SPEED 210"
                    }
                }
            ]
        }
    ]
}