{
    "fixes": [
        {
            "name": "DAVED",
            "lat": 54.10191666666667,
            "lon": 128.49916943333332
        },
        {
            "name": "DEDIB",
            "lat": 54.30895278333333,
            "lon": 128.58562778333334
        },
        {
            "name": "ELSUV",
            "lat": 54.964441666666666,
            "lon": 128.78858888333335
        },
        {
            "name": "ENTRY",
            "lat": 54.320047216666666,
            "lon": 128.0198
        },
        {
            "name": "EPTAV",
            "lat": 54.36221388333333,
            "lon": 128.56202778333332
        },
        {
            "name": "EPTEB",
            "lat": 54.476736116666665,
            "lon": 128.23451943333333
        },
        {
            "name": "ETLUT",
            "lat": 54.608066666666666,
            "lon": 128.65508056666667
        },
        {
            "name": "ETMIL",
            "lat": 54.839705566666666,
            "lon": 128.81839443333334
        },
        {
            "name": "IGTIX",
            "lat": 54.041797216666666,
            "lon": 128.36365556666667
        },
        {
            "name": "IKBIG",
            "lat": 54.69070833333333,
            "lon": 128.82422778333333
        },
        {
            "name": "ITNES",
            "lat": 54.706741666666666,
            "lon": 128.82854443333332
        },
        {
            "name": "KAXOS",
            "lat": 54.17638888333333,
            "lon": 128.59862778333334
        },
        {
            "name": "LEXUK",
            "lat": 54.003058333333335,
            "lon": 128.47550556666667
        },
        {
            "name": "LORGI",
            "lat": 54.23854166666667,
            "lon": 128.11041943333333
        },
        {
            "name": "MEDLI",
            "lat": 54.38455556666667,
            "lon": 129.12864166666665
        },
        {
            "name": "MEGIX",
            "lat": 54.55728056666667,
            "lon": 128.60966388333333
        },
        {
            "name": "MURUL",
            "lat": 54.69036943333333,
            "lon": 128.80645278333333
        },
        {
            "name": "MUXUD",
            "lat": 54.82730278333333,
            "lon": 129.02682221666666
        },
        {
            "name": "NORUL",
            "lat": 54.275494433333336,
            "lon": 128.57815556666668
        },
        {
            "name": "NOTED",
            "lat": 54.29631943333333,
            "lon": 128.54603888333332
        },
        {
            "name": "OBRAR",
            "lat": 54.10878056666667,
            "lon": 128.813425
        },
        {
            "name": "OBSAB",
            "lat": 54.71603056666667,
            "lon": 129.10105
        },
        {
            "name": "ODGUP",
            "lat": 54.60909721666667,
            "lon": 128.66465833333334
        },
        {
            "name": "OMROT",
            "lat": 54.502352783333336,
            "lon": 128.36086666666668
        },
        {
            "name": "ONDAD",
            "lat": 54.406694433333335,
            "lon": 128.57285
        },
        {
            "name": "ONDIM",
            "lat": 54.467138883333334,
            "lon": 128.15541666666667
        },
        {
            "name": "OVGAK",
            "lat": 54.358125,
            "lon": 128.56103333333334
        },
        {
            "name": "PENKI",
            "lat": 54.38024721666667,
            "lon": 128.56641111666667
        },
        {
            "name": "PETGO",
            "lat": 54.710236116666664,
            "lon": 128.92892778333334
        },
        {
            "name": "PUTOD",
            "lat": 54.1404,
            "lon": 128.48758056666668
        },
        {
            "name": "RAGOD",
            "lat": 54.631311116666666,
            "lon": 128.70178611666665
        },
        {
            "name": "RESIN",
            "lat": 54.82896111666667,
            "lon": 128.42253611666666
        },
        {
            "name": "RF001",
            "lat": 54.538360133333335,
            "lon": 128.59088223333333
        },
        {
            "name": "RF002",
            "lat": 54.52579181666667,
            "lon": 128.59810488333332
        },
        {
            "name": "RF003",
            "lat": 54.444405266666664,
            "lon": 128.13974678333332
        },
        {
            "name": "RF004",
            "lat": 54.45866196666667,
            "lon": 128.16595611666668
        },
        {
            "name": "RF005",
            "lat": 54.469431783333334,
            "lon": 128.19670793333333
        },
        {
            "name": "RF006",
            "lat": 54.48750596666667,
            "lon": 128.31438091666666
        },
        {
            "name": "RF007",
            "lat": 54.49315275,
            "lon": 128.33627461666666
        },
        {
            "name": "RF008",
            "lat": 54.57586413333333,
            "lon": 128.61779223333335
        },
        {
            "name": "RF009",
            "lat": 54.5932356,
            "lon": 128.63332593333334
        },
        {
            "name": "RF010",
            "lat": 54.15442528333333,
            "lon": 128.50229158333335
        },
        {
            "name": "RF011",
            "lat": 54.16887546666667,
            "lon": 128.51257868333334
        },
        {
            "name": "RF012",
            "lat": 54.25057208333333,
            "lon": 128.48470003333333
        },
        {
            "name": "RF013",
            "lat": 54.261252166666665,
            "lon": 128.51400626666666
        },
        {
            "name": "RF014",
            "lat": 54.27713898333333,
            "lon": 128.53530871666666
        },
        {
            "name": "RIKEX",
            "lat": 54.42678333333333,
            "lon": 128.119075
        },
        {
            "name": "SEDEG",
            "lat": 54.617347216666666,
            "lon": 128.68262778333334
        },
        {
            "name": "SUVBU",
            "lat": 54.24154443333333,
            "lon": 128.23814166666668
        },
        {
            "name": "TADUK",
            "lat": 54.64798888333333,
            "lon": 128.74740278333334
        },
        {
            "name": "UBVUN",
            "lat": 54.185941666666665,
            "lon": 128.51937221666665
        },
        {
            "name": "ULIDO",
            "lat": 54.549244433333335,
            "lon": 128.57761111666667
        },
        {
            "name": "UMIPO",
            "lat": 54.05116666666667,
            "lon": 128.59842221666668
        },
        {
            "name": "URNIS",
            "lat": 54.06370278333333,
            "lon": 128.44850556666665
        },
        {
            "name": "URTAP",
            "lat": 54.51172221666667,
            "lon": 128.59849721666666
        },
        {
            "name": "URTOX",
            "lat": 54.48348888333334,
            "lon": 128.290475
        },
        {
            "name": "VITEK",
            "lat": 54.49620278333333,
            "lon": 128.59885833333334
        },
        {
            "name": "VIXIN",
            "lat": 54.42158056666667,
            "lon": 128.77046666666666
        },
        {
            "name": "VOLEN",
            "lat": 54.43383611666667,
            "lon": 127.88442778333334
        },
        {
            "name": "XONGU",
            "lat": 54.55360833333334,
            "lon": 128.47488056666666
        },
        {
            "name": "XORIM",
            "lat": 54.67527221666667,
            "lon": 128.78504721666667
        },
        {
            "name": "XOTRU",
            "lat": 54.422147216666666,
            "lon": 128.57661388333332
        },
        {
            "name": "XUDAX",
            "lat": 54.539433333333335,
            "lon": 128.62869166666667
        },
        {
            "name": "XUGIT",
            "lat": 54.24625278333333,
            "lon": 128.45105278333332
        },
        {
            "name": "ZKINB",
            "lat": 54.05424166666667,
            "lon": 128.67009443333333
        }
    ],
    "rnws": [
        "RNW 03",
        "RNW 15",
        "RNW 21",
        "RNW 33"
    ],
    "sids": [
        {
            "name": "MEDLI1",
            "rnw": "33",
            "fixes": {
                "VIXIN": "VIXIN SPEED 210",
                "MEDLI": "MEDLI"
            },
            "sub_fixes": [],
            "transitions": []
        },
        {
            "name": "RESI2",
            "rnw": "33",
            "fixes": {
                "RAGOD": "RAGOD",
                "ITNES": "ITNES",
                "ETMIL": "ETMIL TURN RIGHT DIRECT",
                "RESIN": "RESIN SPEED 265"
            },
            "sub_fixes": [],
            "transitions": []
        },
        {
            "name": "ZKID1",
            "rnw": "15",
            "fixes": {
                "EPTAV": "EPTAV",
                "ZKINB": "ZKINB"
            },
            "sub_fixes": [],
            "transitions": []
        }
    ],
    "stars": [],
    "approaches": [
        {
            "name": "ILSY33",
            "fixes": {
                "DAVED": "DAVED AT OR ABOVE 7100",
                "NOTED": "NOTED 4480 RNW 33 HDG 333 UNTIL 1300",
                "ODGUP": "ODGUP",
                "IKBIG": "IKBIG",
                "ELSUV": "OVERFLY ELSUV 9700 HOLD AT ELSUV RIGHT TURN INBOUNDCOURSE 345 SPEED 250 LEGTIME 1 FAF NOTED MAP RNW 33"
            },
            "transitions": [
                {
                    "name": "IGTIX",
                    "fixes": {
                        "IGTIX": "IGTIX"
                    }
                },
                {
                    "name": "LEXUK",
                    "fixes": {
                        "LEXUK": "LEXUK"
                    }
                },
                {
                    "name": "ZKI",
                    "fixes": {
                        "ZKINB": "ZKINB"
                    }
                }
            ]
        },
        {
            "name": "ILSZ33",
            "fixes": {
                "DAVED": "DAVED AT OR ABOVE 7100",
                "NOTED": "NOTED 4480 RNW 33",
                "ODGUP": "ODGUP",
                "IKBIG": "IKBIG",
                "ELSUV": "OVERFLY ELSUV 9700 HOLD AT ELSUV RIGHT TURN INBOUNDCOURSE 345 SPEED 250 LEGTIME 1 FAF NOTED MAP RNW 33"
            },
            "transitions": [
                {
                    "name": "IGTIX",
                    "fixes": {
                        "IGTIX": "IGTIX"
                    }
                },
                {
                    "name": "LEXUK",
                    "fixes": {
                        "LEXUK": "LEXUK"
                    }
                },
                {
                    "name": "ZKI",
                    "fixes": {
                        "ZKINB": "ZKINB"
                    }
                }
            ]
        },
        {
            "name": "RNAVY15",
            "fixes": {
                "ULIDO": "ULIDO 2400",
                "RF001": "RF001",
                "RF002": "RF002",
                "URTAP": "URTAP AT OR ABOVE 1488 RNW 15",
                "ONDAD": "ONDAD",
                "DEDIB": "DEDIB 6500",
                "UMIPO": "OVERFLY UMIPO HOLD AT UMIPO RIGHT TURN INBOUNDCOURSE 163 ALT 6500 SPEED 230 LEGTIME 1 FAF ULIDO MAP RNW 15"
            },
            "transitions": [
                {
                    "name": "ENTRY",
                    "fixes": {
                        "ENTRY": "ENTRY AT OR ABOVE 11100",
                        "RIKEX": "RIKEX AT OR ABOVE 8700",
                        "RF003": "RF003",
                        "RF004": "RF004",
                        "RF005": "RF005",
                        "EPTEB": "EPTEB AT OR ABOVE 6900",
                        "URTOX": "URTOX AT OR ABOVE 6200",
                        "RF006": "RF006",
                        "RF007": "RF007",
                        "OMROT": "OMROT AT OR ABOVE 5200 SPEED 210",
                        "XONGU": "XONGU AT OR ABOVE 3600 SPEED 190"
                    }
                },
                {
                    "name": "VOLEN",
                    "fixes": {
                        "VOLEN": "VOLEN AT OR ABOVE 11100",
                        "ONDIM": "ONDIM AT OR ABOVE 7900",
                        "EPTEB": "EPTEB AT OR ABOVE 6900",
                        "URTOX": "URTOX AT OR ABOVE 6200",
                        "RF006": "RF006",
                        "RF007": "RF007",
                        "OMROT": "OMROT AT OR ABOVE 5200 SPEED 210",
                        "XONGU": "XONGU AT OR ABOVE 3600 SPEED 190"
                    }
                }
            ]
        },
        {
            "name": "RNAVZ15",
            "fixes": {
                "TADUK": "TADUK AT OR ABOVE 4700",
                "SEDEG": "SEDEG 4200",
                "XUDAX": "XUDAX AT OR ABOVE 2200",
                "VITEK": "OVERFLY VITEK 1164 RNW 15 HDG 139 UNTIL 1300",
                "DEDIB": "DEDIB",
                "UMIPO": "OVERFLY UMIPO 6800 HOLD AT UMIPO RIGHT TURN INBOUNDCOURSE 163 SPEED 250 LEGTIME 1 FAF SEDEG MAP VITEK"
            },
            "transitions": [
                {
                    "name": "MUXUD",
                    "fixes": {
                        "MUXUD": "MUXUD",
                        "ITNES": "ITNES AT OR ABOVE 6800",
                        "XORIM": "XORIM AT OR ABOVE 5700"
                    }
                },
                {
                    "name": "OBSAB",
                    "fixes": {
                        "OBSAB": "OBSAB",
                        "PETGO": "PETGO AT OR ABOVE 7900",
                        "ITNES": "ITNES AT OR ABOVE 6900",
                        "XORIM": "XORIM AT OR ABOVE 5700"
                    }
                },
                {
                    "name": "RESIN",
                    "fixes": {
                        "RESIN": "RESIN AT OR ABOVE 11100",
                        "ETMIL": "ETMIL AT OR ABOVE 8000",
                        "ITNES": "ITNES AT OR ABOVE 6200",
                        "XORIM": "XORIM AT OR ABOVE 5700"
                    }
                }
            ]
        },
        {
            "name": "RNAVX33",
            "fixes": {
                "NORUL": "NORUL AT OR ABOVE 4200",
                "OVGAK": "OVGAK 3000",
                "XOTRU": "XOTRU AT OR ABOVE 1560 RNW 33 HDG 333 UNTIL 1300",
                "ODGUP": "ODGUP",
                "IKBIG": "IKBIG",
                "ELSUV": "OVERFLY ELSUV 9700 HOLD AT ELSUV RIGHT TURN INBOUNDCOURSE 345 LEGTIME 1 FAF OVGAK MAP RNW 33"
            },
            "transitions": [
                {
                    "name": "OBRAR",
                    "fixes": {
                        "OBRAR": "OBRAR",
                        "KAXOS": "KAXOS AT OR ABOVE 6800"
                    }
                },
                {
                    "name": "URNIS",
                    "fixes": {
                        "URNIS": "URNIS",
                        "KAXOS": "KAXOS AT OR ABOVE 6800"
                    }
                }
            ]
        },
        {
            "name": "RNAVY33",
            "fixes": {
                "PENKI": "PENKI 2500 RNW 33",
                "MEGIX": "MEGIX",
                "RF008": "RF008",
                "RF009": "RF009",
                "ETLUT": "ETLUT",
                "MURUL": "OVERFLY MURUL 8500 HOLD AT MURUL RIGHT TURN INBOUNDCOURSE 020 SPEED 200 LEGTIME 1 FAF PENKI MAP RNW 33"
            },
            "transitions": [
                {
                    "name": "IGTIX",
                    "fixes": {
                        "IGTIX": "IGTIX AT OR ABOVE 11100",
                        "PUTOD": "PUTOD AT OR ABOVE 7900 SPEED 210",
                        "RF010": "RF010",
                        "RF011": "RF011",
                        "UBVUN": "UBVUN AT OR ABOVE 7000",
                        "NOTED": "NOTED AT OR ABOVE 4100"
                    }
                },
                {
                    "name": "LORGI",
                    "fixes": {
                        "LORGI": "LORGI AT OR ABOVE 11100",
                        "SUVBU": "SUVBU AT OR ABOVE 9200",
                        "XUGIT": "XUGIT AT OR ABOVE 6100 SPEED 210",
                        "RF012": "RF012",
                        "RF013": "RF013",
                        "RF014": "RF014",
                        "NOTED": "NOTED AT OR ABOVE 4100"
                    }
                }
            ]
        },
        {
            "name": "RNAVZ33",
            "fixes": {
                "NORUL": "NORUL AT OR ABOVE 4200",
                "OVGAK": "OVGAK 3000 RNW 33",
                "ODGUP": "ODGUP",
                "IKBIG": "IKBIG",
                "ELSUV": "OVERFLY ELSUV 9700 HOLD AT ELSUV RIGHT TURN INBOUNDCOURSE 345 LEGTIME 1 FAF OVGAK MAP RNW 33"
            },
            "transitions": [
                {
                    "name": "OBRAR",
                    "fixes": {
                        "OBRAR": "OBRAR",
                        "KAXOS": "KAXOS AT OR ABOVE 6800"
                    }
                },
                {
                    "name": "URNIS",
                    "fixes": {
                        "URNIS": "URNIS",
                        "KAXOS": "KAXOS AT OR ABOVE 6800"
                    }
                }
            ]
        }
    ]
}