{
    "fixes": [
        {
            "name": "ALITI",
            "lat": 42.92421111666667,
            "lon": 81.36500278333334
        },
        {
            "name": "ATUKO",
            "lat": 43.11366666666667,
            "lon": 81.35987778333333
        },
        {
            "name": "AVTIK",
            "lat": 43.01561388333333,
            "lon": 81.48840833333334
        },
        {
            "name": "BEMIK",
            "lat": 43.087772216666664,
            "lon": 81.40891111666667
        },
        {
            "name": "BIVTO",
            "lat": 43.076897216666666,
            "lon": 81.05013333333333
        },
        {
            "name": "DAVOK",
            "lat": 42.89885833333334,
            "lon": 80.98808888333333
        },
        {
            "name": "DUVEN",
            "lat": 43.040188883333336,
            "lon": 81.14039443333333
        },
        {
            "name": "EMOKI",
            "lat": 43.17893888333333,
            "lon": 81.15770556666666
        },
        {
            "name": "GOPEX",
            "lat": 43.154691666666665,
            "lon": 80.93896111666666
        },
        {
            "name": "GOTOL",
            "lat": 43.072822216666665,
            "lon": 80.91757778333333
        },
        {
            "name": "IRDEN",
            "lat": 43.013533333333335,
            "lon": 80.95906666666667
        },
        {
            "name": "ITLOL",
            "lat": 43.08701943333333,
            "lon": 81.2139
        },
        {
            "name": "KERPO",
            "lat": 42.95384166666667,
            "lon": 80.90283888333333
        },
        {
            "name": "KIXIV",
            "lat": 43.027855566666666,
            "lon": 81.23498056666666
        },
        {
            "name": "LODMO",
            "lat": 43.066369433333335,
            "lon": 81.0421
        },
        {
            "name": "LOMSU",
            "lat": 42.843808333333335,
            "lon": 81.07318611666666
        },
        {
            "name": "MIVUG",
            "lat": 43.03695833333333,
            "lon": 81.16375
        },
        {
            "name": "NAGEB",
            "lat": 42.980525,
            "lon": 81.01025556666667
        },
        {
            "name": "NORAP",
            "lat": 42.98428333333333,
            "lon": 81.09036943333334
        },
        {
            "name": "OLEXI",
            "lat": 43.217163883333335,
            "lon": 81.21902778333333
        },
        {
            "name": "ONDUL",
            "lat": 42.990952783333334,
            "lon": 80.89625278333334
        },
        {
            "name": "OTNUP",
            "lat": 43.05144166666667,
            "lon": 81.06934166666667
        },
        {
            "name": "PI001",
            "lat": 43.024463983333334,
            "lon": 81.34147211666667
        },
        {
            "name": "PI002",
            "lat": 43.069539983333335,
            "lon": 81.4177124
        },
        {
            "name": "PI003",
            "lat": 43.01294375,
            "lon": 81.48880421666667
        },
        {
            "name": "PI004",
            "lat": 43.08725003333333,
            "lon": 80.96753091666666
        },
        {
            "name": "PI005",
            "lat": 43.15271383333334,
            "lon": 80.92757461666666
        },
        {
            "name": "PI006",
            "lat": 43.12589968333333,
            "lon": 80.82891076666667
        },
        {
            "name": "PI007",
            "lat": 43.1310322,
            "lon": 81.26633973333334
        },
        {
            "name": "PI008",
            "lat": 43.13598963333333,
            "lon": 81.36430996666667
        },
        {
            "name": "PI009",
            "lat": 43.162455216666665,
            "lon": 81.30384291666667
        },
        {
            "name": "RF001",
            "lat": 43.01974946666667,
            "lon": 80.9918739
        },
        {
            "name": "RF002",
            "lat": 42.998260566666666,
            "lon": 80.9939481
        },
        {
            "name": "RONGI",
            "lat": 43.03058888333333,
            "lon": 81.26211666666667
        },
        {
            "name": "TADOM",
            "lat": 42.889211116666665,
            "lon": 81.16509721666667
        },
        {
            "name": "TUDAR",
            "lat": 43.16194443333333,
            "lon": 81.30435833333334
        },
        {
            "name": "UKOVO",
            "lat": 43.14584443333333,
            "lon": 81.208925
        },
        {
            "name": "URLOS",
            "lat": 43.10666388333333,
            "lon": 81.38953611666666
        },
        {
            "name": "VIMSA",
            "lat": 43.005994433333335,
            "lon": 81.38692778333333
        },
        {
            "name": "XETAV",
            "lat": 43.052152783333334,
            "lon": 81.09552778333334
        },
        {
            "name": "XEVIP",
            "lat": 43.12298611666667,
            "lon": 80.82814721666666
        },
        {
            "name": "XOPGA",
            "lat": 43.03934443333333,
            "lon": 81.00509443333333
        },
        {
            "name": "XOSPA",
            "lat": 43.059611116666666,
            "lon": 81.18088888333334
        },
        {
            "name": "XOXAS",
            "lat": 43.005238883333334,
            "lon": 81.11552221666666
        },
        {
            "name": "XUBET",
            "lat": 42.93487221666667,
            "lon": 81.09463333333333
        },
        {
            "name": "XUDPU",
            "lat": 43.10057221666667,
            "lon": 81.24753056666667
        },
        {
            "name": "YXU",
            "lat": 43.03791111666666,
            "lon": 81.14893056666666
        }
    ],
    "rnws": [
        "RNW 09",
        "RNW 15",
        "RNW 27",
        "RNW 33"
    ],
    "sids": [
        {
            "name": "CYXU2",
            "rnw": "06",
            "fixes": {},
            "sub_fixes": [
                {
                    "rwy": "RNW 09",
                    "fixes": {
                        "RNW 09": "RNW 09 HDG 088 UNTIL 1320 HDG 088 VECTORS"
                    }
                },
                {
                    "rwy": "RNW 15",
                    "fixes": {
                        "RNW 15": "RNW 15 HDG 148 UNTIL 1320 HDG 148 VECTORS"
                    }
                },
                {
                    "rwy": "RNW 27",
                    "fixes": {
                        "RNW 27": "RNW 27 HDG 268 UNTIL 1320 HDG 268 VECTORS"
                    }
                },
                {
                    "rwy": "RNW 33",
                    "fixes": {
                        "RNW 33": "RNW 33 HDG 328 UNTIL 1320 HDG 328 VECTORS"
                    }
                }
            ],
            "transitions": []
        }
    ],
    "stars": [],
    "approaches": [
        {
            "name": "VORD09",
            "fixes": {
                "AVTIK": "AVTIK AT OR ABOVE 2500",
                "RONGI": "RONGI 2340",
                "MIVUG": "MIVUG 952 RNW 09",
                "YXU": "YXU",
                "XEVIP": "XEVIP 3000 HOLD AT XEVIP RIGHT TURN INBOUNDCOURSE 078 SPEED 230 LEGTIME 1 FAF RONGI MAP MIVUG"
            },
            "transitions": [
                {
                    "name": "YXU",
                    "fixes": {
                        "YXU": "YXU",
                        "RONGI": "RONGI AT OR ABOVE 2500",
                        "PI001": "PI001 AT OR ABOVE 2500 SPEED 210",
                        "PI002": "OVERFLY PI002 AT OR ABOVE 2500 SPEED 210",
                        "PI003": "PI003 AT OR ABOVE 2500 SPEED 210"
                    }
                }
            ]
        },
        {
            "name": "VORD27",
            "fixes": {
                "XEVIP": "XEVIP AT OR ABOVE 2600",
                "LODMO": "LODMO 2420",
                "XETAV": "XETAV AT OR ABOVE 1620",
                "DUVEN": "DUVEN 946 RNW 27",
                "YXU": "YXU",
                "AVTIK": "AVTIK 3000 HOLD AT AVTIK RIGHT TURN INBOUNDCOURSE 273 SPEED 230 LEGTIME 1 FAF LODMO MAP DUVEN"
            },
            "transitions": [
                {
                    "name": "YXU",
                    "fixes": {
                        "YXU": "YXU",
                        "LODMO": "LODMO AT OR ABOVE 2600",
                        "PI004": "PI004 AT OR ABOVE 2600 SPEED 210",
                        "PI005": "OVERFLY PI005 AT OR ABOVE 2600 SPEED 210",
                        "PI006": "PI006 AT OR ABOVE 2600 SPEED 210"
                    }
                }
            ]
        },
        {
            "name": "ILS15",
            "fixes": {
                "TUDAR": "TUDAR AT OR ABOVE 3000",
                "ITLOL": "ITLOL 2110 RNW 15 HDG 148 UNTIL 4000 HDG 148 VECTORS FAF ITLOL MAP RNW 15"
            },
            "transitions": [
                {
                    "name": "OLEXI",
                    "fixes": {
                        "OLEXI": "OLEXI AT OR ABOVE 3000 SPEED 210"
                    }
                },
                {
                    "name": "URLOS",
                    "fixes": {
                        "URLOS": "URLOS AT OR ABOVE 3000 SPEED 210"
                    }
                },
                {
                    "name": "YXU",
                    "fixes": {
                        "YXU": "YXU",
                        "ITLOL": "ITLOL AT OR ABOVE 3000",
                        "PI007": "PI007 AT OR ABOVE 3000 SPEED 210",
                        "PI008": "OVERFLY PI008 AT OR ABOVE 3000 SPEED 210",
                        "PI009": "PI009 AT OR ABOVE 3000 SPEED 210"
                    }
                }
            ]
        },
        {
            "name": "RNAV09",
            "fixes": {
                "VIMSA": "VIMSA AT OR ABOVE 3000",
                "KIXIV": "KIXIV 2000 RNW 09",
                "GOTOL": "OVERFLY GOTOL 4000 HOLD AT GOTOL RIGHT TURN INBOUNDCOURSE 088 LEGTIME 1 FAF KIXIV MAP RNW 09"
            },
            "transitions": [
                {
                    "name": "ALITI",
                    "fixes": {
                        "ALITI": "ALITI AT OR ABOVE 3000 SPEED 210"
                    }
                },
                {
                    "name": "BEMIK",
                    "fixes": {
                        "BEMIK": "BEMIK AT OR ABOVE 3000 SPEED 210"
                    }
                }
            ]
        },
        {
            "name": "RNAVY15",
            "fixes": {
                "ITLOL": "ITLOL 2100 RNW 15",
                "DAVOK": "OVERFLY DAVOK 4000 HOLD AT DAVOK RIGHT TURN INBOUNDCOURSE 148 LEGTIME 1 FAF ITLOL MAP RNW 15"
            },
            "transitions": [
                {
                    "name": "ATUKO",
                    "fixes": {
                        "ATUKO": "ATUKO AT OR ABOVE 4000 SPEED 210",
                        "XUDPU": "XUDPU AT OR ABOVE 2600"
                    }
                },
                {
                    "name": "EMOKI",
                    "fixes": {
                        "EMOKI": "EMOKI AT OR ABOVE 4000 SPEED 210",
                        "UKOVO": "UKOVO AT OR ABOVE 3200"
                    }
                },
                {
                    "name": "TUDAR",
                    "fixes": {
                        "TUDAR": "TUDAR AT OR ABOVE 3000"
                    }
                }
            ]
        },
        {
            "name": "RNAVZ15",
            "fixes": {
                "TUDAR": "TUDAR AT OR ABOVE 3000",
                "ITLOL": "ITLOL 2100",
                "XOSPA": "XOSPA AT OR ABOVE 1400 RNW 15",
                "DAVOK": "OVERFLY DAVOK 4000 HOLD AT DAVOK RIGHT TURN INBOUNDCOURSE 148 LEGTIME 1 FAF ITLOL MAP RNW 15"
            },
            "transitions": [
                {
                    "name": "OLEXI",
                    "fixes": {
                        "OLEXI": "OLEXI AT OR ABOVE 3000 SPEED 210"
                    }
                },
                {
                    "name": "URLOS",
                    "fixes": {
                        "URLOS": "URLOS AT OR ABOVE 3000 SPEED 210"
                    }
                }
            ]
        },
        {
            "name": "RNAV27",
            "fixes": {
                "GOTOL": "GOTOL AT OR ABOVE 3000",
                "OTNUP": "OTNUP 2000 RNW 27",
                "VIMSA": "OVERFLY VIMSA 4000 HOLD AT VIMSA RIGHT TURN INBOUNDCOURSE 268 LEGTIME 1 FAF OTNUP MAP RNW 27"
            },
            "transitions": [
                {
                    "name": "GOPEX",
                    "fixes": {
                        "GOPEX": "GOPEX AT OR ABOVE 3000 SPEED 210"
                    }
                },
                {
                    "name": "ONDUL",
                    "fixes": {
                        "ONDUL": "ONDUL AT OR ABOVE 3000 SPEED 210"
                    }
                }
            ]
        },
        {
            "name": "RNAVY33",
            "fixes": {
                "NORAP": "NORAP 2000 RNW 33",
                "TUDAR": "OVERFLY TUDAR 4000 HOLD AT TUDAR RIGHT TURN INBOUNDCOURSE 327 LEGTIME 1 FAF NORAP MAP RNW 33"
            },
            "transitions": [
                {
                    "name": "BIVTO",
                    "fixes": {
                        "BIVTO": "BIVTO 5000 SPEED 210",
                        "XOPGA": "XOPGA AT OR ABOVE 4200",
                        "RF001": "RF001",
                        "RF002": "RF002",
                        "NAGEB": "NAGEB AT OR ABOVE 3100"
                    }
                },
                {
                    "name": "DAVOK",
                    "fixes": {
                        "DAVOK": "DAVOK AT OR ABOVE 3000"
                    }
                },
                {
                    "name": "IRDEN",
                    "fixes": {
                        "IRDEN": "IRDEN AT OR ABOVE 4000 SPEED 210",
                        "NAGEB": "NAGEB AT OR ABOVE 3100"
                    }
                },
                {
                    "name": "TADOM",
                    "fixes": {
                        "TADOM": "TADOM AT OR ABOVE 4000 SPEED 210",
                        "XUBET": "XUBET AT OR ABOVE 2900"
                    }
                }
            ]
        },
        {
            "name": "RNAVZ33",
            "fixes": {
                "DAVOK": "DAVOK AT OR ABOVE 3000",
                "NORAP": "NORAP 2000",
                "XOXAS": "XOXAS AT OR ABOVE 1450 RNW 33",
                "TUDAR": "OVERFLY TUDAR 4000 HOLD AT TUDAR RIGHT TURN INBOUNDCOURSE 327 LEGTIME 1 FAF NORAP MAP RNW 33"
            },
            "transitions": [
                {
                    "name": "KERPO",
                    "fixes": {
                        "KERPO": "KERPO AT OR ABOVE 3000 SPEED 210"
                    }
                },
                {
                    "name": "LOMSU",
                    "fixes": {
                        "LOMSU": "LOMSU AT OR ABOVE 3000 SPEED 210"
                    }
                }
            ]
        }
    ]
}