{
    "fixes": [
        {
            "name": "KAPUD",
            "lat": 50.331305566666664,
            "lon": 89.01661111666667
        },
        {
            "name": "MUTOG",
            "lat": 50.32923888333333,
            "lon": 89.01071388333334
        },
        {
            "name": "OMOPI",
            "lat": 50.27205,
            "lon": 88.84796111666667
        },
        {
            "name": "PIKMU",
            "lat": 50.37711111666667,
            "lon": 89.14775278333333
        },
        {
            "name": "REROL",
            "lat": 50.25869721666667,
            "lon": 88.81011111666666
        },
        {
            "name": "ROPRA",
            "lat": 50.45019443333333,
            "lon": 89.08538056666667
        },
        {
            "name": "SEDOB",
            "lat": 50.30399166666667,
            "lon": 89.20993611666667
        },
        {
            "name": "TAGAX",
            "lat": 50.21042778333333,
            "lon": 88.67375278333333
        },
        {
            "name": "TETIB",
            "lat": 50.13756111666667,
            "lon": 88.73644166666666
        },
        {
            "name": "UKOKI",
            "lat": 50.256469433333336,
            "lon": 88.80380278333334
        },
        {
            "name": "VIPVO",
            "lat": 50.283261116666665,
            "lon": 88.61087221666666
        },
        {
            "name": "XORDI",
            "lat": 50.31338888333333,
            "lon": 88.96550278333333
        }
    ],
    "rnws": [
        "RNW 12",
        "RNW 30"
    ],
    "sids": [],
    "stars": [],
    "approaches": [
        {
            "name": "RNAV12",
            "fixes": {
                "PIKMU": "PIKMU AT OR ABOVE 2700",
                "MUTOG": "MUTOG 2400",
                "XORDI": "XORDI AT OR ABOVE 1770 RNW 12",
                "UKOKI": "OVERFLY UKOKI 2700 HOLD AT UKOKI RIGHT TURN INBOUNDCOURSE 123 LEGTIME 1 FAF MUTOG MAP RNW 12"
            },
            "transitions": [
                {
                    "name": "ROPRA",
                    "fixes": {
                        "ROPRA": "ROPRA SPEED 210"
                    }
                },
                {
                    "name": "SEDOB",
                    "fixes": {
                        "SEDOB": "SEDOB SPEED 210"
                    }
                }
            ]
        },
        {
            "name": "RNAV30",
            "fixes": {
                "TAGAX": "TAGAX AT OR ABOVE 2400",
                "REROL": "REROL 2400",
                "OMOPI": "OMOPI AT OR ABOVE 1870 RNW 30",
                "KAPUD": "OVERFLY KAPUD 2700 HOLD AT KAPUD RIGHT TURN INBOUNDCOURSE 303 LEGTIME 1 FAF REROL MAP RNW 30"
            },
            "transitions": [
                {
                    "name": "TETIB",
                    "fixes": {
                        "TETIB": "TETIB SPEED 210"
                    }
                },
                {
                    "name": "VIPVO",
                    "fixes": {
                        "VIPVO": "VIPVO SPEED 210"
                    }
                }
            ]
        }
    ]
}