{
    "fixes": [
        {
            "name": "AF001",
            "lat": 53.14375613333333,
            "lon": 131.34018336666668
        },
        {
            "name": "AF002",
            "lat": 53.29808346666667,
            "lon": 131.31133671666666
        },
        {
            "name": "AF003",
            "lat": 53.44033806666667,
            "lon": 131.41571928333335
        },
        {
            "name": "AF004",
            "lat": 53.53211853333333,
            "lon": 131.62624491666668
        },
        {
            "name": "AF005",
            "lat": 53.548461116666665,
            "lon": 131.886113
        },
        {
            "name": "AF006",
            "lat": 53.547280683333334,
            "lon": 131.89769356666667
        },
        {
            "name": "AF007",
            "lat": 53.5246213,
            "lon": 132.01773228333334
        },
        {
            "name": "AF008",
            "lat": 53.45363531666667,
            "lon": 131.43469443333333
        },
        {
            "name": "AF009",
            "lat": 53.5108409,
            "lon": 131.55234741666666
        },
        {
            "name": "AF010",
            "lat": 53.544437916666666,
            "lon": 131.69355188333333
        },
        {
            "name": "AF011",
            "lat": 53.551316916666664,
            "lon": 131.84527928333333
        },
        {
            "name": "AF012",
            "lat": 53.53084031666667,
            "lon": 131.99346988333335
        },
        {
            "name": "ALSAX",
            "lat": 53.1602,
            "lon": 131.53105278333334
        },
        {
            "name": "BIMVI",
            "lat": 53.04413056666667,
            "lon": 131.56324443333332
        },
        {
            "name": "BIPSU",
            "lat": 53.063325,
            "lon": 131.75592778333333
        },
        {
            "name": "DERMU",
            "lat": 53.39703333333333,
            "lon": 131.98583888333334
        },
        {
            "name": "DUGRU",
            "lat": 53.32747221666666,
            "lon": 131.91648888333333
        },
        {
            "name": "EBGAM",
            "lat": 53.167461116666665,
            "lon": 131.719025
        },
        {
            "name": "EBKIM",
            "lat": 53.410016666666664,
            "lon": 132.00155556666667
        },
        {
            "name": "IKDIL",
            "lat": 53.17944166666667,
            "lon": 131.72424166666667
        },
        {
            "name": "IKPAL",
            "lat": 53.01744721666667,
            "lon": 131.49770278333332
        },
        {
            "name": "KESKI",
            "lat": 53.12475833333333,
            "lon": 131.659025
        },
        {
            "name": "LENAT",
            "lat": 53.401913883333336,
            "lon": 132.01062221666666
        },
        {
            "name": "MA31",
            "lat": 53.24956111666667,
            "lon": 131.80435833333334
        },
        {
            "name": "MEKPO",
            "lat": 53.484763883333336,
            "lon": 132.12270278333332
        },
        {
            "name": "MOGAB",
            "lat": 53.11181388333333,
            "lon": 131.64361666666667
        },
        {
            "name": "OTMUR",
            "lat": 53.27100278333333,
            "lon": 131.83439166666668
        },
        {
            "name": "OTPIL",
            "lat": 53.2937,
            "lon": 131.86118611666666
        },
        {
            "name": "PI001",
            "lat": 53.37147976666667,
            "lon": 131.98063328333333
        },
        {
            "name": "PI002",
            "lat": 53.442971566666664,
            "lon": 131.97224001666666
        },
        {
            "name": "PI003",
            "lat": 53.453116533333336,
            "lon": 132.10011073333334
        },
        {
            "name": "PI004",
            "lat": 53.11798051666667,
            "lon": 131.6675196
        },
        {
            "name": "PI005",
            "lat": 53.10180233333333,
            "lon": 131.55121303333334
        },
        {
            "name": "PI006",
            "lat": 53.02602923333333,
            "lon": 131.57218065
        },
        {
            "name": "PI007",
            "lat": 53.39540101666667,
            "lon": 132.00234245
        },
        {
            "name": "PI008",
            "lat": 53.46667443333333,
            "lon": 131.98975833333333
        },
        {
            "name": "PI009",
            "lat": 53.47947816666667,
            "lon": 132.11702525
        },
        {
            "name": "SETMU",
            "lat": 53.329086116666666,
            "lon": 131.90378888333333
        },
        {
            "name": "SIBDI",
            "lat": 53.35008333333333,
            "lon": 131.94077778333335
        },
        {
            "name": "TAGMA",
            "lat": 53.209822216666666,
            "lon": 131.76300556666666
        },
        {
            "name": "TIDOM",
            "lat": 53.458736116666664,
            "lon": 131.88861111666668
        },
        {
            "name": "UDNIN",
            "lat": 53.55097778333333,
            "lon": 131.77204166666667
        },
        {
            "name": "ULURU",
            "lat": 53.026133333333334,
            "lon": 131.57304443333334
        },
        {
            "name": "URVIG",
            "lat": 53.36119166666667,
            "lon": 132.11424166666666
        },
        {
            "name": "VIGPU",
            "lat": 53.37790833333333,
            "lon": 131.35313611666666
        },
        {
            "name": "XUDES",
            "lat": 53.45875556666667,
            "lon": 131.52632778333333
        },
        {
            "name": "YZP",
            "lat": 53.25218056666667,
            "lon": 131.807125
        }
    ],
    "rnws": [
        "RNW 13",
        "RNW 31"
    ],
    "sids": [],
    "stars": [],
    "approaches": [
        {
            "name": "VORD13",
            "fixes": {
                "DUGRU": "DUGRU 1760",
                "OTMUR": "OTMUR 333 RNW 13 TRK 120 UNTIL 3200 TURN LEFT DIRECT",
                "YZP": "YZP 3800 HOLD AT YZP RIGHT TURN INBOUNDCOURSE 300 LEGTIME 1 FAF DUGRU MAP OTMUR"
            },
            "transitions": [
                {
                    "name": "YZP",
                    "fixes": {
                        "YZP": "YZP",
                        "DUGRU": "DUGRU AT OR ABOVE 3400",
                        "PI001": "PI001 AT OR ABOVE 3400 SPEED 210",
                        "PI002": "OVERFLY PI002 AT OR ABOVE 3400 SPEED 210",
                        "PI003": "PI003 AT OR ABOVE 3400 SPEED 210"
                    }
                }
            ]
        },
        {
            "name": "VORD31",
            "fixes": {
                "ULURU": "ULURU AT OR ABOVE 2500",
                "EBGAM": "EBGAM 2000",
                "TAGMA": "TAGMA AT OR ABOVE 1010",
                "MA31": "MA31 75 RNW 31 TRK 309 UNTIL 1900 TURN RIGHT DIRECT",
                "YZP": "YZP 3600 HOLD AT YZP LEFT TURN INBOUNDCOURSE 129 LEGTIME 1 FAF EBGAM MAP MA31"
            },
            "transitions": [
                {
                    "name": "XUDES",
                    "fixes": {
                        "XUDES": "XUDES"
                    }
                },
                {
                    "name": "YZP",
                    "fixes": {
                        "YZP": "YZP",
                        "EBGAM": "EBGAM AT OR ABOVE 2500",
                        "PI004": "PI004 AT OR ABOVE 2500 SPEED 210",
                        "PI005": "OVERFLY PI005 AT OR ABOVE 2500 SPEED 210",
                        "PI006": "PI006 AT OR ABOVE 2500 SPEED 210"
                    }
                }
            ]
        },
        {
            "name": "ILS13",
            "fixes": {
                "LENAT": "LENAT AT OR ABOVE 2800",
                "SIBDI": "SIBDI 2320 RNW 13 HDG 122 UNTIL 3700",
                "IKPAL": "IKPAL 3700 HOLD AT IKPAL LEFT TURN INBOUNDCOURSE 122 ALT 3700 SPEED 230 LEGTIME 1 FAF SIBDI MAP RNW 13"
            },
            "transitions": [
                {
                    "name": "IKPAL",
                    "fixes": {
                        "IKPAL": "IKPAL",
                        "AF001": "AF001",
                        "AF002": "AF002",
                        "AF003": "AF003",
                        "AF004": "AF004",
                        "AF005": "AF005",
                        "MEKPO": "MEKPO AT OR ABOVE 2800"
                    }
                },
                {
                    "name": "UDNIN",
                    "fixes": {
                        "UDNIN": "UDNIN",
                        "AF006": "AF006",
                        "AF007": "AF007",
                        "MEKPO": "MEKPO AT OR ABOVE 2800"
                    }
                },
                {
                    "name": "VIGPU",
                    "fixes": {
                        "VIGPU": "VIGPU",
                        "AF008": "AF008",
                        "AF009": "AF009",
                        "AF010": "AF010",
                        "AF011": "AF011",
                        "AF012": "AF012",
                        "MEKPO": "MEKPO AT OR ABOVE 2800"
                    }
                },
                {
                    "name": "YZP",
                    "fixes": {
                        "YZP": "YZP",
                        "SIBDI": "SIBDI AT OR ABOVE 2800",
                        "PI007": "PI007 AT OR ABOVE 2800 SPEED 210",
                        "PI008": "OVERFLY PI008 AT OR ABOVE 2800 SPEED 210",
                        "PI009": "PI009 AT OR ABOVE 2800 SPEED 210"
                    }
                }
            ]
        },
        {
            "name": "RNAV13",
            "fixes": {
                "EBKIM": "EBKIM AT OR ABOVE 2600",
                "SETMU": "SETMU 1700",
                "OTPIL": "OTPIL AT OR ABOVE 870 RNW 13",
                "KESKI": "OVERFLY KESKI 5000 HOLD AT KESKI LEFT TURN INBOUNDCOURSE 125 LEGTIME 1 FAF SETMU MAP RNW 13"
            },
            "transitions": [
                {
                    "name": "TIDOM",
                    "fixes": {
                        "TIDOM": "TIDOM SPEED 210"
                    }
                },
                {
                    "name": "URVIG",
                    "fixes": {
                        "URVIG": "URVIG SPEED 210"
                    }
                }
            ]
        },
        {
            "name": "RNAV31",
            "fixes": {
                "MOGAB": "MOGAB AT OR ABOVE 2600",
                "IKDIL": "IKDIL 1700 RNW 31",
                "DERMU": "OVERFLY DERMU 5000 HOLD AT DERMU RIGHT TURN INBOUNDCOURSE 305 LEGTIME 1 FAF IKDIL MAP RNW 31"
            },
            "transitions": [
                {
                    "name": "ALSAX",
                    "fixes": {
                        "ALSAX": "ALSAX SPEED 210"
                    }
                },
                {
                    "name": "BIMVI",
                    "fixes": {
                        "BIMVI": "BIMVI"
                    }
                },
                {
                    "name": "BIPSU",
                    "fixes": {
                        "BIPSU": "BIPSU SPEED 210"
                    }
                }
            ]
        }
    ]
}