{
    "fixes": [
        {
            "name": "AGMAB",
            "lat": 64.26229721666667,
            "lon": 83.43408611666666
        },
        {
            "name": "AGMIP",
            "lat": 64.35313888333333,
            "lon": 83.53320278333334
        },
        {
            "name": "ALVOK",
            "lat": 64.1244,
            "lon": 83.28500556666667
        },
        {
            "name": "EBGEB",
            "lat": 64.06726388333334,
            "lon": 83.01437778333333
        },
        {
            "name": "GOPIS",
            "lat": 64.03215833333333,
            "lon": 83.1862
        },
        {
            "name": "GOXOR",
            "lat": 64.26305556666667,
            "lon": 83.43491388333334
        },
        {
            "name": "IKMEN",
            "lat": 64.38865,
            "lon": 83.359825
        },
        {
            "name": "KAXIP",
            "lat": 63.99685278333333,
            "lon": 83.35758611666667
        },
        {
            "name": "MAXUD",
            "lat": 64.31742221666667,
            "lon": 83.70613611666667
        },
        {
            "name": "MAXUX",
            "lat": 64.12241111666667,
            "lon": 83.28286666666666
        },
        {
            "name": "PI001",
            "lat": 64.1924983,
            "lon": 83.39265676666666
        },
        {
            "name": "PI002",
            "lat": 64.2639532,
            "lon": 83.3799947
        },
        {
            "name": "PI003",
            "lat": 64.26153125,
            "lon": 83.53136101666666
        },
        {
            "name": "XETIM",
            "lat": 64.22660278333333,
            "lon": 83.39533888333334
        },
        {
            "name": "XUDBU",
            "lat": 64.01685,
            "lon": 83.1428
        },
        {
            "name": "YZSNB",
            "lat": 64.1485,
            "lon": 83.30475
        }
    ],
    "rnws": [
        "RNW 16",
        "RNW 34"
    ],
    "sids": [],
    "stars": [],
    "approaches": [
        {
            "name": "NDB34",
            "fixes": {
                "XUDBU": "XUDBU AT OR ABOVE 1400",
                "YZSNB": "YZSNB 1070 RNW 34 TRK 035 UNTIL 2900 TURN LEFT DIRECT YZSNB 2900 HOLD AT YZSNB LEFT TURN INBOUNDCOURSE 035 SPEED 230 LEGTIME 1 FAF YZSNB MAP RNW 34"
            },
            "transitions": [
                {
                    "name": "YZS",
                    "fixes": {
                        "PI001": "PI001 AT OR ABOVE 1400 SPEED 210",
                        "PI002": "OVERFLY PI002 AT OR ABOVE 1400 SPEED 210",
                        "PI003": "PI003 AT OR ABOVE 1400 SPEED 210"
                    }
                }
            ]
        },
        {
            "name": "RNAV16",
            "fixes": {
                "AGMIP": "AGMIP AT OR ABOVE 2000",
                "GOXOR": "GOXOR 1600",
                "XETIM": "XETIM AT OR ABOVE 830 RNW 16",
                "ALVOK": "OVERFLY ALVOK 2000 HOLD AT ALVOK RIGHT TURN INBOUNDCOURSE 017 SPEED 230 LEGTIME 1 FAF GOXOR MAP RNW 16"
            },
            "transitions": [
                {
                    "name": "IKMEN",
                    "fixes": {
                        "IKMEN": "IKMEN SPEED 210"
                    }
                },
                {
                    "name": "MAXUD",
                    "fixes": {
                        "MAXUD": "MAXUD SPEED 210"
                    }
                }
            ]
        },
        {
            "name": "RNAV34",
            "fixes": {
                "GOPIS": "GOPIS AT OR ABOVE 1600",
                "MAXUX": "MAXUX 1600 RNW 34",
                "AGMAB": "OVERFLY AGMAB 1900 HOLD AT AGMAB RIGHT TURN INBOUNDCOURSE 035 SPEED 230 LEGTIME 1 FAF MAXUX MAP RNW 34"
            },
            "transitions": [
                {
                    "name": "EBGEB",
                    "fixes": {
                        "EBGEB": "EBGEB SPEED 210"
                    }
                },
                {
                    "name": "KAXIP",
                    "fixes": {
                        "KAXIP": "KAXIP SPEED 210"
                    }
                }
            ]
        }
    ]
}