{
    "fixes": [
        {
            "name": "COURT",
            "lat": 54.09405,
            "lon": 115.65164166666666
        },
        {
            "name": "DUPIB",
            "lat": 54.189777783333334,
            "lon": 115.89506943333333
        },
        {
            "name": "EBGEK",
            "lat": 54.073261116666664,
            "lon": 115.62123611666667
        },
        {
            "name": "EBKUX",
            "lat": 54.18793333333333,
            "lon": 115.89070556666667
        },
        {
            "name": "ELVOX",
            "lat": 54.315641666666664,
            "lon": 115.95027221666666
        },
        {
            "name": "ERDAK",
            "lat": 53.97185833333333,
            "lon": 115.62467778333334
        },
        {
            "name": "ETBIX",
            "lat": 54.13706943333333,
            "lon": 115.77293056666667
        },
        {
            "name": "FF11",
            "lat": 54.224725,
            "lon": 115.91880556666666
        },
        {
            "name": "ITMON",
            "lat": 54.03910833333333,
            "lon": 115.54153333333333
        },
        {
            "name": "KAVBU",
            "lat": 54.02888888333333,
            "lon": 115.26720556666666
        },
        {
            "name": "MIXOB",
            "lat": 54.09785,
            "lon": 115.67877221666667
        },
        {
            "name": "NOXES",
            "lat": 54.18052778333333,
            "lon": 116.11606943333334
        },
        {
            "name": "OBSES",
            "lat": 54.1063,
            "lon": 115.45812221666667
        },
        {
            "name": "OMSAD",
            "lat": 54.11771388333333,
            "lon": 115.72535
        },
        {
            "name": "PI001",
            "lat": 54.07863833333333,
            "lon": 115.61773501666667
        },
        {
            "name": "PI002",
            "lat": 54.09225333333333,
            "lon": 115.4977825
        },
        {
            "name": "PI003",
            "lat": 54.01785765,
            "lon": 115.46499161666667
        },
        {
            "name": "PI004",
            "lat": 54.19097,
            "lon": 115.85994913333333
        },
        {
            "name": "PI005",
            "lat": 54.19839975,
            "lon": 115.98178931666666
        },
        {
            "name": "PI006",
            "lat": 54.27504376666667,
            "lon": 115.9768385
        },
        {
            "name": "RODPO",
            "lat": 53.91622778333333,
            "lon": 115.72868611666667
        },
        {
            "name": "UDMOD",
            "lat": 54.24811388333333,
            "lon": 116.03330556666667
        },
        {
            "name": "XIKUN",
            "lat": 54.11128611666667,
            "lon": 115.70016666666666
        },
        {
            "name": "XOTGI",
            "lat": 54.025025,
            "lon": 115.45826666666666
        },
        {
            "name": "YZU",
            "lat": 54.14565278333333,
            "lon": 115.79720556666666
        }
    ],
    "rnws": [
        "RNW 11",
        "RNW 29"
    ],
    "sids": [],
    "stars": [],
    "approaches": [
        {
            "name": "VORD29",
            "fixes": {
                "XOTGI": "XOTGI AT OR ABOVE 5000",
                "COURT": "COURT 4250",
                "XIKUN": "XIKUN AT OR ABOVE 3610",
                "ETBIX": "ETBIX 2658 RNW 29 TRK 288 UNTIL 4000 TURN RIGHT DIRECT",
                "YZU": "YZU 5200 HOLD AT YZU RIGHT TURN INBOUNDCOURSE 288 LEGTIME 1 FAF COURT MAP ETBIX"
            },
            "transitions": [
                {
                    "name": "KAVBU",
                    "fixes": {
                        "KAVBU": "KAVBU"
                    }
                },
                {
                    "name": "RODPO",
                    "fixes": {
                        "RODPO": "RODPO"
                    }
                },
                {
                    "name": "YZU",
                    "fixes": {
                        "YZU": "YZU",
                        "XIKUN": "XIKUN AT OR ABOVE 5000",
                        "PI001": "PI001 AT OR ABOVE 5000 SPEED 210",
                        "PI002": "OVERFLY PI002 AT OR ABOVE 5000 SPEED 210",
                        "PI003": "PI003 AT OR ABOVE 5000 SPEED 210"
                    }
                }
            ]
        },
        {
            "name": "RNAV11",
            "fixes": {
                "UDMOD": "UDMOD AT OR ABOVE 4400",
                "DUPIB": "DUPIB 4000 RNW 11",
                "EBGEK": "OVERFLY EBGEK 5200 HOLD AT EBGEK LEFT TURN INBOUNDCOURSE 110 SPEED 250 LEGTIME 1 FAF DUPIB MAP RNW 11"
            },
            "transitions": [
                {
                    "name": "ELVOX",
                    "fixes": {
                        "ELVOX": "ELVOX SPEED 210"
                    }
                },
                {
                    "name": "NOXES",
                    "fixes": {
                        "NOXES": "NOXES SPEED 210"
                    }
                }
            ]
        },
        {
            "name": "RNAV29",
            "fixes": {
                "ITMON": "ITMON AT OR ABOVE 4500",
                "MIXOB": "MIXOB 4000",
                "OMSAD": "OMSAD AT OR ABOVE 3330 RNW 29",
                "EBKUX": "OVERFLY EBKUX 5200 HOLD AT EBKUX RIGHT TURN INBOUNDCOURSE 290 SPEED 250 LEGTIME 1 FAF MIXOB MAP RNW 29"
            },
            "transitions": [
                {
                    "name": "ERDAK",
                    "fixes": {
                        "ERDAK": "ERDAK SPEED 210"
                    }
                },
                {
                    "name": "OBSES",
                    "fixes": {
                        "OBSES": "OBSES SPEED 210"
                    }
                }
            ]
        },
        {
            "name": "VOR11",
            "fixes": {
                "FF11": "FF11 4600 RNW 11",
                "YZU": "OVERFLY YZU TRK 111 UNTIL 5200 TURN LEFT DIRECT YZU 5200 HOLD AT YZU RIGHT TURN INBOUNDCOURSE 125 LEGTIME 1 FAF FF11 MAP RNW 11"
            },
            "transitions": [
                {
                    "name": "YZU",
                    "fixes": {
                        "PI004": "PI004 AT OR ABOVE 4600 SPEED 210",
                        "PI005": "OVERFLY PI005 AT OR ABOVE 4600 SPEED 210",
                        "PI006": "PI006 AT OR ABOVE 4600 SPEED 210"
                    }
                }
            ]
        }
    ]
}