{
    "fixes": [
        {
            "name": "AGDAR",
            "lat": 52.23721388333333,
            "lon": 81.77341111666667
        },
        {
            "name": "AGDOB",
            "lat": 52.38845833333333,
            "lon": 81.45238333333333
        },
        {
            "name": "BEVAX",
            "lat": 52.17610833333333,
            "lon": 81.90197778333334
        },
        {
            "name": "BIMTU",
            "lat": 52.327702783333336,
            "lon": 81.58182778333334
        },
        {
            "name": "DUPER",
            "lat": 52.45451943333333,
            "lon": 81.53515833333333
        },
        {
            "name": "EPMUD",
            "lat": 52.241855566666665,
            "lon": 81.98502221666666
        },
        {
            "name": "IKBEG",
            "lat": 52.32233888333333,
            "lon": 81.36985556666667
        },
        {
            "name": "LEPEV",
            "lat": 52.11030278333333,
            "lon": 81.819175
        },
        {
            "name": "UDKIX",
            "lat": 52.23489166666667,
            "lon": 81.77830833333333
        },
        {
            "name": "UKNON",
            "lat": 52.32992221666667,
            "lon": 81.57711388333334
        }
    ],
    "rnws": [
        "RNW 06",
        "RNW 24"
    ],
    "sids": [],
    "stars": [],
    "approaches": [
        {
            "name": "RNAV06",
            "fixes": {
                "BEVAX": "BEVAX AT OR ABOVE 1400",
                "AGDAR": "AGDAR 1400 RNW 06",
                "UKNON": "OVERFLY UKNON 1300 HOLD AT UKNON RIGHT TURN INBOUNDCOURSE 064 LEGTIME 1 FAF AGDAR MAP RNW 06"
            },
            "transitions": [
                {
                    "name": "EPMUD",
                    "fixes": {
                        "EPMUD": "EPMUD SPEED 210"
                    }
                },
                {
                    "name": "LEPEV",
                    "fixes": {
                        "LEPEV": "LEPEV SPEED 210"
                    }
                }
            ]
        },
        {
            "name": "RNAV24",
            "fixes": {
                "AGDOB": "AGDOB AT OR ABOVE 1400",
                "BIMTU": "BIMTU 1400 RNW 24",
                "UDKIX": "OVERFLY UDKIX 1300 HOLD AT UDKIX RIGHT TURN INBOUNDCOURSE 244 LEGTIME 1 FAF BIMTU MAP RNW 24"
            },
            "transitions": [
                {
                    "name": "DUPER",
                    "fixes": {
                        "DUPER": "DUPER SPEED 210"
                    }
                },
                {
                    "name": "IKBEG",
                    "fixes": {
                        "IKBEG": "IKBEG SPEED 210"
                    }
                }
            ]
        }
    ]
}