{
    "fixes": [
        {
            "name": "MUXUT",
            "lat": 58.28907778333333,
            "lon": 103.05078056666666
        },
        {
            "name": "NUGOV",
            "lat": 57.94421388333333,
            "lon": 102.98234166666667
        },
        {
            "name": "ODGIG",
            "lat": 58.28025556666667,
            "lon": 103.20773888333333
        },
        {
            "name": "PUXED",
            "lat": 57.92655,
            "lon": 103.29320278333333
        },
        {
            "name": "SATED",
            "lat": 58.18106388333333,
            "lon": 103.18748056666666
        },
        {
            "name": "SUVEX",
            "lat": 58.034677783333336,
            "lon": 103.15779166666667
        },
        {
            "name": "TABUB",
            "lat": 58.02945833333333,
            "lon": 103.15673611666666
        },
        {
            "name": "ULURA",
            "lat": 58.27124166666667,
            "lon": 103.36462221666666
        },
        {
            "name": "URPON",
            "lat": 57.935475,
            "lon": 103.13781111666667
        },
        {
            "name": "XOSGA",
            "lat": 58.184466666666665,
            "lon": 103.188175
        }
    ],
    "rnws": [
        "RNW 17",
        "RNW 35"
    ],
    "sids": [],
    "stars": [],
    "approaches": [
        {
            "name": "RNAV17",
            "fixes": {
                "ODGIG": "ODGIG AT OR ABOVE 2700",
                "SATED": "SATED 2700 RNW 17",
                "TABUB": "OVERFLY TABUB 3100 HOLD AT TABUB RIGHT TURN INBOUNDCOURSE 166 SPEED 250 LEGTIME 1 FAF SATED MAP RNW 17"
            },
            "transitions": [
                {
                    "name": "MUXUT",
                    "fixes": {
                        "MUXUT": "MUXUT SPEED 210"
                    }
                },
                {
                    "name": "ULURA",
                    "fixes": {
                        "ULURA": "ULURA SPEED 210"
                    }
                }
            ]
        },
        {
            "name": "RNAV35",
            "fixes": {
                "URPON": "URPON AT OR ABOVE 2800",
                "SUVEX": "SUVEX 2700 RNW 35",
                "XOSGA": "OVERFLY XOSGA 3100 HOLD AT XOSGA RIGHT TURN INBOUNDCOURSE 346 LEGTIME 1 FAF SUVEX MAP RNW 35"
            },
            "transitions": [
                {
                    "name": "NUGOV",
                    "fixes": {
                        "NUGOV": "NUGOV SPEED 210"
                    }
                },
                {
                    "name": "PUXED",
                    "fixes": {
                        "PUXED": "PUXED SPEED 210"
                    }
                }
            ]
        }
    ]
}