{
    "fixes": [
        {
            "name": "ABLIX",
            "lat": 50.447777783333336,
            "lon": 4.172916666666667
        },
        {
            "name": "ARVOL",
            "lat": 50.545833333333334,
            "lon": 3.4969444333333333
        },
        {
            "name": "ASPIX",
            "lat": 50.48536111666667,
            "lon": 5.4165833333333335
        },
        {
            "name": "BATTY",
            "lat": 50.649166666666666,
            "lon": 5.848777783333333
        },
        {
            "name": "BIBOS",
            "lat": 50.47719443333333,
            "lon": 4.273583333333334
        },
        {
            "name": "BUB",
            "lat": 50.90233333333333,
            "lon": 4.538083333333333
        },
        {
            "name": "BULUX",
            "lat": 50.59277778333333,
            "lon": 5.251277783333333
        },
        {
            "name": "CI001",
            "lat": 50.39576666666667,
            "lon": 4.229680566666667
        },
        {
            "name": "CI002",
            "lat": 50.48054166666667,
            "lon": 4.1695416666666665
        },
        {
            "name": "CI003",
            "lat": 50.63961943333334,
            "lon": 4.307641666666667
        },
        {
            "name": "CI004",
            "lat": 50.722602783333336,
            "lon": 4.593861116666667
        },
        {
            "name": "CI005",
            "lat": 50.745388883333334,
            "lon": 4.6730583333333335
        },
        {
            "name": "CI006",
            "lat": 50.323552783333334,
            "lon": 4.324663883333334
        },
        {
            "name": "CI007",
            "lat": 50.457152783333335,
            "lon": 5.220647216666666
        },
        {
            "name": "CI009",
            "lat": 50.403905566666666,
            "lon": 4.257925
        },
        {
            "name": "CI011",
            "lat": 50.661872216666666,
            "lon": 4.900380566666667
        },
        {
            "name": "CI06F",
            "lat": 50.416527783333336,
            "lon": 4.304111116666666
        },
        {
            "name": "CI06T",
            "lat": 50.50422221666667,
            "lon": 4.606138883333333
        },
        {
            "name": "CI101",
            "lat": 50.672255566666664,
            "lon": 4.884011116666667
        },
        {
            "name": "CI102",
            "lat": 50.703969433333334,
            "lon": 4.948972216666666
        },
        {
            "name": "CI103",
            "lat": 50.667197216666665,
            "lon": 4.8736999999999995
        },
        {
            "name": "CI105",
            "lat": 50.525280566666666,
            "lon": 4.585247216666667
        },
        {
            "name": "CI24",
            "lat": 50.52825833333333,
            "lon": 4.689313883333333
        },
        {
            "name": "CI24F",
            "lat": 50.51561111666667,
            "lon": 4.645833333333333
        },
        {
            "name": "CI24T",
            "lat": 50.41466666666667,
            "lon": 4.2975555666666665
        },
        {
            "name": "CIV",
            "lat": 50.57388888333333,
            "lon": 3.8327777833333334
        },
        {
            "name": "D064L",
            "lat": 50.53510833333333,
            "lon": 4.7131194333333335
        },
        {
            "name": "D064Y",
            "lat": 50.62826943333334,
            "lon": 5.034472216666667
        },
        {
            "name": "FD06",
            "lat": 50.428916666666666,
            "lon": 4.295333333333334
        },
        {
            "name": "FD24",
            "lat": 50.522388883333335,
            "lon": 4.644416666666666
        },
        {
            "name": "FI24",
            "lat": 50.51591666666667,
            "lon": 4.646527783333333
        },
        {
            "name": "FLO",
            "lat": 50.876666666666665,
            "lon": 5.134527783333334
        },
        {
            "name": "GSY",
            "lat": 50.453916666666665,
            "lon": 4.4413888833333335
        },
        {
            "name": "GUGNO",
            "lat": 50.47238888333333,
            "lon": 4.811722216666666
        },
        {
            "name": "KERKY",
            "lat": 50.92694443333333,
            "lon": 3.9926111166666667
        },
        {
            "name": "KOK",
            "lat": 51.09472221666667,
            "lon": 2.651666666666667
        },
        {
            "name": "LNO",
            "lat": 50.58583333333333,
            "lon": 5.710277783333334
        },
        {
            "name": "LOLGI",
            "lat": 50.66277778333333,
            "lon": 5.153611116666666
        },
        {
            "name": "MD06",
            "lat": 50.450466666666664,
            "lon": 4.421236116666667
        },
        {
            "name": "MD24",
            "lat": 50.469538883333335,
            "lon": 4.4874527833333335
        },
        {
            "name": "MEDIL",
            "lat": 50.342138883333334,
            "lon": 3.6749722166666667
        },
        {
            "name": "NIK",
            "lat": 51.165,
            "lon": 4.183888883333333
        },
        {
            "name": "NIVOR",
            "lat": 50.69388888333334,
            "lon": 4.290972216666667
        },
        {
            "name": "OSVAM",
            "lat": 50.437972216666665,
            "lon": 4.692972216666667
        },
        {
            "name": "REKPI",
            "lat": 50.390222216666665,
            "lon": 4.214027783333333
        },
        {
            "name": "RITAX",
            "lat": 50.07777778333333,
            "lon": 5.806944433333333
        },
        {
            "name": "SOPOK",
            "lat": 50.252777783333336,
            "lon": 5.773888883333333
        },
        {
            "name": "SPI",
            "lat": 50.51472221666667,
            "lon": 5.623611116666667
        },
        {
            "name": "VAMKA",
            "lat": 50.54777778333333,
            "lon": 4.757888883333333
        }
    ],
    "rnws": [
        "RNW 06",
        "RNW 24"
    ],
    "sids": [
        {
            "name": "CIV4Y",
            "rnw": "24",
            "fixes": {
                "CI009": "CI009",
                "CIV": "CIV"
            },
            "sub_fixes": [],
            "transitions": []
        },
        {
            "name": "CIV5X",
            "rnw": "06",
            "fixes": {
                "CI105": "OVERFLY CI105 TURN LEFT DIRECT",
                "CIV": "CIV"
            },
            "sub_fixes": [],
            "transitions": []
        },
        {
            "name": "LNO4U",
            "rnw": "24",
            "fixes": {
                "CI001": "CI001 SPEED 220 TURN LEFT DIRECT",
                "CI006": "CI006 AT OR ABOVE 6500 SPEED 220",
                "ASPIX": "ASPIX",
                "LNO": "LNO"
            },
            "sub_fixes": [],
            "transitions": []
        },
        {
            "name": "LNO7X",
            "rnw": "06",
            "fixes": {
                "CI105": "CI105",
                "CI102": "CI102",
                "LNO": "LNO"
            },
            "sub_fixes": [],
            "transitions": []
        },
        {
            "name": "LNO8Y",
            "rnw": "24",
            "fixes": {
                "CI001": "CI001",
                "CI002": "CI002",
                "CI003": "CI003",
                "CI005": "CI005",
                "LNO": "LNO"
            },
            "sub_fixes": [],
            "transitions": []
        },
        {
            "name": "MEDI4Y",
            "rnw": "24",
            "fixes": {
                "CI001": "CI001 AT OR ABOVE 5000",
                "MEDIL": "MEDIL"
            },
            "sub_fixes": [],
            "transitions": []
        },
        {
            "name": "RITA4U",
            "rnw": "24",
            "fixes": {
                "CI001": "CI001 SPEED 220 TURN LEFT DIRECT",
                "CI006": "CI006 AT OR ABOVE 6500 SPEED 220",
                "CI007": "CI007",
                "RITAX": "RITAX"
            },
            "sub_fixes": [],
            "transitions": []
        },
        {
            "name": "RITA7X",
            "rnw": "06",
            "fixes": {
                "CI105": "CI105",
                "CI101": "CI101 AT OR ABOVE 10000",
                "RITAX": "RITAX"
            },
            "sub_fixes": [],
            "transitions": []
        },
        {
            "name": "RITA8Y",
            "rnw": "24",
            "fixes": {
                "CI001": "CI001",
                "CI002": "CI002",
                "CI003": "CI003",
                "CI004": "CI004",
                "CI011": "CI011",
                "RITAX": "RITAX"
            },
            "sub_fixes": [],
            "transitions": []
        },
        {
            "name": "SOPO4U",
            "rnw": "24",
            "fixes": {
                "CI001": "CI001 SPEED 220 TURN LEFT DIRECT",
                "CI006": "CI006 AT OR ABOVE 6500 SPEED 220",
                "ASPIX": "ASPIX",
                "SOPOK": "SOPOK"
            },
            "sub_fixes": [],
            "transitions": []
        },
        {
            "name": "SOPO7X",
            "rnw": "06",
            "fixes": {
                "CI105": "CI105",
                "CI103": "CI103",
                "BULUX": "BULUX",
                "SOPOK": "SOPOK"
            },
            "sub_fixes": [],
            "transitions": []
        },
        {
            "name": "SOPO8Y",
            "rnw": "24",
            "fixes": {
                "CI001": "CI001",
                "CI002": "CI002",
                "CI003": "CI003",
                "CI004": "CI004",
                "BULUX": "BULUX",
                "SOPOK": "SOPOK"
            },
            "sub_fixes": [],
            "transitions": []
        },
        {
            "name": "SPI4U",
            "rnw": "24",
            "fixes": {
                "CI001": "CI001 SPEED 220 TURN LEFT DIRECT",
                "CI006": "CI006 AT OR ABOVE 6500 SPEED 220",
                "SPI": "SPI"
            },
            "sub_fixes": [],
            "transitions": []
        },
        {
            "name": "SPI7X",
            "rnw": "06",
            "fixes": {
                "CI105": "CI105",
                "CI103": "CI103",
                "SPI": "SPI"
            },
            "sub_fixes": [],
            "transitions": []
        },
        {
            "name": "SPI8Y",
            "rnw": "24",
            "fixes": {
                "CI001": "CI001",
                "CI002": "CI002",
                "CI003": "CI003",
                "CI004": "CI004",
                "SPI": "SPI"
            },
            "sub_fixes": [],
            "transitions": []
        }
    ],
    "stars": [
        {
            "name": "ARVO4A",
            "runway": "RNW 06 RNW 24",
            "fixes": {
                "ARVOL": "ARVOL AT OR BELOW 16000",
                "NIVOR": "NIVOR",
                "GSY": "GSY"
            }
        },
        {
            "name": "BATY4A",
            "runway": "RNW 06 RNW 24",
            "fixes": {
                "BATTY": "BATTY",
                "FLO": "FLO",
                "BUB": "BUB",
                "NIVOR": "NIVOR",
                "GSY": "GSY"
            }
        },
        {
            "name": "BATY5B",
            "runway": "RNW 06 RNW 24",
            "fixes": {
                "BATTY": "BATTY",
                "LOLGI": "LOLGI",
                "D064Y": "D064Y AT OR BELOW 7000",
                "GSY": "GSY"
            }
        },
        {
            "name": "CIV4A",
            "runway": "RNW 06 RNW 24",
            "fixes": {
                "CIV": "CIV",
                "NIVOR": "NIVOR",
                "GSY": "GSY"
            }
        },
        {
            "name": "KOK4A",
            "runway": "RNW 06 RNW 24",
            "fixes": {
                "KOK": "KOK",
                "KERKY": "KERKY",
                "NIVOR": "NIVOR",
                "GSY": "GSY"
            }
        },
        {
            "name": "LNO4A",
            "runway": "RNW 06 RNW 24",
            "fixes": {
                "LNO": "LNO",
                "FLO": "FLO",
                "BUB": "BUB",
                "NIVOR": "NIVOR",
                "GSY": "GSY"
            }
        },
        {
            "name": "LNO5B",
            "runway": "RNW 06 RNW 24",
            "fixes": {
                "LNO": "LNO",
                "LOLGI": "LOLGI",
                "D064Y": "D064Y AT OR BELOW 7000",
                "GSY": "GSY"
            }
        },
        {
            "name": "NIK4A",
            "runway": "RNW 06 RNW 24",
            "fixes": {
                "NIK": "NIK",
                "KERKY": "KERKY",
                "NIVOR": "NIVOR",
                "GSY": "GSY"
            }
        }
    ],
    "approaches": [
        {
            "name": "VORD06",
            "fixes": {
                "FD06": "FD06 2500",
                "MD06": "MD06 938 RNW 06",
                "GSY": "GSY TRK 074 UNTIL 7.0 FROM GSY SPEED 185 TURN RIGHT DIRECT GSY 3000 FAF FD06 MAP MD06"
            },
            "transitions": [
                {
                    "name": "GSY1",
                    "fixes": {
                        "GSY": "GSY AT OR ABOVE 3000 TRK 272 UNTIL 8.0 FROM GSY SPEED 185"
                    }
                },
                {
                    "name": "GSY2",
                    "fixes": {
                        "GSY": "GSY AT OR ABOVE 3000 TRK 265 UNTIL 8.0 FROM GSY SPEED 140"
                    }
                }
            ]
        },
        {
            "name": "VORD24",
            "fixes": {
                "FD24": "FD24 3000",
                "MD24": "MD24 869 RNW 24",
                "GSY": "GSY TRK 241 UNTIL 6.0 FROM GSY SPEED 185 TURN RIGHT DIRECT GSY 3000 FAF FD24 MAP MD24"
            },
            "transitions": [
                {
                    "name": "GSY1",
                    "fixes": {
                        "GSY": "GSY AT OR ABOVE 3000 SPEED 185 TRK 285 UNTIL 4.6 FROM GSY TURN LEFT DIRECT GSY AT OR ABOVE 3000 TRK 074 UNTIL 10.5 FROM GSY"
                    }
                },
                {
                    "name": "GSY2",
                    "fixes": {
                        "GSY": "GSY AT OR ABOVE 3000 SPEED 140 TRK 278 UNTIL 3.5 FROM GSY TURN LEFT DIRECT GSY AT OR ABOVE 3000 TRK 070 UNTIL 10.5 FROM GSY"
                    }
                }
            ]
        },
        {
            "name": "ILS24",
            "fixes": {
                "CI24": "CI24 AT OR ABOVE 3000",
                "FI24": "FI24 3000 RNW 24",
                "CI24T": "OVERFLY CI24T TURN RIGHT DIRECT",
                "GSY": "GSY 3000 SPEED 185 FAF FI24 MAP RNW 24"
            },
            "transitions": [
                {
                    "name": "GSY1",
                    "fixes": {
                        "GSY": "GSY AT OR ABOVE 3000 SPEED 185 TRK 285 UNTIL 4.6 FROM GSY TURN LEFT DIRECT GSY AT OR ABOVE 3000 TRK 077 UNTIL 11.5 FROM GSY TURN LEFT DIRECT",
                        "D064L": "D064L AT OR ABOVE 3000 SPEED 185"
                    }
                },
                {
                    "name": "GSY2",
                    "fixes": {
                        "GSY": "GSY AT OR ABOVE 3000 SPEED 140 TRK 278 UNTIL 3.5 FROM GSY TURN LEFT DIRECT GSY AT OR ABOVE 3000 TRK 074 UNTIL 10.5 FROM GSY"
                    }
                }
            ]
        },
        {
            "name": "RNAV06",
            "fixes": {
                "REKPI": "REKPI AT OR ABOVE 2500 SPEED 200",
                "CI06F": "CI06F 2500 RNW 06",
                "CI06T": "OVERFLY CI06T SPEED 230 TURN RIGHT DIRECT",
                "GSY": "GSY 3000 SPEED 230 HOLD AT GSY RIGHT TURN INBOUNDCOURSE 254 ALT 3000 SPEED 230 LEGTIME 1 FAF CI06F MAP RNW 06"
            },
            "transitions": [
                {
                    "name": "GSY",
                    "fixes": {
                        "GSY": "GSY AT OR ABOVE 3000",
                        "BIBOS": "BIBOS AT OR ABOVE 3000",
                        "ABLIX": "ABLIX AT OR ABOVE 2500 SPEED 200"
                    }
                }
            ]
        },
        {
            "name": "RNAV24",
            "fixes": {
                "VAMKA": "VAMKA AT OR ABOVE 3000 SPEED 230",
                "CI24F": "CI24F 3000 RNW 24",
                "CI24T": "OVERFLY CI24T SPEED 230 TURN RIGHT DIRECT",
                "GSY": "GSY 3000 SPEED 230 HOLD AT GSY RIGHT TURN INBOUNDCOURSE 254 ALT 3000 SPEED 230 LEGTIME 1 FAF CI24F MAP RNW 24"
            },
            "transitions": [
                {
                    "name": "GSY",
                    "fixes": {
                        "GSY": "GSY AT OR ABOVE 3000",
                        "OSVAM": "OSVAM AT OR ABOVE 3000",
                        "GUGNO": "GUGNO AT OR ABOVE 3000 SPEED 230"
                    }
                }
            ]
        }
    ]
}