{
    "fixes": [
        {
            "name": "22VOR",
            "lat": 53.044958333333334,
            "lon": 8.699730566666666
        },
        {
            "name": "38VOR",
            "lat": 53.048411116666664,
            "lon": 8.865325
        },
        {
            "name": "43VOR",
            "lat": 53.043694433333336,
            "lon": 8.641780566666666
        },
        {
            "name": "68VOR",
            "lat": 53.050052783333335,
            "lon": 8.948130566666666
        },
        {
            "name": "ARGUV",
            "lat": 53.07676943333333,
            "lon": 8.371216666666667
        },
        {
            "name": "BASUM",
            "lat": 52.771988883333336,
            "lon": 8.788538883333333
        },
        {
            "name": "BMN",
            "lat": 53.04625278333334,
            "lon": 8.760447216666666
        },
        {
            "name": "DW010",
            "lat": 53.05079166666667,
            "lon": 8.964063883333333
        },
        {
            "name": "DW011",
            "lat": 53.052508333333336,
            "lon": 9.045294433333334
        },
        {
            "name": "DW014",
            "lat": 53.011036116666666,
            "lon": 9.14535
        },
        {
            "name": "DW040",
            "lat": 52.97444443333333,
            "lon": 9.052136116666667
        },
        {
            "name": "DW041",
            "lat": 53.152908333333336,
            "lon": 9.070172216666666
        },
        {
            "name": "DW043",
            "lat": 53.117266666666666,
            "lon": 9.374533333333334
        },
        {
            "name": "DW044",
            "lat": 53.08392778333333,
            "lon": 9.271297216666667
        },
        {
            "name": "DW049",
            "lat": 53.17015833333333,
            "lon": 8.768638883333333
        },
        {
            "name": "DW050",
            "lat": 53.04328888333333,
            "lon": 8.632516666666668
        },
        {
            "name": "DW051",
            "lat": 53.041525,
            "lon": 8.559133333333333
        },
        {
            "name": "DW053",
            "lat": 52.96397221666667,
            "lon": 8.5614
        },
        {
            "name": "DW054",
            "lat": 53.144019433333334,
            "lon": 9.065461116666667
        },
        {
            "name": "DW057",
            "lat": 53.12246388333333,
            "lon": 8.533805566666667
        },
        {
            "name": "DW059",
            "lat": 53.14411666666667,
            "lon": 8.640075
        },
        {
            "name": "DW090",
            "lat": 53.04826943333333,
            "lon": 8.849738883333334
        },
        {
            "name": "DW091",
            "lat": 53.03646943333333,
            "lon": 8.889783333333334
        },
        {
            "name": "DW092",
            "lat": 53.016761116666665,
            "lon": 8.913188883333333
        },
        {
            "name": "DW093",
            "lat": 53.01610278333333,
            "lon": 8.913969433333333
        },
        {
            "name": "DW094",
            "lat": 52.97803056666667,
            "lon": 8.917366666666666
        },
        {
            "name": "DW095",
            "lat": 52.960113883333335,
            "lon": 8.867436116666667
        },
        {
            "name": "DW096",
            "lat": 52.955866666666665,
            "lon": 8.523688883333334
        },
        {
            "name": "DW097",
            "lat": 53.00065278333334,
            "lon": 8.9323
        },
        {
            "name": "DW098",
            "lat": 53.07355833333333,
            "lon": 9.028591666666667
        },
        {
            "name": "DW099",
            "lat": 53.042513883333335,
            "lon": 8.174391666666667
        },
        {
            "name": "DW100",
            "lat": 53.05076388333333,
            "lon": 8.983236116666667
        },
        {
            "name": "DW101",
            "lat": 53.125430566666665,
            "lon": 8.9979
        },
        {
            "name": "DW102",
            "lat": 53.282688883333336,
            "lon": 8.910688883333334
        },
        {
            "name": "DW270",
            "lat": 53.04615278333333,
            "lon": 8.754461116666667
        },
        {
            "name": "DW271",
            "lat": 53.04526666666667,
            "lon": 8.713108333333333
        },
        {
            "name": "DW272",
            "lat": 53.044216666666664,
            "lon": 8.671986116666666
        },
        {
            "name": "DW273",
            "lat": 53.004772216666666,
            "lon": 8.688538883333333
        },
        {
            "name": "DW275",
            "lat": 53.003022216666665,
            "lon": 8.728394433333333
        },
        {
            "name": "DW276",
            "lat": 52.987861116666664,
            "lon": 8.719338883333334
        },
        {
            "name": "DW278",
            "lat": 52.960566666666665,
            "lon": 8.769261116666666
        },
        {
            "name": "DW279",
            "lat": 52.933813883333336,
            "lon": 8.817983333333334
        },
        {
            "name": "DW284",
            "lat": 52.96414721666667,
            "lon": 8.893430566666666
        },
        {
            "name": "DW285",
            "lat": 53.07955,
            "lon": 8.674558333333334
        },
        {
            "name": "DW286",
            "lat": 53.139966666666666,
            "lon": 8.670358333333333
        },
        {
            "name": "DW400",
            "lat": 52.97158056666667,
            "lon": 9.163986116666667
        },
        {
            "name": "DW401",
            "lat": 53.13608333333333,
            "lon": 9.063755566666666
        },
        {
            "name": "DW402",
            "lat": 53.129894433333334,
            "lon": 8.776747216666667
        },
        {
            "name": "DW405",
            "lat": 53.11790833333333,
            "lon": 8.292919433333333
        },
        {
            "name": "DW410",
            "lat": 52.95735,
            "lon": 8.525427783333333
        },
        {
            "name": "DW412",
            "lat": 52.95165278333333,
            "lon": 8.305175
        },
        {
            "name": "DW420",
            "lat": 53.03478333333333,
            "lon": 8.299058333333333
        },
        {
            "name": "DW450",
            "lat": 52.95803333333333,
            "lon": 8.552919433333333
        },
        {
            "name": "DW451",
            "lat": 52.95455,
            "lon": 8.415247216666666
        },
        {
            "name": "DW455",
            "lat": 53.03768611666667,
            "lon": 8.409341666666666
        },
        {
            "name": "DW461",
            "lat": 52.99615,
            "lon": 8.8835
        },
        {
            "name": "DW510",
            "lat": 52.972405566666666,
            "lon": 9.206477783333334
        },
        {
            "name": "DW512",
            "lat": 52.976452783333336,
            "lon": 9.426936116666667
        },
        {
            "name": "DW520",
            "lat": 53.05963056666667,
            "lon": 9.422947216666667
        },
        {
            "name": "DW550",
            "lat": 52.96901388333333,
            "lon": 9.036727783333333
        },
        {
            "name": "DW551",
            "lat": 52.971786116666664,
            "lon": 9.174488883333334
        },
        {
            "name": "DW555",
            "lat": 53.054952783333334,
            "lon": 9.170022216666666
        },
        {
            "name": "DW560",
            "lat": 53.044836116666666,
            "lon": 8.699308333333333
        },
        {
            "name": "DW561",
            "lat": 53.010122216666666,
            "lon": 8.748152783333333
        },
        {
            "name": "EKROV",
            "lat": 53.14280278333333,
            "lon": 9.418944433333333
        },
        {
            "name": "EMBIV",
            "lat": 52.99675833333333,
            "lon": 8.377016666666666
        },
        {
            "name": "ERLAD",
            "lat": 52.648397216666666,
            "lon": 8.962647216666667
        },
        {
            "name": "FI09",
            "lat": 53.04411666666667,
            "lon": 8.668969433333332
        },
        {
            "name": "GESTO",
            "lat": 53.17488611666667,
            "lon": 10.083491666666667
        },
        {
            "name": "GIBMA",
            "lat": 53.21303888333333,
            "lon": 8.771505566666667
        },
        {
            "name": "HIGNB",
            "lat": 53.049336116666666,
            "lon": 8.908775
        },
        {
            "name": "IBDAG",
            "lat": 52.72420556666667,
            "lon": 9.19645
        },
        {
            "name": "IBUTI",
            "lat": 53.04048888333333,
            "lon": 8.519733333333333
        },
        {
            "name": "MD27",
            "lat": 53.04745833333333,
            "lon": 8.818402783333333
        },
        {
            "name": "NIE",
            "lat": 52.62589166666667,
            "lon": 9.371991666666666
        },
        {
            "name": "OGBAT",
            "lat": 52.74425278333333,
            "lon": 9.234141666666666
        },
        {
            "name": "OTEXE",
            "lat": 53.25665278333334,
            "lon": 8.557547216666666
        },
        {
            "name": "PIXUR",
            "lat": 52.963594433333334,
            "lon": 8.787172216666667
        },
        {
            "name": "RF001",
            "lat": 53.10731251666667,
            "lon": 9.3552376
        },
        {
            "name": "RF002",
            "lat": 53.0983616,
            "lon": 9.332629183333333
        },
        {
            "name": "RF003",
            "lat": 53.091126833333334,
            "lon": 9.308380883333333
        },
        {
            "name": "ROGBO",
            "lat": 53.05274443333333,
            "lon": 9.059558333333333
        },
        {
            "name": "RW27",
            "lat": 53.047263883333336,
            "lon": 8.80485
        },
        {
            "name": "SOFED",
            "lat": 53.14518888333333,
            "lon": 7.2073583333333335
        },
        {
            "name": "UDADO",
            "lat": 53.114441666666664,
            "lon": 9.442325
        },
        {
            "name": "VERED",
            "lat": 52.894641666666665,
            "lon": 9.210583333333334
        },
        {
            "name": "WSNNB",
            "lat": 53.347169433333335,
            "lon": 8.874733333333333
        }
    ],
    "rnws": [
        "RNW 09",
        "RNW 23",
        "RNW 27"
    ],
    "sids": [
        {
            "name": "BASU1L",
            "rnw": "27",
            "fixes": {
                "DW271": "OVERFLY DW271 TURN LEFT DIRECT",
                "DW273": "DW273",
                "DW278": "DW278",
                "BASUM": "BASUM"
            },
            "sub_fixes": [],
            "transitions": []
        },
        {
            "name": "BASU1M",
            "rnw": "09",
            "fixes": {
                "DW090": "OVERFLY DW090",
                "DW091": "DW091",
                "DW097": "DW097",
                "BASUM": "BASUM"
            },
            "sub_fixes": [],
            "transitions": []
        },
        {
            "name": "BASU1Z",
            "rnw": "27",
            "fixes": {
                "DW270": "DW270 AT OR ABOVE 500",
                "DW276": "DW276",
                "DW278": "DW278",
                "BASUM": "BASUM"
            },
            "sub_fixes": [],
            "transitions": []
        },
        {
            "name": "ERLA1L",
            "rnw": "27",
            "fixes": {
                "DW271": "OVERFLY DW271 TURN LEFT DIRECT",
                "DW273": "DW273",
                "DW279": "DW279",
                "ERLAD": "ERLAD"
            },
            "sub_fixes": [],
            "transitions": []
        },
        {
            "name": "ERLA1M",
            "rnw": "09",
            "fixes": {
                "DW090": "OVERFLY DW090",
                "DW091": "DW091",
                "DW092": "DW092",
                "ERLAD": "ERLAD"
            },
            "sub_fixes": [],
            "transitions": []
        },
        {
            "name": "ERLA3Z",
            "rnw": "27",
            "fixes": {
                "DW270": "DW270 AT OR ABOVE 500",
                "DW276": "DW276",
                "DW279": "DW279",
                "ERLAD": "ERLAD"
            },
            "sub_fixes": [],
            "transitions": []
        },
        {
            "name": "GEST1L",
            "rnw": "27",
            "fixes": {
                "DW271": "OVERFLY DW271 TURN LEFT DIRECT",
                "DW273": "DW273",
                "DW278": "DW278",
                "DW284": "DW284",
                "GESTO": "GESTO"
            },
            "sub_fixes": [],
            "transitions": []
        },
        {
            "name": "GEST1Z",
            "rnw": "27",
            "fixes": {
                "DW270": "DW270 AT OR ABOVE 500",
                "DW275": "OVERFLY DW275 TURN LEFT DIRECT",
                "DW284": "DW284",
                "GESTO": "GESTO"
            },
            "sub_fixes": [],
            "transitions": []
        },
        {
            "name": "GEST8M",
            "rnw": "09",
            "fixes": {
                "HIGNB": "OVERFLY HIGNB",
                "DW098": "DW098",
                "UDADO": "UDADO",
                "GESTO": "GESTO"
            },
            "sub_fixes": [],
            "transitions": []
        },
        {
            "name": "NIE1L",
            "rnw": "27",
            "fixes": {
                "DW271": "OVERFLY DW271 TURN LEFT DIRECT",
                "DW273": "DW273",
                "IBDAG": "IBDAG",
                "NIE": "NIE"
            },
            "sub_fixes": [],
            "transitions": []
        },
        {
            "name": "NIE1M",
            "rnw": "09",
            "fixes": {
                "DW090": "OVERFLY DW090",
                "DW091": "DW091",
                "OGBAT": "OGBAT",
                "NIE": "NIE"
            },
            "sub_fixes": [],
            "transitions": []
        },
        {
            "name": "NIE5Z",
            "rnw": "27",
            "fixes": {
                "DW270": "DW270 AT OR ABOVE 500",
                "DW276": "DW276",
                "IBDAG": "IBDAG",
                "NIE": "NIE"
            },
            "sub_fixes": [],
            "transitions": []
        },
        {
            "name": "OTEX1L",
            "rnw": "27",
            "fixes": {
                "BMN": "BMN",
                "DW272": "DW272 TURN RIGHT DIRECT",
                "DW286": "DW286",
                "OTEXE": "OTEXE AT OR ABOVE 4000"
            },
            "sub_fixes": [],
            "transitions": []
        },
        {
            "name": "OTEX1M",
            "rnw": "09",
            "fixes": {
                "DW100": "DW100",
                "DW101": "DW101",
                "DW102": "DW102",
                "OTEXE": "OTEXE"
            },
            "sub_fixes": [],
            "transitions": []
        },
        {
            "name": "SOFE1L",
            "rnw": "27",
            "fixes": {
                "BMN": "BMN",
                "DW099": "DW099",
                "SOFED": "SOFED"
            },
            "sub_fixes": [],
            "transitions": []
        },
        {
            "name": "SOFE1M",
            "rnw": "09",
            "fixes": {
                "DW090": "OVERFLY DW090",
                "DW091": "DW091",
                "DW093": "OVERFLY DW093",
                "DW094": "DW094",
                "DW095": "DW095",
                "DW096": "DW096",
                "DW099": "DW099",
                "SOFED": "SOFED"
            },
            "sub_fixes": [],
            "transitions": []
        },
        {
            "name": "WSN1L",
            "rnw": "27",
            "fixes": {
                "DW271": "OVERFLY DW271 TURN RIGHT DIRECT",
                "DW285": "DW285",
                "WSNNB": "WSNNB"
            },
            "sub_fixes": [],
            "transitions": []
        },
        {
            "name": "WSN1M",
            "rnw": "09",
            "fixes": {
                "DW100": "DW100",
                "DW101": "DW101",
                "WSNNB": "WSNNB"
            },
            "sub_fixes": [],
            "transitions": []
        }
    ],
    "stars": [
        {
            "name": "EKRO2P.09",
            "runway": "RNW 09",
            "fixes": {
                "EKROV": "EKROV",
                "BMN": "BMN"
            }
        },
        {
            "name": "EKRO2P.27",
            "runway": "RNW 27",
            "fixes": {
                "EKROV": "EKROV",
                "BMN": "BMN"
            }
        },
        {
            "name": "GIBM2P.09",
            "runway": "RNW 09",
            "fixes": {
                "GIBMA": "GIBMA",
                "BMN": "BMN"
            }
        },
        {
            "name": "GIBM2P.27",
            "runway": "RNW 27",
            "fixes": {
                "GIBMA": "GIBMA",
                "BMN": "BMN"
            }
        },
        {
            "name": "PIXU3P.09",
            "runway": "RNW 09",
            "fixes": {
                "PIXUR": "PIXUR",
                "BMN": "BMN"
            }
        },
        {
            "name": "PIXU3P.27",
            "runway": "RNW 27",
            "fixes": {
                "PIXUR": "PIXUR",
                "BMN": "BMN"
            }
        },
        {
            "name": "VERE3P.09",
            "runway": "RNW 09",
            "fixes": {
                "VERED": "VERED",
                "BMN": "BMN"
            }
        },
        {
            "name": "VERE3P.27",
            "runway": "RNW 27",
            "fixes": {
                "VERED": "VERED",
                "BMN": "BMN"
            }
        }
    ],
    "approaches": [
        {
            "name": "VORD09",
            "fixes": {
                "IBUTI": "IBUTI 3000",
                "43VOR": "43VOR AT OR ABOVE 1600",
                "22VOR": "22VOR AT OR ABOVE 930",
                "BMN": "BMN 229 RNW 09 BMN 3000 FAF IBUTI MAP BMN",
                "HIGNB": "OVERFLY HIGNB AT OR ABOVE 420 TURN RIGHT DIRECT"
            },
            "transitions": [
                {
                    "name": "BMN1",
                    "fixes": {
                        "BMN": "BMN AT OR ABOVE 3000 TRK 248 UNTIL 9.7 FROM BMN"
                    }
                },
                {
                    "name": "BMN2",
                    "fixes": {
                        "BMN": "BMN AT OR ABOVE 3000 TRK 256 UNTIL 9.7 FROM BMN"
                    }
                },
                {
                    "name": "EKR09",
                    "fixes": {
                        "EKROV": "EKROV AT OR ABOVE 4000",
                        "DW401": "DW401 AT OR ABOVE 4000 SPEED 220",
                        "DW405": "DW405 SPEED 220",
                        "DW420": "DW420"
                    }
                },
                {
                    "name": "GIB09",
                    "fixes": {
                        "GIBMA": "GIBMA AT OR ABOVE 4000",
                        "DW402": "DW402 AT OR ABOVE 4000 SPEED 220",
                        "DW405": "DW405 SPEED 220",
                        "DW420": "DW420"
                    }
                },
                {
                    "name": "PIX09",
                    "fixes": {
                        "PIXUR": "PIXUR AT OR ABOVE 4000",
                        "DW410": "DW410 AT OR ABOVE 4000 SPEED 220",
                        "DW412": "DW412 SPEED 220",
                        "DW420": "DW420"
                    }
                },
                {
                    "name": "VE09A",
                    "fixes": {
                        "VERED": "VERED AT OR ABOVE 4000",
                        "DW401": "DW401 AT OR ABOVE 4000 SPEED 220",
                        "DW405": "DW405 SPEED 220",
                        "DW420": "DW420"
                    }
                },
                {
                    "name": "VE09B",
                    "fixes": {
                        "VERED": "VERED AT OR ABOVE 4000",
                        "DW400": "DW400 AT OR ABOVE 4000 SPEED 220",
                        "DW412": "DW412 SPEED 220",
                        "DW420": "DW420"
                    }
                }
            ]
        },
        {
            "name": "VORD27",
            "fixes": {
                "ROGBO": "ROGBO 3000",
                "68VOR": "68VOR AT OR ABOVE 1720",
                "38VOR": "38VOR AT OR ABOVE 770",
                "MD27": "MD27 221 RNW 27",
                "BMN": "BMN AT OR ABOVE 420 TRK 266 UNTIL 2.2 FROM BMN TURN LEFT DIRECT BMN 3000 FAF ROGBO MAP MD27"
            },
            "transitions": [
                {
                    "name": "BMN1",
                    "fixes": {
                        "BMN": "BMN AT OR ABOVE 3000 TRK 102 UNTIL 11.8 FROM BMN"
                    }
                },
                {
                    "name": "BMN2",
                    "fixes": {
                        "BMN": "BMN AT OR ABOVE 3000 TRK 094 UNTIL 11.8 FROM BMN"
                    }
                },
                {
                    "name": "EKR27",
                    "fixes": {
                        "EKROV": "EKROV AT OR ABOVE 4000 SPEED 220",
                        "DW520": "DW520 AT OR ABOVE 4000",
                        "DW555": "DW555 AT OR ABOVE 4000"
                    }
                },
                {
                    "name": "GIB27",
                    "fixes": {
                        "GIBMA": "GIBMA AT OR ABOVE 4000",
                        "DW402": "DW402 SPEED 220",
                        "EKROV": "EKROV SPEED 220",
                        "DW520": "DW520 AT OR ABOVE 4000",
                        "DW555": "DW555 AT OR ABOVE 4000"
                    }
                },
                {
                    "name": "PIX27",
                    "fixes": {
                        "PIXUR": "PIXUR AT OR ABOVE 4000",
                        "DW510": "DW510 SPEED 220",
                        "DW512": "DW512 SPEED 220",
                        "DW520": "DW520 AT OR ABOVE 4000",
                        "DW555": "DW555 AT OR ABOVE 4000"
                    }
                },
                {
                    "name": "VER27",
                    "fixes": {
                        "VERED": "VERED AT OR ABOVE 4000",
                        "DW510": "DW510 SPEED 220",
                        "DW512": "DW512 SPEED 220",
                        "DW520": "DW520 AT OR ABOVE 4000",
                        "DW555": "DW555 AT OR ABOVE 4000"
                    }
                }
            ]
        },
        {
            "name": "ILSY09",
            "fixes": {
                "DW051": "DW051 AT OR ABOVE 1700",
                "DW050": "DW050 1700 RNW 09",
                "HIGNB": "OVERFLY HIGNB TURN RIGHT DIRECT",
                "BMN": "BMN 3000 FAF DW050 MAP RNW 09"
            },
            "transitions": [
                {
                    "name": "ARGUV",
                    "fixes": {
                        "ARGUV": "ARGUV AT OR BELOW 5000 AT OR ABOVE 3000 SPEED 220"
                    }
                },
                {
                    "name": "EKROV",
                    "fixes": {
                        "EKROV": "EKROV AT OR BELOW 11000 AT OR ABOVE 5000",
                        "DW054": "DW054 SPEED 220",
                        "DW059": "DW059 AT OR ABOVE 3900",
                        "DW057": "DW057 AT OR BELOW 5200 AT OR ABOVE 3300"
                    }
                },
                {
                    "name": "EMBIV",
                    "fixes": {
                        "EMBIV": "EMBIV AT OR BELOW 5000 AT OR ABOVE 3000 SPEED 220"
                    }
                },
                {
                    "name": "GIBMA",
                    "fixes": {
                        "GIBMA": "GIBMA AT OR BELOW 8500 AT OR ABOVE 5000 SPEED 220",
                        "DW049": "DW049 AT OR ABOVE 4500",
                        "DW057": "DW057 AT OR BELOW 5200 AT OR ABOVE 3300"
                    }
                },
                {
                    "name": "PIXUR",
                    "fixes": {
                        "PIXUR": "PIXUR AT OR BELOW 9000 AT OR ABOVE 5000 SPEED 220",
                        "DW053": "DW053 AT OR BELOW 4900 AT OR ABOVE 3400"
                    }
                }
            ]
        },
        {
            "name": "ILSZ09",
            "fixes": {
                "IBUTI": "IBUTI AT OR ABOVE 3000",
                "FI09": "FI09 1280 RNW 09",
                "HIGNB": "OVERFLY HIGNB AT OR ABOVE 420 TURN RIGHT DIRECT",
                "BMN": "BMN 3000 FAF FI09 MAP RNW 09"
            },
            "transitions": [
                {
                    "name": "BMN1",
                    "fixes": {
                        "BMN": "BMN AT OR ABOVE 3000 TRK 248 UNTIL 9.7 FROM BMN"
                    }
                },
                {
                    "name": "BMN2",
                    "fixes": {
                        "BMN": "BMN AT OR ABOVE 3000 TRK 256 UNTIL 9.7 FROM BMN"
                    }
                },
                {
                    "name": "EKR09",
                    "fixes": {
                        "EKROV": "EKROV AT OR ABOVE 4000",
                        "DW401": "DW401 SPEED 220",
                        "DW405": "DW405 SPEED 220",
                        "DW420": "DW420"
                    }
                },
                {
                    "name": "GIB09",
                    "fixes": {
                        "GIBMA": "GIBMA AT OR ABOVE 4000",
                        "DW402": "DW402 SPEED 220",
                        "DW405": "DW405 SPEED 220",
                        "DW420": "DW420"
                    }
                },
                {
                    "name": "PIX09",
                    "fixes": {
                        "PIXUR": "PIXUR AT OR ABOVE 4000",
                        "DW410": "DW410 SPEED 220",
                        "DW412": "DW412 SPEED 220",
                        "DW420": "DW420"
                    }
                },
                {
                    "name": "VE09A",
                    "fixes": {
                        "VERED": "VERED AT OR ABOVE 4000",
                        "DW401": "DW401 SPEED 220",
                        "DW405": "DW405 SPEED 220",
                        "DW420": "DW420"
                    }
                },
                {
                    "name": "VE09B",
                    "fixes": {
                        "VERED": "VERED AT OR ABOVE 4000",
                        "DW400": "DW400 SPEED 220",
                        "DW412": "DW412 SPEED 220",
                        "DW420": "DW420"
                    }
                }
            ]
        },
        {
            "name": "ILSY27",
            "fixes": {
                "DW011": "DW011 AT OR ABOVE 1900",
                "DW010": "DW010 1900 RNW 27 TRK 266 UNTIL 2.2 FROM",
                "BMN": "BMN TURN LEFT DIRECT BMN 3000 FAF DW010 MAP RNW 27"
            },
            "transitions": [
                {
                    "name": "EKROV",
                    "fixes": {
                        "EKROV": "EKROV AT OR BELOW 8000 AT OR ABOVE 5000 SPEED 220",
                        "DW043": "DW043 AT OR BELOW 7000 AT OR ABOVE 3400",
                        "RF001": "RF001",
                        "RF002": "RF002",
                        "RF003": "RF003",
                        "DW044": "DW044 AT OR ABOVE 3400"
                    }
                },
                {
                    "name": "GIBMA",
                    "fixes": {
                        "GIBMA": "GIBMA AT OR BELOW 9200 AT OR ABOVE 5000 SPEED 220",
                        "DW041": "DW041 AT OR BELOW 6000 AT OR ABOVE 3900"
                    }
                },
                {
                    "name": "PIXUR",
                    "fixes": {
                        "PIXUR": "PIXUR AT OR BELOW 9000 AT OR ABOVE 5000 SPEED 220",
                        "DW040": "DW040 AT OR BELOW 5200 AT OR ABOVE 3500"
                    }
                },
                {
                    "name": "VERED",
                    "fixes": {
                        "VERED": "VERED AT OR BELOW 8000 AT OR ABOVE 5000 SPEED 220",
                        "DW014": "DW014 AT OR BELOW 4400 AT OR ABOVE 3400"
                    }
                }
            ]
        },
        {
            "name": "ILSZ27",
            "fixes": {
                "ROGBO": "ROGBO AT OR ABOVE 3000",
                "HIGNB": "HIGNB 1280 RNW 27 TRK 266 UNTIL 2.2 FROM",
                "BMN": "BMN TURN LEFT DIRECT BMN 3000 FAF HIGNB MAP RNW 27"
            },
            "transitions": [
                {
                    "name": "BMN1",
                    "fixes": {
                        "BMN": "BMN AT OR ABOVE 3000 TRK 102 UNTIL 11.8 FROM BMN"
                    }
                },
                {
                    "name": "BMN2",
                    "fixes": {
                        "BMN": "BMN AT OR ABOVE 3000 TRK 094 UNTIL 11.8 FROM BMN"
                    }
                },
                {
                    "name": "EKR27",
                    "fixes": {
                        "EKROV": "EKROV AT OR ABOVE 4000 SPEED 220",
                        "DW520": "DW520",
                        "DW555": "DW555 AT OR ABOVE 4000"
                    }
                },
                {
                    "name": "GIB27",
                    "fixes": {
                        "GIBMA": "GIBMA AT OR ABOVE 4000",
                        "DW402": "DW402 SPEED 220",
                        "EKROV": "EKROV SPEED 220",
                        "DW520": "DW520",
                        "DW555": "DW555 AT OR ABOVE 4000"
                    }
                },
                {
                    "name": "PIX27",
                    "fixes": {
                        "PIXUR": "PIXUR AT OR ABOVE 4000",
                        "DW510": "DW510 SPEED 220",
                        "DW512": "DW512 SPEED 220",
                        "DW520": "DW520",
                        "DW555": "DW555 AT OR ABOVE 4000"
                    }
                },
                {
                    "name": "VER27",
                    "fixes": {
                        "VERED": "VERED AT OR ABOVE 4000",
                        "DW510": "DW510 SPEED 220",
                        "DW512": "DW512 SPEED 220",
                        "DW520": "DW520",
                        "DW555": "DW555 AT OR ABOVE 4000"
                    }
                }
            ]
        },
        {
            "name": "GPSY09",
            "fixes": {
                "DW051": "DW051 AT OR ABOVE 1700",
                "DW050": "DW050 1700 RNW 09",
                "HIGNB": "OVERFLY HIGNB TURN RIGHT DIRECT",
                "DW461": "DW461",
                "BMN": "BMN 3000 FAF DW050 MAP RNW 09"
            },
            "transitions": [
                {
                    "name": "ARGUV",
                    "fixes": {
                        "ARGUV": "ARGUV AT OR BELOW 5000 AT OR ABOVE 3000 SPEED 220"
                    }
                },
                {
                    "name": "EKROV",
                    "fixes": {
                        "EKROV": "EKROV AT OR BELOW 11000 AT OR ABOVE 5000",
                        "DW054": "DW054 SPEED 220",
                        "DW059": "DW059 AT OR ABOVE 3900",
                        "DW057": "DW057 AT OR BELOW 5200 AT OR ABOVE 3300"
                    }
                },
                {
                    "name": "EMBIV",
                    "fixes": {
                        "EMBIV": "EMBIV AT OR BELOW 5000 AT OR ABOVE 3000 SPEED 220"
                    }
                },
                {
                    "name": "GIBMA",
                    "fixes": {
                        "GIBMA": "GIBMA AT OR BELOW 8500 AT OR ABOVE 5000 SPEED 220",
                        "DW049": "DW049 AT OR ABOVE 4500",
                        "DW057": "DW057 AT OR BELOW 5200 AT OR ABOVE 3300"
                    }
                },
                {
                    "name": "PIXUR",
                    "fixes": {
                        "PIXUR": "PIXUR AT OR BELOW 9000 AT OR ABOVE 5000 SPEED 220",
                        "DW053": "DW053 AT OR BELOW 4900 AT OR ABOVE 3400"
                    }
                }
            ]
        },
        {
            "name": "GPSZ09",
            "fixes": {
                "DW455": "DW455 AT OR ABOVE 3000",
                "IBUTI": "IBUTI 3000 RNW 09",
                "HIGNB": "OVERFLY HIGNB AT OR ABOVE 420 TURN RIGHT DIRECT",
                "DW461": "DW461",
                "BMN": "BMN 3000 FAF IBUTI MAP RNW 09"
            },
            "transitions": [
                {
                    "name": "BMN",
                    "fixes": {
                        "BMN": "BMN AT OR ABOVE 3000",
                        "DW450": "DW450 AT OR ABOVE 3000",
                        "DW451": "DW451 AT OR ABOVE 3000"
                    }
                }
            ]
        },
        {
            "name": "GPSY27",
            "fixes": {
                "DW011": "DW011 AT OR ABOVE 1900",
                "DW010": "DW010 1900 RNW 27",
                "DW560": "OVERFLY DW560 TURN LEFT DIRECT",
                "DW561": "DW561",
                "BMN": "BMN 3000 FAF DW010 MAP RNW 27"
            },
            "transitions": [
                {
                    "name": "EKROV",
                    "fixes": {
                        "EKROV": "EKROV AT OR BELOW 8000 AT OR ABOVE 5000 SPEED 220",
                        "DW043": "DW043 AT OR BELOW 7000 AT OR ABOVE 3400",
                        "RF001": "RF001",
                        "RF002": "RF002",
                        "RF003": "RF003",
                        "DW044": "DW044 AT OR ABOVE 3400"
                    }
                },
                {
                    "name": "GIBMA",
                    "fixes": {
                        "GIBMA": "GIBMA AT OR BELOW 9200 AT OR ABOVE 5000 SPEED 220",
                        "DW041": "DW041 AT OR BELOW 6000 AT OR ABOVE 3900"
                    }
                },
                {
                    "name": "PIXUR",
                    "fixes": {
                        "PIXUR": "PIXUR AT OR BELOW 9000 AT OR ABOVE 5000 SPEED 220",
                        "DW040": "DW040 AT OR BELOW 5200 AT OR ABOVE 3500"
                    }
                },
                {
                    "name": "VERED",
                    "fixes": {
                        "VERED": "VERED AT OR BELOW 8000 AT OR ABOVE 5000 SPEED 220",
                        "DW014": "DW014 AT OR BELOW 4400 AT OR ABOVE 3400"
                    }
                }
            ]
        },
        {
            "name": "GPSZ27",
            "fixes": {
                "DW555": "DW555 AT OR ABOVE 3000",
                "ROGBO": "ROGBO 3000 RNW 27",
                "DW560": "OVERFLY DW560 AT OR ABOVE 420 TURN LEFT DIRECT",
                "DW561": "DW561",
                "BMN": "BMN 3000 FAF ROGBO MAP RNW 27"
            },
            "transitions": [
                {
                    "name": "BMN",
                    "fixes": {
                        "BMN": "BMN AT OR ABOVE 3000",
                        "DW550": "DW550 AT OR ABOVE 3000",
                        "DW551": "DW551 AT OR ABOVE 3000"
                    }
                }
            ]
        },
        {
            "name": "RNAV09",
            "fixes": {
                "IBUTI": "IBUTI 3000 RNW 09",
                "HIGNB": "OVERFLY HIGNB AT OR ABOVE 420 TURN RIGHT DIRECT",
                "DW461": "DW461",
                "BMN": "BMN 3000 FAF IBUTI MAP RNW 09"
            },
            "transitions": [
                {
                    "name": "BMN",
                    "fixes": {
                        "BMN": "BMN AT OR ABOVE 3000",
                        "DW450": "DW450 AT OR ABOVE 3000",
                        "DW451": "DW451 AT OR ABOVE 3000",
                        "DW455": "DW455 AT OR ABOVE 3000"
                    }
                },
                {
                    "name": "EKR09",
                    "fixes": {
                        "EKROV": "EKROV AT OR ABOVE 4000",
                        "DW401": "DW401 AT OR ABOVE 4000 SPEED 220",
                        "DW405": "DW405 SPEED 220",
                        "DW420": "DW420"
                    }
                },
                {
                    "name": "GIB09",
                    "fixes": {
                        "GIBMA": "GIBMA AT OR ABOVE 4000",
                        "DW402": "DW402 AT OR ABOVE 4000 SPEED 220",
                        "DW405": "DW405 SPEED 220",
                        "DW420": "DW420"
                    }
                },
                {
                    "name": "PIX09",
                    "fixes": {
                        "PIXUR": "PIXUR AT OR ABOVE 4000",
                        "DW410": "DW410 AT OR ABOVE 4000 SPEED 220",
                        "DW412": "DW412 SPEED 220",
                        "DW420": "DW420"
                    }
                },
                {
                    "name": "VE09A",
                    "fixes": {
                        "VERED": "VERED AT OR ABOVE 4000",
                        "DW401": "DW401 AT OR ABOVE 4000 SPEED 220",
                        "DW405": "DW405 SPEED 220",
                        "DW420": "DW420"
                    }
                },
                {
                    "name": "VE09B",
                    "fixes": {
                        "VERED": "VERED AT OR ABOVE 4000",
                        "DW400": "DW400 AT OR ABOVE 4000 SPEED 220",
                        "DW412": "DW412 SPEED 220",
                        "DW420": "DW420"
                    }
                }
            ]
        },
        {
            "name": "RNAV27",
            "fixes": {
                "ROGBO": "ROGBO 3000 RNW 27",
                "DW560": "OVERFLY DW560 AT OR ABOVE 420 TURN LEFT DIRECT",
                "DW561": "DW561",
                "BMN": "BMN 3000 FAF ROGBO MAP RNW 27"
            },
            "transitions": [
                {
                    "name": "BMN",
                    "fixes": {
                        "BMN": "BMN AT OR ABOVE 3000",
                        "DW550": "DW550 AT OR ABOVE 3000",
                        "DW551": "DW551 AT OR ABOVE 3000",
                        "DW555": "DW555 AT OR ABOVE 3000"
                    }
                },
                {
                    "name": "EKR27",
                    "fixes": {
                        "EKROV": "EKROV AT OR ABOVE 4000 SPEED 220",
                        "DW520": "DW520 AT OR ABOVE 4000",
                        "DW555": "DW555 AT OR ABOVE 4000"
                    }
                },
                {
                    "name": "GIB27",
                    "fixes": {
                        "GIBMA": "GIBMA AT OR ABOVE 4000",
                        "DW402": "DW402 SPEED 220",
                        "EKROV": "EKROV SPEED 220",
                        "DW520": "DW520 AT OR ABOVE 4000",
                        "DW555": "DW555 AT OR ABOVE 4000"
                    }
                },
                {
                    "name": "PIX27",
                    "fixes": {
                        "PIXUR": "PIXUR AT OR ABOVE 4000",
                        "DW510": "DW510 SPEED 220",
                        "DW512": "DW512 SPEED 220",
                        "DW520": "DW520 AT OR ABOVE 4000",
                        "DW555": "DW555 AT OR ABOVE 4000"
                    }
                },
                {
                    "name": "VER27",
                    "fixes": {
                        "VERED": "VERED AT OR ABOVE 4000",
                        "DW510": "DW510 AT OR ABOVE 4000 SPEED 220",
                        "DW512": "DW512 SPEED 220",
                        "DW520": "DW520 AT OR ABOVE 4000",
                        "DW555": "DW555 AT OR ABOVE 4000"
                    }
                }
            ]
        }
    ]
}