{
    "fixes": [
        {
            "name": "35LOC",
            "lat": 49.468475,
            "lon": 8.605305566666667
        },
        {
            "name": "65LOC",
            "lat": 49.46481111666667,
            "lon": 8.68175
        },
        {
            "name": "CL27",
            "lat": 49.4567,
            "lon": 8.847338883333334
        },
        {
            "name": "D050H",
            "lat": 49.416891666666665,
            "lon": 8.890388883333333
        },
        {
            "name": "D092O",
            "lat": 49.45413333333333,
            "lon": 8.898788883333333
        },
        {
            "name": "D195Z",
            "lat": 49.365372216666664,
            "lon": 8.358755566666666
        },
        {
            "name": "EPOMA",
            "lat": 49.46176666666667,
            "lon": 8.819855566666666
        },
        {
            "name": "FL27",
            "lat": 49.457963883333335,
            "lon": 8.821866666666667
        },
        {
            "name": "FM001",
            "lat": 49.45814443333333,
            "lon": 8.921891666666667
        },
        {
            "name": "FM002",
            "lat": 49.39166388333334,
            "lon": 8.916269433333333
        },
        {
            "name": "FM003",
            "lat": 49.45743611666666,
            "lon": 8.389466666666667
        },
        {
            "name": "FM004",
            "lat": 49.36761666666666,
            "lon": 8.347738883333333
        },
        {
            "name": "FM005",
            "lat": 49.31192778333333,
            "lon": 8.418988883333334
        },
        {
            "name": "FM040",
            "lat": 49.469341666666665,
            "lon": 8.611663883333334
        },
        {
            "name": "FM041",
            "lat": 49.42133333333334,
            "lon": 8.655647216666667
        },
        {
            "name": "FM042",
            "lat": 49.37744443333333,
            "lon": 8.615252783333334
        },
        {
            "name": "FM043",
            "lat": 49.323961116666666,
            "lon": 8.566144433333333
        },
        {
            "name": "FM044",
            "lat": 49.37039443333333,
            "lon": 8.7022
        },
        {
            "name": "FM045",
            "lat": 49.48585,
            "lon": 8.29925
        },
        {
            "name": "FM046",
            "lat": 49.33209443333333,
            "lon": 8.673363883333334
        },
        {
            "name": "FM047",
            "lat": 49.35707778333333,
            "lon": 8.714352783333334
        },
        {
            "name": "FM050",
            "lat": 49.456716666666665,
            "lon": 8.389094433333334
        },
        {
            "name": "FM052",
            "lat": 49.30506388333333,
            "lon": 8.318772216666666
        },
        {
            "name": "FM053",
            "lat": 49.44794443333333,
            "lon": 8.326422216666666
        },
        {
            "name": "KETEG",
            "lat": 49.452475,
            "lon": 8.985744433333334
        },
        {
            "name": "KOSAX",
            "lat": 49.585316666666664,
            "lon": 8.227722216666667
        },
        {
            "name": "MANEM",
            "lat": 49.294583333333335,
            "lon": 8.191658333333333
        },
        {
            "name": "ML27",
            "lat": 49.471488883333336,
            "lon": 8.541594433333334
        },
        {
            "name": "MND",
            "lat": 49.470638883333336,
            "lon": 8.515980566666666
        },
        {
            "name": "NKRNB",
            "lat": 49.33672778333333,
            "lon": 8.732908333333333
        },
        {
            "name": "OLIVI",
            "lat": 49.778297216666665,
            "lon": 7.60565
        },
        {
            "name": "RINEX",
            "lat": 49.32913056666667,
            "lon": 8.635513883333333
        },
        {
            "name": "ROLSO",
            "lat": 49.35415556666667,
            "lon": 9.305322216666667
        },
        {
            "name": "UMDAS",
            "lat": 49.395863883333334,
            "lon": 8.824180566666668
        }
    ],
    "rnws": [
        "RNW 09",
        "RNW 27"
    ],
    "sids": [
        {
            "name": "MANE8C",
            "rnw": "09",
            "fixes": {
                "FM040": "FM040",
                "FM041": "FM041",
                "FM043": "FM043",
                "MANEM": "MANEM"
            },
            "sub_fixes": [],
            "transitions": []
        },
        {
            "name": "MANE8W",
            "rnw": "27",
            "fixes": {
                "FM050": "FM050",
                "FM052": "FM052",
                "MANEM": "MANEM"
            },
            "sub_fixes": [],
            "transitions": []
        },
        {
            "name": "OLIV4W",
            "rnw": "27",
            "fixes": {
                "FM053": "FM053",
                "KOSAX": "KOSAX AT OR ABOVE 6000",
                "OLIVI": "OLIVI"
            },
            "sub_fixes": [],
            "transitions": []
        },
        {
            "name": "OLIV6C",
            "rnw": "09",
            "fixes": {
                "FM040": "FM040",
                "FM041": "FM041",
                "FM042": "FM042",
                "FM045": "FM045",
                "KOSAX": "KOSAX AT OR ABOVE 6000",
                "OLIVI": "OLIVI"
            },
            "sub_fixes": [],
            "transitions": []
        },
        {
            "name": "RINE3C",
            "rnw": "09",
            "fixes": {
                "FM040": "FM040",
                "FM044": "OVERFLY FM044 TURN RIGHT DIRECT",
                "FM046": "FM046",
                "RINEX": "RINEX AT OR ABOVE 5000"
            },
            "sub_fixes": [],
            "transitions": []
        },
        {
            "name": "RINE3W",
            "rnw": "27",
            "fixes": {
                "FM050": "FM050",
                "FM004": "OVERFLY FM004 TURN LEFT DIRECT",
                "FM005": "FM005",
                "RINEX": "RINEX AT OR ABOVE 5000"
            },
            "sub_fixes": [],
            "transitions": []
        },
        {
            "name": "ROLS3C",
            "rnw": "09",
            "fixes": {
                "FM040": "FM040",
                "NKRNB": "NKRNB",
                "ROLSO": "ROLSO"
            },
            "sub_fixes": [],
            "transitions": []
        },
        {
            "name": "ROLS3W",
            "rnw": "27",
            "fixes": {
                "FM050": "FM050",
                "FM004": "OVERFLY FM004 TURN LEFT DIRECT",
                "FM005": "FM005",
                "RINEX": "RINEX AT OR ABOVE 5000",
                "NKRNB": "NKRNB",
                "ROLSO": "ROLSO"
            },
            "sub_fixes": [],
            "transitions": []
        },
        {
            "name": "UMDA3C",
            "rnw": "09",
            "fixes": {
                "FM040": "FM040",
                "FM047": "FM047",
                "UMDAS": "UMDAS"
            },
            "sub_fixes": [],
            "transitions": []
        },
        {
            "name": "UMDA3W",
            "rnw": "27",
            "fixes": {
                "FM050": "FM050",
                "FM004": "OVERFLY FM004 TURN LEFT DIRECT",
                "FM005": "FM005",
                "RINEX": "RINEX AT OR ABOVE 5000",
                "UMDAS": "UMDAS"
            },
            "sub_fixes": [],
            "transitions": []
        }
    ],
    "stars": [],
    "approaches": [
        {
            "name": "LOC27",
            "fixes": {
                "CL27": "CL27 AT OR ABOVE 5000",
                "FL27": "FL27 5000",
                "65LOC": "65LOC AT OR ABOVE 2830",
                "35LOC": "35LOC AT OR ABOVE 1650",
                "ML27": "ML27 690 RNW 27 TRK 258 UNTIL 5.0 FROM",
                "MND": "MND",
                "D195Z": "OVERFLY D195Z TURN LEFT DIRECT",
                "RINEX": "RINEX 5000 FAF FL27 MAP ML27"
            },
            "transitions": [
                {
                    "name": "KETEG",
                    "fixes": {
                        "KETEG": "KETEG AT OR ABOVE 5000",
                        "D092O": "D092O AT OR ABOVE 5000"
                    }
                },
                {
                    "name": "RINEX",
                    "fixes": {
                        "RINEX": "RINEX AT OR ABOVE 5000",
                        "NKRNB": "NKRNB AT OR ABOVE 5000",
                        "D050H": "OVERFLY D050H AT OR ABOVE 5000"
                    }
                }
            ]
        },
        {
            "name": "RNAV27",
            "fixes": {
                "FM001": "FM001 5000",
                "EPOMA": "EPOMA 5000 RNW 27",
                "FM003": "FM003",
                "FM004": "OVERFLY FM004 TURN LEFT DIRECT",
                "FM005": "FM005",
                "RINEX": "RINEX 5000 FAF EPOMA MAP RNW 27"
            },
            "transitions": [
                {
                    "name": "KETEG",
                    "fixes": {
                        "KETEG": "KETEG AT OR ABOVE 5000"
                    }
                },
                {
                    "name": "RINEX",
                    "fixes": {
                        "RINEX": "RINEX AT OR ABOVE 5000",
                        "NKRNB": "NKRNB AT OR ABOVE 5000",
                        "FM002": "FM002 5000"
                    }
                }
            ]
        }
    ]
}