{
    "fixes": [
        {
            "name": "14LOC",
            "lat": 58.26425833333333,
            "lon": 22.508997216666668
        },
        {
            "name": "ABRAD",
            "lat": 58.426861116666664,
            "lon": 22.665444433333334
        },
        {
            "name": "ADVES",
            "lat": 58.03222221666667,
            "lon": 22.669
        },
        {
            "name": "BEBVI",
            "lat": 58.12166666666667,
            "lon": 22.511
        },
        {
            "name": "DEVEK",
            "lat": 58.343333333333334,
            "lon": 22.508055566666666
        },
        {
            "name": "EKTER",
            "lat": 58.340555566666666,
            "lon": 22.507777783333335
        },
        {
            "name": "INROK",
            "lat": 58.426,
            "lon": 22.348472216666668
        },
        {
            "name": "KE550",
            "lat": 58.17286111666667,
            "lon": 22.510305566666666
        },
        {
            "name": "KE850",
            "lat": 58.29125,
            "lon": 22.508638883333333
        },
        {
            "name": "MA17",
            "lat": 58.24580278333333,
            "lon": 22.509266666666665
        },
        {
            "name": "OSMIP",
            "lat": 58.03188888333333,
            "lon": 22.51227778333333
        },
        {
            "name": "UDVAS",
            "lat": 58.42666666666667,
            "lon": 22.506944433333334
        },
        {
            "name": "UMVOX",
            "lat": 58.031027783333336,
            "lon": 22.355527783333333
        }
    ],
    "rnws": [
        "RNW 05",
        "RNW 17",
        "RNW 23",
        "RNW 35"
    ],
    "sids": [],
    "stars": [],
    "approaches": [
        {
            "name": "ILS17",
            "fixes": {
                "UDVAS": "UDVAS AT OR ABOVE 2000",
                "EKTER": "EKTER 2000 RNW 17",
                "KE550": "KE550",
                "UMVOX": "UMVOX 2000 HOLD AT UMVOX LEFT TURN INBOUNDCOURSE 082 ALT 2000 LEGTIME 1 FAF EKTER MAP RNW 17"
            },
            "transitions": [
                {
                    "name": "ABRAD",
                    "fixes": {
                        "ABRAD": "ABRAD AT OR ABOVE 3000"
                    }
                },
                {
                    "name": "INROK",
                    "fixes": {
                        "INROK": "INROK AT OR ABOVE 3000"
                    }
                }
            ]
        },
        {
            "name": "LOC17",
            "fixes": {
                "UDVAS": "UDVAS AT OR ABOVE 2000",
                "DEVEK": "DEVEK 2000",
                "14LOC": "14LOC AT OR ABOVE 510",
                "MA17": "MA17 156 RNW 17",
                "KE550": "KE550",
                "UMVOX": "UMVOX 2000 HOLD AT UMVOX LEFT TURN INBOUNDCOURSE 082 ALT 2000 LEGTIME 1 FAF DEVEK MAP MA17"
            },
            "transitions": [
                {
                    "name": "ABRAD",
                    "fixes": {
                        "ABRAD": "ABRAD AT OR ABOVE 3000"
                    }
                },
                {
                    "name": "INROK",
                    "fixes": {
                        "INROK": "INROK AT OR ABOVE 3000"
                    }
                }
            ]
        },
        {
            "name": "RNAV17",
            "fixes": {
                "UDVAS": "UDVAS AT OR ABOVE 2000",
                "DEVEK": "DEVEK 2000 RNW 17",
                "KE550": "KE550",
                "UMVOX": "OVERFLY UMVOX 2000 HOLD AT UMVOX LEFT TURN INBOUNDCOURSE 082 ALT 2000 LEGTIME 1 FAF DEVEK MAP RNW 17"
            },
            "transitions": [
                {
                    "name": "ABRAD",
                    "fixes": {
                        "ABRAD": "ABRAD AT OR ABOVE 3000"
                    }
                },
                {
                    "name": "INROK",
                    "fixes": {
                        "INROK": "INROK AT OR ABOVE 3000"
                    }
                }
            ]
        },
        {
            "name": "RNAV35",
            "fixes": {
                "OSMIP": "OSMIP AT OR ABOVE 2000",
                "BEBVI": "BEBVI 2000 RNW 35",
                "KE850": "KE850",
                "ABRAD": "OVERFLY ABRAD 2000 HOLD AT ABRAD LEFT TURN INBOUNDCOURSE 262 ALT 2000 LEGTIME 1 FAF BEBVI MAP RNW 35"
            },
            "transitions": [
                {
                    "name": "ADVES",
                    "fixes": {
                        "ADVES": "ADVES AT OR ABOVE 3000"
                    }
                },
                {
                    "name": "UMVOX",
                    "fixes": {
                        "UMVOX": "UMVOX AT OR ABOVE 3000"
                    }
                }
            ]
        }
    ]
}