{
    "fixes": [
        {
            "name": "ANFIC",
            "lat": 58.534816666666664,
            "lon": 24.825302783333335
        },
        {
            "name": "ASWIB",
            "lat": 58.63133333333333,
            "lon": 24.566055566666666
        },
        {
            "name": "KURWA",
            "lat": 58.27644721666667,
            "lon": 24.281691666666667
        },
        {
            "name": "PU003",
            "lat": 58.344419433333336,
            "lon": 24.372705566666667
        },
        {
            "name": "PU021",
            "lat": 58.49620278333333,
            "lon": 24.577541666666665
        },
        {
            "name": "REBOC",
            "lat": 58.32420833333333,
            "lon": 24.152433333333335
        },
        {
            "name": "TICWA",
            "lat": 58.22851943333333,
            "lon": 24.410555566666666
        },
        {
            "name": "UNVAC",
            "lat": 58.58313888333333,
            "lon": 24.695858333333334
        }
    ],
    "rnws": [
        "RNW 03",
        "RNW 21"
    ],
    "sids": [],
    "stars": [],
    "approaches": [
        {
            "name": "RNAV03",
            "fixes": {
                "KURWA": "KURWA AT OR ABOVE 2700",
                "PU003": "PU003 1700 RNW 03",
                "UNVAC": "OVERFLY UNVAC 2000 HOLD AT UNVAC RIGHT TURN INBOUNDCOURSE 027 ALT 2000 SPEED 210 LEGTIME 1 FAF PU003 MAP RNW 03"
            },
            "transitions": [
                {
                    "name": "REBOC",
                    "fixes": {
                        "REBOC": "REBOC AT OR ABOVE 2700"
                    }
                },
                {
                    "name": "TICWA",
                    "fixes": {
                        "TICWA": "TICWA AT OR ABOVE 2700"
                    }
                }
            ]
        },
        {
            "name": "RNAV21",
            "fixes": {
                "UNVAC": "UNVAC AT OR ABOVE 3000",
                "PU021": "PU021 1700 RNW 21",
                "KURWA": "OVERFLY KURWA 1700 HOLD AT KURWA RIGHT TURN INBOUNDCOURSE 027 ALT 1700 SPEED 210 LEGTIME 1 FAF PU021 MAP RNW 21"
            },
            "transitions": [
                {
                    "name": "ANFIC",
                    "fixes": {
                        "ANFIC": "ANFIC AT OR ABOVE 3000"
                    }
                },
                {
                    "name": "ASWIB",
                    "fixes": {
                        "ASWIB": "ASWIB AT OR ABOVE 3000"
                    }
                }
            ]
        }
    ]
}