{
    "fixes": [
        {
            "name": "50VOR",
            "lat": 60.264408333333336,
            "lon": 25.032266666666665
        },
        {
            "name": "ADIVO",
            "lat": 60.2975,
            "lon": 23.981388883333334
        },
        {
            "name": "ARADE",
            "lat": 60.387777783333334,
            "lon": 25.568888883333333
        },
        {
            "name": "ARVEP",
            "lat": 60.24944443333333,
            "lon": 26.399166666666666
        },
        {
            "name": "ASPIT",
            "lat": 60.19912778333333,
            "lon": 24.409591666666667
        },
        {
            "name": "BALTI",
            "lat": 59.90416666666667,
            "lon": 25.251666666666665
        },
        {
            "name": "BAMEB",
            "lat": 60.16165,
            "lon": 25.141955566666667
        },
        {
            "name": "BIFIX",
            "lat": 60.46266943333333,
            "lon": 25.271875
        },
        {
            "name": "DIPMO",
            "lat": 60.201886116666664,
            "lon": 24.696941666666667
        },
        {
            "name": "DIVAM",
            "lat": 59.848333333333336,
            "lon": 23.593611116666665
        },
        {
            "name": "EESTI",
            "lat": 60.08111111666667,
            "lon": 25.406666666666666
        },
        {
            "name": "EHOTE",
            "lat": 60.0175,
            "lon": 24.488888883333335
        },
        {
            "name": "ELKUN",
            "lat": 60.45641943333333,
            "lon": 24.834527783333332
        },
        {
            "name": "EMPEV",
            "lat": 60.238244433333335,
            "lon": 24.740277783333333
        },
        {
            "name": "ENUTO",
            "lat": 60.48138888333333,
            "lon": 24.775555566666668
        },
        {
            "name": "FANNI",
            "lat": 60.56135833333333,
            "lon": 25.205022216666666
        },
        {
            "name": "FD33",
            "lat": 60.235033333333334,
            "lon": 25.063583333333334
        },
        {
            "name": "GONAP",
            "lat": 60.16803888333333,
            "lon": 24.623408333333334
        },
        {
            "name": "GUMVO",
            "lat": 60.39391666666667,
            "lon": 25.118897216666667
        },
        {
            "name": "HEL",
            "lat": 60.33781666666667,
            "lon": 24.953730566666668
        },
        {
            "name": "HELPO",
            "lat": 60.47118056666667,
            "lon": 24.461697216666668
        },
        {
            "name": "HG",
            "lat": 60.31389443333333,
            "lon": 24.938883333333333
        },
        {
            "name": "HK",
            "lat": 60.32971666666667,
            "lon": 24.973672216666667
        },
        {
            "name": "HK416",
            "lat": 60.397930566666666,
            "lon": 25.127797216666668
        },
        {
            "name": "HK428",
            "lat": 60.2682,
            "lon": 24.772547216666666
        },
        {
            "name": "HK451",
            "lat": 60.30466666666667,
            "lon": 24.78194166666667
        },
        {
            "name": "HK461",
            "lat": 60.31826111666667,
            "lon": 24.773625
        },
        {
            "name": "HK610",
            "lat": 60.352241666666664,
            "lon": 24.990402783333334
        },
        {
            "name": "HK611",
            "lat": 60.29743611666667,
            "lon": 24.869805566666667
        },
        {
            "name": "HK711",
            "lat": 60.272163883333334,
            "lon": 25.098308333333332
        },
        {
            "name": "HK766",
            "lat": 60.26473611666667,
            "lon": 25.081922216666666
        },
        {
            "name": "HK804",
            "lat": 60.10170278333333,
            "lon": 24.724994433333332
        },
        {
            "name": "HK805",
            "lat": 60.11333333333334,
            "lon": 25.25
        },
        {
            "name": "HK806",
            "lat": 59.98053611666667,
            "lon": 25.316877783333332
        },
        {
            "name": "HK807",
            "lat": 60.417833333333334,
            "lon": 25.420361116666665
        },
        {
            "name": "HK817",
            "lat": 60.355241666666664,
            "lon": 25.126969433333333
        },
        {
            "name": "HK856",
            "lat": 60.24883333333333,
            "lon": 24.763391666666667
        },
        {
            "name": "HK859",
            "lat": 60.28581943333333,
            "lon": 25.010030566666668
        },
        {
            "name": "HK860",
            "lat": 60.244336116666666,
            "lon": 24.78954166666667
        },
        {
            "name": "HK862",
            "lat": 60.35663056666667,
            "lon": 24.749052783333333
        },
        {
            "name": "HK863",
            "lat": 60.33128056666666,
            "lon": 25.151394433333333
        },
        {
            "name": "HK864",
            "lat": 60.29700556666667,
            "lon": 24.904963883333334
        },
        {
            "name": "HK866",
            "lat": 60.35392778333333,
            "lon": 25.030372216666667
        },
        {
            "name": "HK871",
            "lat": 60.434066666666666,
            "lon": 24.503836116666665
        },
        {
            "name": "HK890",
            "lat": 60.59819443333333,
            "lon": 25.287527783333335
        },
        {
            "name": "HK891",
            "lat": 60.31497778333333,
            "lon": 25.19305
        },
        {
            "name": "HK897",
            "lat": 60.41336666666667,
            "lon": 24.876641666666668
        },
        {
            "name": "HK900",
            "lat": 60.23113333333333,
            "lon": 25.065852783333334
        },
        {
            "name": "HK902",
            "lat": 60.69212778333333,
            "lon": 25.281525
        },
        {
            "name": "HK903",
            "lat": 60.40612778333333,
            "lon": 24.946427783333334
        },
        {
            "name": "HK908",
            "lat": 60.43444443333333,
            "lon": 24.74611111666667
        },
        {
            "name": "HK909",
            "lat": 60.34005556666666,
            "lon": 24.681041666666665
        },
        {
            "name": "HK911",
            "lat": 60.50694443333333,
            "lon": 24.868888883333334
        },
        {
            "name": "HK912",
            "lat": 60.34,
            "lon": 25.375833333333333
        },
        {
            "name": "HK913",
            "lat": 60.23583333333333,
            "lon": 25.376388883333334
        },
        {
            "name": "HK914",
            "lat": 60.283991666666665,
            "lon": 25.26651388333333
        },
        {
            "name": "HK917",
            "lat": 60.31222221666667,
            "lon": 25.345833333333335
        },
        {
            "name": "HK918",
            "lat": 60.663333333333334,
            "lon": 25.008055566666666
        },
        {
            "name": "HK919",
            "lat": 60.35583333333334,
            "lon": 25.354166666666668
        },
        {
            "name": "HK921",
            "lat": 60.229166666666664,
            "lon": 24.897222216666666
        },
        {
            "name": "HK923",
            "lat": 60.14915,
            "lon": 24.804447216666667
        },
        {
            "name": "HK924",
            "lat": 60.203888883333335,
            "lon": 24.977222216666668
        },
        {
            "name": "HK926",
            "lat": 60.243888883333334,
            "lon": 24.484166666666667
        },
        {
            "name": "HK927",
            "lat": 60.110113883333334,
            "lon": 24.392894433333332
        },
        {
            "name": "HK928",
            "lat": 60.29722221666667,
            "lon": 24.661944433333332
        },
        {
            "name": "HK929",
            "lat": 60.07,
            "lon": 24.574722216666668
        },
        {
            "name": "HK932",
            "lat": 60.32597221666666,
            "lon": 24.684941666666667
        },
        {
            "name": "HK933",
            "lat": 60.18798056666667,
            "lon": 24.913169433333334
        },
        {
            "name": "HK934",
            "lat": 60.3625,
            "lon": 24.613611116666668
        },
        {
            "name": "HK935",
            "lat": 60.313888883333334,
            "lon": 24.589444433333334
        },
        {
            "name": "HK936",
            "lat": 60.34918056666667,
            "lon": 24.530755566666667
        },
        {
            "name": "HK937",
            "lat": 60.38005,
            "lon": 24.594538883333332
        },
        {
            "name": "HK938",
            "lat": 60.14289721666667,
            "lon": 25.099675
        },
        {
            "name": "HK939",
            "lat": 60.446388883333334,
            "lon": 25.214166666666667
        },
        {
            "name": "HK940",
            "lat": 60.745277783333336,
            "lon": 25.4
        },
        {
            "name": "HK941",
            "lat": 60.43472778333334,
            "lon": 25.04564166666667
        },
        {
            "name": "HK942",
            "lat": 60.47360556666667,
            "lon": 24.613325
        },
        {
            "name": "HK943",
            "lat": 60.23207778333333,
            "lon": 25.204997216666666
        },
        {
            "name": "HK944",
            "lat": 60.22872221666667,
            "lon": 25.19955
        },
        {
            "name": "HK945",
            "lat": 59.98,
            "lon": 24.247777783333333
        },
        {
            "name": "HK946",
            "lat": 60.311563883333335,
            "lon": 25.186080566666668
        },
        {
            "name": "HK947",
            "lat": 60.19530278333333,
            "lon": 24.915091666666665
        },
        {
            "name": "HK948",
            "lat": 60.27043333333334,
            "lon": 25.213247216666666
        },
        {
            "name": "HK949",
            "lat": 60.32261943333334,
            "lon": 25.343572216666665
        },
        {
            "name": "HK950",
            "lat": 60.61083333333333,
            "lon": 25.071111116666668
        },
        {
            "name": "HK951",
            "lat": 60.44433888333333,
            "lon": 24.941433333333332
        },
        {
            "name": "HK953",
            "lat": 60.063611116666664,
            "lon": 25.150277783333333
        },
        {
            "name": "HK954",
            "lat": 60.0,
            "lon": 23.948055566666667
        },
        {
            "name": "HK955",
            "lat": 60.11083333333333,
            "lon": 23.9925
        },
        {
            "name": "HK956",
            "lat": 60.45527778333334,
            "lon": 25.7175
        },
        {
            "name": "HK957",
            "lat": 60.104444433333335,
            "lon": 24.191111116666665
        },
        {
            "name": "HK958",
            "lat": 60.28333333333333,
            "lon": 24.539722216666668
        },
        {
            "name": "HK959",
            "lat": 60.345,
            "lon": 24.73
        },
        {
            "name": "HL",
            "lat": 60.32833611666667,
            "lon": 24.968922216666666
        },
        {
            "name": "IDEPI",
            "lat": 60.71083333333333,
            "lon": 25.794166666666666
        },
        {
            "name": "IDMOP",
            "lat": 60.40083333333333,
            "lon": 25.0525
        },
        {
            "name": "INTOR",
            "lat": 59.82777778333333,
            "lon": 25.186666666666667
        },
        {
            "name": "KAAVI",
            "lat": 60.534016666666666,
            "lon": 25.140427783333333
        },
        {
            "name": "KENON",
            "lat": 60.40105833333333,
            "lon": 25.384727783333332
        },
        {
            "name": "KOIVU",
            "lat": 59.84472221666667,
            "lon": 24.665277783333334
        },
        {
            "name": "KUKKA",
            "lat": 60.62504166666667,
            "lon": 25.131180566666668
        },
        {
            "name": "KUVEM",
            "lat": 60.19055556666667,
            "lon": 23.937222216666665
        },
        {
            "name": "LAKUT",
            "lat": 60.43805556666667,
            "lon": 23.876388883333334
        },
        {
            "name": "LASTU",
            "lat": 60.500422216666664,
            "lon": 25.065675
        },
        {
            "name": "LOHIG",
            "lat": 60.13548611666667,
            "lon": 24.79849443333333
        },
        {
            "name": "LULAB",
            "lat": 60.505833333333335,
            "lon": 25.131666666666668
        },
        {
            "name": "LUSEP",
            "lat": 60.95222221666667,
            "lon": 25.264722216666666
        },
        {
            "name": "MALKE",
            "lat": 60.23788056666667,
            "lon": 24.493358333333333
        },
        {
            "name": "MAMOP",
            "lat": 60.575,
            "lon": 25.984444433333334
        },
        {
            "name": "MAROM",
            "lat": 60.447777783333336,
            "lon": 24.043611116666668
        },
        {
            "name": "MEHAK",
            "lat": 60.426075,
            "lon": 25.153891666666667
        },
        {
            "name": "MILLI",
            "lat": 60.487488883333334,
            "lon": 25.040513883333333
        },
        {
            "name": "NAHOP",
            "lat": 60.535555566666666,
            "lon": 25.148611116666668
        },
        {
            "name": "NAPUN",
            "lat": 60.82805556666667,
            "lon": 25.272777783333332
        },
        {
            "name": "NEKKU",
            "lat": 60.27179443333333,
            "lon": 24.566922216666665
        },
        {
            "name": "NEMVI",
            "lat": 60.26706943333333,
            "lon": 24.556658333333335
        },
        {
            "name": "NEPEK",
            "lat": 60.7425,
            "lon": 24.485555566666665
        },
        {
            "name": "NIDAG",
            "lat": 60.1975,
            "lon": 24.847222216666665
        },
        {
            "name": "NOFOX",
            "lat": 60.35558888333333,
            "lon": 25.283269433333334
        },
        {
            "name": "NUNTO",
            "lat": 60.08361111666667,
            "lon": 23.893611116666666
        },
        {
            "name": "OBONU",
            "lat": 60.158794433333334,
            "lon": 25.139372216666665
        },
        {
            "name": "OBUPU",
            "lat": 60.413302783333336,
            "lon": 24.879077783333333
        },
        {
            "name": "ORILE",
            "lat": 60.14075833333333,
            "lon": 24.809983333333335
        },
        {
            "name": "PENAD",
            "lat": 60.278333333333336,
            "lon": 25.493333333333332
        },
        {
            "name": "PERHO",
            "lat": 60.49980278333334,
            "lon": 25.318344433333333
        },
        {
            "name": "PEXEN",
            "lat": 59.913055566666664,
            "lon": 23.824444433333333
        },
        {
            "name": "PODOM",
            "lat": 60.20580278333333,
            "lon": 24.669602783333332
        },
        {
            "name": "RAHTU",
            "lat": 60.58815,
            "lon": 25.516997216666667
        },
        {
            "name": "REDBO",
            "lat": 60.427222216666664,
            "lon": 24.864444433333333
        },
        {
            "name": "RENKU",
            "lat": 59.88583333333333,
            "lon": 24.896694433333334
        },
        {
            "name": "RIPVI",
            "lat": 60.27333333333333,
            "lon": 24.585277783333332
        },
        {
            "name": "ROHJA",
            "lat": 60.20194443333333,
            "lon": 24.190833333333334
        },
        {
            "name": "ROPAM",
            "lat": 60.13305556666667,
            "lon": 25.601666666666667
        },
        {
            "name": "RULLI",
            "lat": 60.13825,
            "lon": 24.52314721666667
        },
        {
            "name": "SELLU",
            "lat": 60.61388888333333,
            "lon": 25.107222216666667
        },
        {
            "name": "SOPOS",
            "lat": 60.12122778333333,
            "lon": 24.990713883333335
        },
        {
            "name": "SUTAX",
            "lat": 60.49396111666667,
            "lon": 24.984744433333333
        },
        {
            "name": "TEVRU",
            "lat": 60.821111116666664,
            "lon": 24.824722216666668
        },
        {
            "name": "TIXED",
            "lat": 60.42905278333333,
            "lon": 25.19694721666667
        },
        {
            "name": "TOPPI",
            "lat": 60.196191666666664,
            "lon": 25.288369433333333
        },
        {
            "name": "UREDA",
            "lat": 60.23888888333333,
            "lon": 24.623055566666668
        },
        {
            "name": "VALOX",
            "lat": 59.73166666666667,
            "lon": 24.138888883333333
        },
        {
            "name": "VAVIS",
            "lat": 60.235,
            "lon": 24.844166666666666
        },
        {
            "name": "VEMMI",
            "lat": 60.36758888333333,
            "lon": 25.310052783333333
        },
        {
            "name": "VEPIN",
            "lat": 60.63138888333334,
            "lon": 26.333055566666665
        },
        {
            "name": "VIBEP",
            "lat": 60.45916666666667,
            "lon": 24.24416666666667
        },
        {
            "name": "VISSI",
            "lat": 60.106980566666664,
            "lon": 24.736461116666668
        },
        {
            "name": "XELBU",
            "lat": 60.39343611666666,
            "lon": 25.08147221666667
        }
    ],
    "rnws": [
        "RNW 04L",
        "RNW 04R",
        "RNW 15",
        "RNW 22L",
        "RNW 22R",
        "RNW 33"
    ],
    "sids": [
        {
            "name": "ADIV3N",
            "rnw": "22R",
            "fixes": {
                "HEL": "HEL",
                "HK461": "HK461",
                "HK935": "HK935 SPEED 250",
                "ADIVO": "ADIVO"
            },
            "sub_fixes": [],
            "transitions": []
        },
        {
            "name": "ADIV3P",
            "rnw": "33",
            "fixes": {
                "HK928": "HK928 SPEED 250",
                "ADIVO": "ADIVO"
            },
            "sub_fixes": [],
            "transitions": []
        },
        {
            "name": "ADIV3Z",
            "rnw": "04L",
            "fixes": {
                "HK903": "HK903 SPEED 230",
                "HK908": "HK908 SPEED 250",
                "ADIVO": "ADIVO"
            },
            "sub_fixes": [],
            "transitions": []
        },
        {
            "name": "ADIV4C",
            "rnw": "04R",
            "fixes": {
                "HK416": "HK416",
                "LULAB": "LULAB SPEED 250",
                "HK911": "HK911",
                "ADIVO": "ADIVO"
            },
            "sub_fixes": [],
            "transitions": []
        },
        {
            "name": "ADIV4D",
            "rnw": "15",
            "fixes": {
                "HK921": "HK921 SPEED 220",
                "RIPVI": "RIPVI SPEED 250",
                "ADIVO": "ADIVO"
            },
            "sub_fixes": [],
            "transitions": []
        },
        {
            "name": "ARVE3D",
            "rnw": "15",
            "fixes": {
                "HK914": "HK914 SPEED 250",
                "ARVEP": "ARVEP"
            },
            "sub_fixes": [],
            "transitions": []
        },
        {
            "name": "ARVE3F",
            "rnw": "22L",
            "fixes": {
                "VAVIS": "VAVIS SPEED 230 TURN LEFT DIRECT",
                "HK924": "HK924 SPEED 230",
                "PENAD": "PENAD",
                "ARVEP": "ARVEP"
            },
            "sub_fixes": [],
            "transitions": []
        },
        {
            "name": "ARVE3N",
            "rnw": "22R",
            "fixes": {
                "HEL": "HEL",
                "HK461": "HK461",
                "HK934": "HK934 SPEED 250 TURN RIGHT DIRECT",
                "ENUTO": "ENUTO",
                "ARVEP": "ARVEP"
            },
            "sub_fixes": [],
            "transitions": []
        },
        {
            "name": "ARVE3P",
            "rnw": "33",
            "fixes": {
                "IDMOP": "IDMOP SPEED 230",
                "ARVEP": "ARVEP"
            },
            "sub_fixes": [],
            "transitions": []
        },
        {
            "name": "ARVE4C",
            "rnw": "04R",
            "fixes": {
                "HK416": "HK416",
                "HK912": "HK912 SPEED 250",
                "ARVEP": "ARVEP"
            },
            "sub_fixes": [],
            "transitions": []
        },
        {
            "name": "IDEP3D",
            "rnw": "15",
            "fixes": {
                "HK914": "HK914 SPEED 250",
                "HK919": "HK919 SPEED 250",
                "IDEPI": "IDEPI"
            },
            "sub_fixes": [],
            "transitions": []
        },
        {
            "name": "IDEP3F",
            "rnw": "22L",
            "fixes": {
                "VAVIS": "VAVIS SPEED 230 TURN LEFT DIRECT",
                "HK924": "HK924 SPEED 230",
                "PENAD": "PENAD",
                "IDEPI": "IDEPI"
            },
            "sub_fixes": [],
            "transitions": []
        },
        {
            "name": "IDEP3N",
            "rnw": "22R",
            "fixes": {
                "HEL": "HEL",
                "HK461": "HK461",
                "HK934": "HK934 SPEED 250",
                "ENUTO": "ENUTO",
                "IDEPI": "IDEPI"
            },
            "sub_fixes": [],
            "transitions": []
        },
        {
            "name": "IDEP3P",
            "rnw": "33",
            "fixes": {
                "IDMOP": "IDMOP SPEED 230",
                "IDEPI": "IDEPI"
            },
            "sub_fixes": [],
            "transitions": []
        },
        {
            "name": "IDEP4C",
            "rnw": "04R",
            "fixes": {
                "HK416": "HK416",
                "IDEPI": "IDEPI"
            },
            "sub_fixes": [],
            "transitions": []
        },
        {
            "name": "KOIV3D",
            "rnw": "15",
            "fixes": {
                "NIDAG": "NIDAG SPEED 250",
                "KOIVU": "KOIVU"
            },
            "sub_fixes": [],
            "transitions": []
        },
        {
            "name": "KOIV3F",
            "rnw": "22L",
            "fixes": {
                "VAVIS": "VAVIS SPEED 230",
                "HK923": "HK923 SPEED 230",
                "KOIVU": "KOIVU"
            },
            "sub_fixes": [],
            "transitions": []
        },
        {
            "name": "KOIV3N",
            "rnw": "22R",
            "fixes": {
                "HEL": "HEL",
                "HK451": "HK451",
                "HK926": "HK926 SPEED 250",
                "HK927": "HK927",
                "KOIVU": "KOIVU"
            },
            "sub_fixes": [],
            "transitions": []
        },
        {
            "name": "KOIV3P",
            "rnw": "33",
            "fixes": {
                "HK928": "HK928 SPEED 250",
                "HK929": "HK929",
                "KOIVU": "KOIVU"
            },
            "sub_fixes": [],
            "transitions": []
        },
        {
            "name": "KOIV3Q",
            "rnw": "22R",
            "fixes": {
                "HEL": "HEL",
                "HK428": "HK428",
                "UREDA": "UREDA SPEED 250",
                "KOIVU": "KOIVU"
            },
            "sub_fixes": [],
            "transitions": []
        },
        {
            "name": "KOIV3Z",
            "rnw": "04L",
            "fixes": {
                "HK903": "HK903 SPEED 230",
                "HK908": "HK908 SPEED 250",
                "HK909": "HK909 AT OR ABOVE 4000",
                "KOIVU": "KOIVU"
            },
            "sub_fixes": [],
            "transitions": []
        },
        {
            "name": "KOIV4C",
            "rnw": "04R",
            "fixes": {
                "HK416": "HK416",
                "HK912": "HK912 SPEED 250",
                "HK913": "HK913",
                "KOIVU": "KOIVU"
            },
            "sub_fixes": [],
            "transitions": []
        },
        {
            "name": "KUVE3N",
            "rnw": "22R",
            "fixes": {
                "HEL": "HEL",
                "HK451": "HK451",
                "HK926": "HK926 SPEED 250",
                "KUVEM": "KUVEM"
            },
            "sub_fixes": [],
            "transitions": []
        },
        {
            "name": "KUVE3P",
            "rnw": "33",
            "fixes": {
                "HK928": "HK928 SPEED 250",
                "KUVEM": "KUVEM"
            },
            "sub_fixes": [],
            "transitions": []
        },
        {
            "name": "KUVE3Z",
            "rnw": "04L",
            "fixes": {
                "HK903": "HK903 SPEED 230",
                "HK908": "HK908 SPEED 250",
                "KUVEM": "KUVEM"
            },
            "sub_fixes": [],
            "transitions": []
        },
        {
            "name": "KUVE4C",
            "rnw": "04R",
            "fixes": {
                "HK416": "HK416",
                "LULAB": "LULAB SPEED 250",
                "HK911": "HK911",
                "KUVEM": "KUVEM"
            },
            "sub_fixes": [],
            "transitions": []
        },
        {
            "name": "KUVE4D",
            "rnw": "15",
            "fixes": {
                "HK921": "HK921 SPEED 220",
                "RIPVI": "RIPVI SPEED 250",
                "KUVEM": "KUVEM"
            },
            "sub_fixes": [],
            "transitions": []
        },
        {
            "name": "NEPE3D",
            "rnw": "15",
            "fixes": {
                "HK914": "HK914 SPEED 250",
                "HK919": "HK919 SPEED 250",
                "HK918": "HK918",
                "NEPEK": "NEPEK"
            },
            "sub_fixes": [],
            "transitions": []
        },
        {
            "name": "NEPE3N",
            "rnw": "22R",
            "fixes": {
                "HEL": "HEL",
                "HK461": "HK461",
                "HK934": "HK934 SPEED 250",
                "NEPEK": "NEPEK"
            },
            "sub_fixes": [],
            "transitions": []
        },
        {
            "name": "NEPE3P",
            "rnw": "33",
            "fixes": {
                "REDBO": "REDBO SPEED 250",
                "NEPEK": "NEPEK"
            },
            "sub_fixes": [],
            "transitions": []
        },
        {
            "name": "NEPE3Z",
            "rnw": "04L",
            "fixes": {
                "HK903": "HK903 SPEED 230",
                "NEPEK": "NEPEK"
            },
            "sub_fixes": [],
            "transitions": []
        },
        {
            "name": "NEPE4C",
            "rnw": "04R",
            "fixes": {
                "HK416": "HK416",
                "LULAB": "LULAB SPEED 250",
                "NEPEK": "NEPEK"
            },
            "sub_fixes": [],
            "transitions": []
        },
        {
            "name": "NUNT3N",
            "rnw": "22R",
            "fixes": {
                "HEL": "HEL",
                "HK451": "HK451",
                "HK926": "HK926 SPEED 250",
                "NUNTO": "NUNTO"
            },
            "sub_fixes": [],
            "transitions": []
        },
        {
            "name": "NUNT3P",
            "rnw": "33",
            "fixes": {
                "HK928": "HK928 SPEED 250",
                "NUNTO": "NUNTO"
            },
            "sub_fixes": [],
            "transitions": []
        },
        {
            "name": "NUNT3Z",
            "rnw": "04L",
            "fixes": {
                "HK903": "HK903 SPEED 230",
                "HK908": "HK908 SPEED 250",
                "NUNTO": "NUNTO"
            },
            "sub_fixes": [],
            "transitions": []
        },
        {
            "name": "NUNT4C",
            "rnw": "04R",
            "fixes": {
                "HK416": "HK416",
                "LULAB": "LULAB SPEED 250",
                "HK911": "HK911",
                "NUNTO": "NUNTO"
            },
            "sub_fixes": [],
            "transitions": []
        },
        {
            "name": "NUNT4D",
            "rnw": "15",
            "fixes": {
                "HK921": "HK921 SPEED 220",
                "RIPVI": "RIPVI SPEED 250",
                "NUNTO": "NUNTO"
            },
            "sub_fixes": [],
            "transitions": []
        },
        {
            "name": "RENK3D",
            "rnw": "15",
            "fixes": {
                "NIDAG": "NIDAG SPEED 250",
                "RENKU": "RENKU"
            },
            "sub_fixes": [],
            "transitions": []
        },
        {
            "name": "RENK3F",
            "rnw": "22L",
            "fixes": {
                "VAVIS": "VAVIS SPEED 230",
                "HK923": "HK923 SPEED 230",
                "RENKU": "RENKU"
            },
            "sub_fixes": [],
            "transitions": []
        },
        {
            "name": "RENK3N",
            "rnw": "22R",
            "fixes": {
                "HEL": "HEL",
                "HK451": "HK451",
                "HK926": "HK926 SPEED 250",
                "HK927": "HK927",
                "RENKU": "RENKU"
            },
            "sub_fixes": [],
            "transitions": []
        },
        {
            "name": "RENK3P",
            "rnw": "33",
            "fixes": {
                "HK928": "HK928 SPEED 250",
                "HK929": "HK929",
                "RENKU": "RENKU"
            },
            "sub_fixes": [],
            "transitions": []
        },
        {
            "name": "RENK3Q",
            "rnw": "22R",
            "fixes": {
                "HEL": "HEL",
                "HK428": "HK428",
                "UREDA": "UREDA SPEED 250",
                "RENKU": "RENKU"
            },
            "sub_fixes": [],
            "transitions": []
        },
        {
            "name": "RENK3Z",
            "rnw": "04L",
            "fixes": {
                "HK903": "HK903 SPEED 230",
                "HK908": "HK908 SPEED 250",
                "HK909": "HK909 AT OR ABOVE 4000",
                "RENKU": "RENKU"
            },
            "sub_fixes": [],
            "transitions": []
        },
        {
            "name": "RENK4C",
            "rnw": "04R",
            "fixes": {
                "HK416": "HK416",
                "HK912": "HK912 SPEED 250",
                "HK913": "HK913",
                "RENKU": "RENKU"
            },
            "sub_fixes": [],
            "transitions": []
        },
        {
            "name": "ROPA2F",
            "rnw": "22L",
            "fixes": {
                "VAVIS": "VAVIS SPEED 230 TURN LEFT DIRECT",
                "HK924": "HK924 SPEED 230",
                "ROPAM": "ROPAM"
            },
            "sub_fixes": [],
            "transitions": []
        },
        {
            "name": "ROPA2S",
            "rnw": "04R",
            "fixes": {
                "HK917": "HK917",
                "ROPAM": "ROPAM"
            },
            "sub_fixes": [],
            "transitions": []
        },
        {
            "name": "TEVR3D",
            "rnw": "15",
            "fixes": {
                "HK914": "HK914 SPEED 250",
                "HK919": "HK919 SPEED 250",
                "HK918": "HK918",
                "TEVRU": "TEVRU"
            },
            "sub_fixes": [],
            "transitions": []
        },
        {
            "name": "TEVR3N",
            "rnw": "22R",
            "fixes": {
                "HEL": "HEL",
                "HK461": "HK461",
                "HK934": "HK934 SPEED 250",
                "TEVRU": "TEVRU"
            },
            "sub_fixes": [],
            "transitions": []
        },
        {
            "name": "TEVR3P",
            "rnw": "33",
            "fixes": {
                "REDBO": "REDBO SPEED 250",
                "TEVRU": "TEVRU"
            },
            "sub_fixes": [],
            "transitions": []
        },
        {
            "name": "TEVR3Z",
            "rnw": "04L",
            "fixes": {
                "HK903": "HK903 SPEED 230",
                "TEVRU": "TEVRU"
            },
            "sub_fixes": [],
            "transitions": []
        },
        {
            "name": "TEVR4C",
            "rnw": "04R",
            "fixes": {
                "HK416": "HK416",
                "LULAB": "LULAB SPEED 250",
                "TEVRU": "TEVRU"
            },
            "sub_fixes": [],
            "transitions": []
        },
        {
            "name": "VALO3D",
            "rnw": "15",
            "fixes": {
                "NIDAG": "NIDAG SPEED 250",
                "VALOX": "VALOX"
            },
            "sub_fixes": [],
            "transitions": []
        },
        {
            "name": "VALO3F",
            "rnw": "22L",
            "fixes": {
                "VAVIS": "VAVIS SPEED 230",
                "HK923": "HK923 SPEED 230",
                "VALOX": "VALOX"
            },
            "sub_fixes": [],
            "transitions": []
        },
        {
            "name": "VALO3N",
            "rnw": "22R",
            "fixes": {
                "HEL": "HEL",
                "HK451": "HK451",
                "HK926": "HK926 SPEED 250",
                "HK927": "HK927",
                "VALOX": "VALOX"
            },
            "sub_fixes": [],
            "transitions": []
        },
        {
            "name": "VALO3P",
            "rnw": "33",
            "fixes": {
                "HK928": "HK928 SPEED 250",
                "HK929": "HK929",
                "VALOX": "VALOX"
            },
            "sub_fixes": [],
            "transitions": []
        },
        {
            "name": "VALO3Q",
            "rnw": "22R",
            "fixes": {
                "HEL": "HEL",
                "HK428": "HK428",
                "UREDA": "UREDA SPEED 250",
                "VALOX": "VALOX"
            },
            "sub_fixes": [],
            "transitions": []
        },
        {
            "name": "VALO3Z",
            "rnw": "04L",
            "fixes": {
                "HK903": "HK903 SPEED 230",
                "HK908": "HK908 SPEED 250",
                "HK909": "HK909 AT OR ABOVE 4000",
                "VALOX": "VALOX"
            },
            "sub_fixes": [],
            "transitions": []
        },
        {
            "name": "VALO4C",
            "rnw": "04R",
            "fixes": {
                "HK416": "HK416",
                "HK912": "HK912 SPEED 250",
                "HK913": "HK913",
                "VALOX": "VALOX"
            },
            "sub_fixes": [],
            "transitions": []
        }
    ],
    "stars": [
        {
            "name": "DIVA3M",
            "runway": "RNW 15",
            "fixes": {
                "DIVAM": "DIVAM AT OR ABOVE 10000",
                "PEXEN": "PEXEN SPEED 250",
                "HK804": "HK804",
                "HK766": "HK766",
                "HK817": "HK817",
                "HK941": "HK941",
                "SUTAX": "SUTAX AT OR ABOVE 2000 SPEED 220 TRK 324 VECTORS"
            }
        },
        {
            "name": "DIVA3W",
            "runway": "RNW 33",
            "fixes": {
                "DIVAM": "DIVAM AT OR ABOVE 10000",
                "PEXEN": "PEXEN SPEED 250",
                "HK947": "HK947 TURN RIGHT DIRECT",
                "SOPOS": "SOPOS AT OR ABOVE 3000 SPEED 220 TRK 144 VECTORS"
            }
        },
        {
            "name": "DIVA4A",
            "runway": "RNW 22L",
            "fixes": {
                "DIVAM": "DIVAM AT OR ABOVE 10000",
                "PEXEN": "PEXEN SPEED 250",
                "HK804": "HK804",
                "HK891": "HK891",
                "VEMMI": "VEMMI AT OR ABOVE 3000 SPEED 220",
                "KENON": "KENON AT OR ABOVE 3000 SPEED 220 TRK 038 VECTORS"
            }
        },
        {
            "name": "DIVA4B",
            "runway": "RNW 04L",
            "fixes": {
                "DIVAM": "DIVAM AT OR ABOVE 10000",
                "PEXEN": "PEXEN SPEED 250",
                "HK945": "HK945 AT OR ABOVE 3000",
                "EHOTE": "EHOTE AT OR ABOVE 2300 SPEED 220 TRK 063 VECTORS"
            }
        },
        {
            "name": "DIVA4R",
            "runway": "RNW 04R",
            "fixes": {
                "DIVAM": "DIVAM AT OR ABOVE 10000",
                "PEXEN": "PEXEN SPEED 250",
                "HK945": "HK945 AT OR ABOVE 3300",
                "EHOTE": "EHOTE AT OR ABOVE 3300 SPEED 220 TRK 063 VECTORS"
            }
        },
        {
            "name": "DIVA4V",
            "runway": "RNW 22R",
            "fixes": {
                "DIVAM": "DIVAM AT OR ABOVE 10000",
                "PEXEN": "PEXEN SPEED 250",
                "HK957": "HK957",
                "HK958": "HK958",
                "HK959": "HK959",
                "HK897": "HK897",
                "MILLI": "MILLI AT OR ABOVE 2000 SPEED 220 TRK 038 VECTORS"
            }
        },
        {
            "name": "INTO5A",
            "runway": "RNW 22L",
            "fixes": {
                "INTOR": "INTOR AT OR ABOVE 12000",
                "BALTI": "BALTI SPEED 250",
                "HK943": "HK943",
                "HK891": "HK891",
                "VEMMI": "VEMMI AT OR ABOVE 3000 SPEED 220",
                "KENON": "KENON AT OR ABOVE 3000 SPEED 220 TRK 038 VECTORS"
            }
        },
        {
            "name": "INTO5V",
            "runway": "RNW 22R",
            "fixes": {
                "INTOR": "INTOR AT OR ABOVE 12000",
                "BALTI": "BALTI SPEED 250",
                "HK944": "HK944",
                "HK946": "HK946",
                "NOFOX": "NOFOX AT OR ABOVE 2000 SPEED 220 TRK 038 VECTORS"
            }
        },
        {
            "name": "INTO6R",
            "runway": "RNW 04R",
            "fixes": {
                "INTOR": "INTOR AT OR ABOVE 12000",
                "BALTI": "BALTI SPEED 250",
                "HK953": "HK953",
                "HK938": "HK938",
                "HK933": "HK933",
                "ORILE": "ORILE AT OR ABOVE 3300 SPEED 220",
                "VISSI": "VISSI AT OR ABOVE 3300 SPEED 220 TRK 218 VECTORS"
            }
        },
        {
            "name": "INTO7B",
            "runway": "RNW 04L",
            "fixes": {
                "INTOR": "INTOR AT OR ABOVE 12000",
                "BALTI": "BALTI SPEED 250",
                "HK953": "HK953",
                "HK938": "HK938",
                "HK933": "HK933",
                "LOHIG": "LOHIG AT OR ABOVE 2300 SPEED 220 TRK 218 VECTORS"
            }
        },
        {
            "name": "INTO7W",
            "runway": "RNW 33",
            "fixes": {
                "INTOR": "INTOR AT OR ABOVE 12000",
                "BALTI": "BALTI AT OR BELOW 12000 SPEED 250",
                "EESTI": "EESTI AT OR ABOVE 3000 TRK 014 VECTORS"
            }
        },
        {
            "name": "INTO8M",
            "runway": "RNW 15",
            "fixes": {
                "INTOR": "INTOR AT OR ABOVE 12000",
                "BALTI": "BALTI SPEED 250",
                "HK806": "HK806",
                "HK805": "HK805",
                "HK817": "HK817",
                "HK941": "HK941",
                "SUTAX": "SUTAX AT OR ABOVE 2000 SPEED 220 TRK 324 VECTORS"
            }
        },
        {
            "name": "LAKU5V",
            "runway": "RNW 22R",
            "fixes": {
                "LAKUT": "LAKUT AT OR ABOVE 10000",
                "MAROM": "MAROM SPEED 250",
                "VIBEP": "VIBEP",
                "HK897": "HK897",
                "MILLI": "MILLI AT OR ABOVE 2000 SPEED 220 TRK 038 VECTORS"
            }
        },
        {
            "name": "LAKU6A",
            "runway": "RNW 22L",
            "fixes": {
                "LAKUT": "LAKUT AT OR ABOVE 10000",
                "MAROM": "MAROM SPEED 250",
                "VIBEP": "VIBEP",
                "HK942": "HK942",
                "HK951": "HK951",
                "LASTU": "LASTU AT OR ABOVE 3000 SPEED 220",
                "KAAVI": "KAAVI AT OR ABOVE 3000 SPEED 220 TRK 038 VECTORS"
            }
        },
        {
            "name": "LAKU7M",
            "runway": "RNW 15",
            "fixes": {
                "LAKUT": "LAKUT AT OR ABOVE 10000",
                "MAROM": "MAROM AT OR BELOW 12000 SPEED 250",
                "VIBEP": "VIBEP AT OR BELOW 10000",
                "HELPO": "HELPO AT OR ABOVE 3000 TRK 074 VECTORS"
            }
        },
        {
            "name": "LAKU7W",
            "runway": "RNW 33",
            "fixes": {
                "LAKUT": "LAKUT AT OR ABOVE 10000",
                "MAROM": "MAROM SPEED 250",
                "VIBEP": "VIBEP",
                "HK862": "HK862",
                "HK947": "HK947",
                "SOPOS": "SOPOS AT OR ABOVE 3000 SPEED 220 TRK 144 VECTORS"
            }
        },
        {
            "name": "LAKU8B",
            "runway": "RNW 04L",
            "fixes": {
                "LAKUT": "LAKUT AT OR ABOVE 10000",
                "MAROM": "MAROM SPEED 250",
                "HK871": "HK871",
                "HK937": "HK937",
                "HK932": "HK932",
                "NEMVI": "NEMVI AT OR ABOVE 2300 SPEED 220 TRK 218 VECTORS"
            }
        },
        {
            "name": "LAKU8R",
            "runway": "RNW 04R",
            "fixes": {
                "LAKUT": "LAKUT AT OR ABOVE 10000",
                "MAROM": "MAROM SPEED 250",
                "HK871": "HK871",
                "HK937": "HK937",
                "HK932": "HK932",
                "NEKKU": "NEKKU AT OR ABOVE 3300 SPEED 220",
                "MALKE": "MALKE AT OR ABOVE 3300 SPEED 220 TRK 218 VECTORS"
            }
        },
        {
            "name": "LUSE3B",
            "runway": "RNW 04L",
            "fixes": {
                "LUSEP": "LUSEP AT OR ABOVE 10000",
                "NAPUN": "NAPUN SPEED 250",
                "HK890": "HK890",
                "HK897": "HK897",
                "HK932": "HK932",
                "NEMVI": "NEMVI AT OR ABOVE 2300 SPEED 220 TRK 218 VECTORS"
            }
        },
        {
            "name": "LUSE3M",
            "runway": "RNW 15",
            "fixes": {
                "LUSEP": "LUSEP AT OR ABOVE 10000",
                "NAPUN": "NAPUN SPEED 250",
                "HK902": "HK902",
                "HK950": "HK950",
                "NAHOP": "NAHOP AT OR ABOVE 2000 SPEED 220 TRK 144 VECTORS"
            }
        },
        {
            "name": "LUSE3R",
            "runway": "RNW 04R",
            "fixes": {
                "LUSEP": "LUSEP AT OR ABOVE 10000",
                "NAPUN": "NAPUN SPEED 250",
                "HK890": "HK890",
                "HK897": "HK897",
                "HK932": "HK932",
                "NEKKU": "NEKKU AT OR ABOVE 3300 SPEED 220",
                "MALKE": "MALKE AT OR ABOVE 3300 SPEED 220 TRK 218 VECTORS"
            }
        },
        {
            "name": "LUSE3W",
            "runway": "RNW 33",
            "fixes": {
                "LUSEP": "LUSEP AT OR ABOVE 10000",
                "NAPUN": "NAPUN SPEED 250",
                "HK863": "HK863",
                "HK948": "HK948",
                "TOPPI": "TOPPI AT OR ABOVE 3000 SPEED 220 TRK 144 VECTORS"
            }
        },
        {
            "name": "LUSE4A",
            "runway": "RNW 22L",
            "fixes": {
                "LUSEP": "LUSEP AT OR ABOVE 10000",
                "NAPUN": "NAPUN SPEED 250",
                "HK902": "HK902",
                "KUKKA": "KUKKA AT OR ABOVE 3000 SPEED 220 TRK 218 VECTORS"
            }
        },
        {
            "name": "LUSE5V",
            "runway": "RNW 22R",
            "fixes": {
                "LUSEP": "LUSEP AT OR ABOVE 10000",
                "NAPUN": "NAPUN SPEED 250",
                "HK902": "HK902",
                "SELLU": "SELLU AT OR ABOVE 2000 SPEED 220 TRK 218 VECTORS"
            }
        },
        {
            "name": "MARO2V",
            "runway": "RNW 22R",
            "fixes": {
                "LAKUT": "LAKUT AT OR ABOVE 10000",
                "MAROM": "MAROM AT OR BELOW 14000 SPEED 250",
                "VIBEP": "VIBEP",
                "HK897": "HK897",
                "MILLI": "MILLI AT OR BELOW 4000",
                "FANNI": "FANNI 2000 SPEED 220 TRK 038 VECTORS"
            }
        },
        {
            "name": "MARO6B",
            "runway": "RNW 04L",
            "fixes": {
                "LAKUT": "LAKUT AT OR ABOVE 10000",
                "MAROM": "MAROM AT OR BELOW 12000 SPEED 250",
                "HK871": "HK871 AT OR BELOW 7000",
                "HK936": "HK936",
                "NEMVI": "NEMVI",
                "ASPIT": "ASPIT 2300 SPEED 220 TRK 218 VECTORS"
            }
        },
        {
            "name": "NAPU3B",
            "runway": "RNW 04L",
            "fixes": {
                "LUSEP": "LUSEP AT OR ABOVE 10000",
                "NAPUN": "NAPUN SPEED 250",
                "HK890": "HK890",
                "HK897": "HK897",
                "HK932": "HK932",
                "NEMVI": "NEMVI",
                "ASPIT": "ASPIT 2300 SPEED 220 TRK 218 VECTORS"
            }
        },
        {
            "name": "NAPU3V",
            "runway": "RNW 22R",
            "fixes": {
                "LUSEP": "LUSEP AT OR ABOVE 10000",
                "NAPUN": "NAPUN AT OR BELOW 10000 SPEED 250",
                "HK940": "HK940",
                "HK902": "HK902",
                "SELLU": "SELLU AT OR BELOW 3000 SPEED 220 TRK 218 VECTORS"
            }
        },
        {
            "name": "PEXE5V",
            "runway": "RNW 22R",
            "fixes": {
                "DIVAM": "DIVAM AT OR ABOVE 10000",
                "PEXEN": "PEXEN SPEED 250",
                "HK957": "HK957",
                "HK958": "HK958",
                "HK959": "HK959",
                "HK897": "HK897",
                "MILLI": "MILLI AT OR BELOW 4000",
                "FANNI": "FANNI 2000 SPEED 220 TRK 038 VECTORS"
            }
        },
        {
            "name": "PEXE6B",
            "runway": "RNW 04L",
            "fixes": {
                "DIVAM": "DIVAM AT OR ABOVE 10000",
                "PEXEN": "PEXEN AT OR BELOW 10000 SPEED 250",
                "HK954": "HK954 AT OR BELOW 7000",
                "HK955": "HK955 AT OR BELOW 5000 AT OR ABOVE 3000",
                "ROHJA": "ROHJA AT OR ABOVE 2300 SPEED 220 TRK 038 VECTORS"
            }
        },
        {
            "name": "ROPA3B",
            "runway": "RNW 04L",
            "fixes": {
                "ROPAM": "ROPAM SPEED 250",
                "HK711": "HK711",
                "HK933": "HK933",
                "LOHIG": "LOHIG AT OR ABOVE 2300 SPEED 220 TRK 218 VECTORS"
            }
        },
        {
            "name": "ROPA3M",
            "runway": "RNW 15",
            "fixes": {
                "ROPAM": "ROPAM SPEED 250",
                "HK817": "HK817",
                "HK941": "HK941",
                "SUTAX": "SUTAX AT OR ABOVE 2000 SPEED 220 TRK 324 VECTORS"
            }
        },
        {
            "name": "ROPA3R",
            "runway": "RNW 04R",
            "fixes": {
                "ROPAM": "ROPAM SPEED 250",
                "HK711": "HK711",
                "HK933": "HK933",
                "ORILE": "ORILE AT OR ABOVE 3300 SPEED 220",
                "VISSI": "VISSI AT OR ABOVE 3300 SPEED 220 TRK 218 VECTORS"
            }
        },
        {
            "name": "ROPA3W",
            "runway": "RNW 33",
            "fixes": {
                "ROPAM": "ROPAM SPEED 250",
                "HK949": "HK949 TURN LEFT DIRECT",
                "HK948": "HK948",
                "TOPPI": "TOPPI AT OR ABOVE 3000 SPEED 220 TRK 144 VECTORS"
            }
        },
        {
            "name": "ROPA4A",
            "runway": "RNW 22L",
            "fixes": {
                "ROPAM": "ROPAM SPEED 250",
                "HK943": "HK943",
                "HK891": "HK891",
                "VEMMI": "VEMMI AT OR ABOVE 3000 SPEED 220",
                "KENON": "KENON AT OR ABOVE 3000 SPEED 220 TRK 038 VECTORS"
            }
        },
        {
            "name": "ROPA4V",
            "runway": "RNW 22R",
            "fixes": {
                "ROPAM": "ROPAM SPEED 250",
                "HK944": "HK944",
                "HK946": "HK946",
                "NOFOX": "NOFOX AT OR ABOVE 2000 SPEED 220 TRK 038 VECTORS"
            }
        },
        {
            "name": "VEPI3B",
            "runway": "RNW 04L",
            "fixes": {
                "VEPIN": "VEPIN AT OR ABOVE 10000",
                "MAMOP": "MAMOP SPEED 250",
                "HK807": "HK807",
                "HK711": "HK711",
                "HK933": "HK933",
                "LOHIG": "LOHIG AT OR ABOVE 2300 SPEED 220 TRK 218 VECTORS"
            }
        },
        {
            "name": "VEPI3M",
            "runway": "RNW 15",
            "fixes": {
                "VEPIN": "VEPIN AT OR ABOVE 10000",
                "MAMOP": "MAMOP SPEED 250",
                "HK939": "HK939",
                "HK941": "HK941",
                "SUTAX": "SUTAX AT OR ABOVE 2000 SPEED 220 TRK 324 VECTORS"
            }
        },
        {
            "name": "VEPI3R",
            "runway": "RNW 04R",
            "fixes": {
                "VEPIN": "VEPIN AT OR ABOVE 10000",
                "MAMOP": "MAMOP SPEED 250",
                "HK807": "HK807",
                "HK711": "HK711",
                "HK933": "HK933",
                "ORILE": "ORILE AT OR ABOVE 3300 SPEED 220",
                "VISSI": "VISSI AT OR ABOVE 3300 SPEED 220 TRK 218 VECTORS"
            }
        },
        {
            "name": "VEPI3W",
            "runway": "RNW 33",
            "fixes": {
                "VEPIN": "VEPIN AT OR ABOVE 10000",
                "MAMOP": "MAMOP SPEED 250",
                "HK949": "HK949",
                "HK948": "HK948",
                "TOPPI": "TOPPI AT OR ABOVE 3000 SPEED 220 TRK 144 VECTORS"
            }
        },
        {
            "name": "VEPI4A",
            "runway": "RNW 22L",
            "fixes": {
                "VEPIN": "VEPIN AT OR ABOVE 10000",
                "MAMOP": "MAMOP SPEED 250",
                "HK956": "HK956",
                "ARADE": "ARADE AT OR ABOVE 3000 SPEED 220 TRK 218 VECTORS"
            }
        },
        {
            "name": "VEPI4V",
            "runway": "RNW 22R",
            "fixes": {
                "VEPIN": "VEPIN AT OR ABOVE 10000",
                "MAMOP": "MAMOP SPEED 250",
                "RAHTU": "RAHTU AT OR ABOVE 3000 TRK 264 VECTORS"
            }
        }
    ],
    "approaches": [
        {
            "name": "VORD33",
            "fixes": {
                "BAMEB": "BAMEB AT OR ABOVE 3000",
                "FD33": "FD33 2000",
                "50VOR": "50VOR AT OR ABOVE 1270 RNW 33 TRK 323 UNTIL 2000 HDG 323 VECTORS FAF FD33 MAP RNW 33"
            },
            "transitions": []
        },
        {
            "name": "ILS04L",
            "fixes": {
                "PODOM": "PODOM AT OR ABOVE 2300",
                "EMPEV": "EMPEV 2300 RNW 04L TRK 038 UNTIL 580 TRK 355 UNTIL 2000 HDG 355 VECTORS FAF EMPEV MAP RNW 04L"
            },
            "transitions": [
                {
                    "name": "RULLI",
                    "fixes": {
                        "RULLI": "RULLI AT OR ABOVE 2300"
                    }
                }
            ]
        },
        {
            "name": "ILS04R",
            "fixes": {
                "GONAP": "GONAP AT OR ABOVE 3300",
                "DIPMO": "DIPMO 3300 RNW 04R TRK 038 UNTIL 3.6 FROM",
                "HG": "HG TRK 085 UNTIL 2000 HDG 085 VECTORS FAF DIPMO MAP RNW 04R"
            },
            "transitions": []
        },
        {
            "name": "ILS15",
            "fixes": {
                "ELKUN": "ELKUN AT OR ABOVE 2000",
                "OBUPU": "OBUPU 2000 RNW 15 TRK 144 UNTIL 2.3 FROM",
                "HL": "HL TRK 080 UNTIL 2000 HDG 080 VECTORS FAF OBUPU MAP RNW 15"
            },
            "transitions": []
        },
        {
            "name": "ILS22L",
            "fixes": {
                "BIFIX": "BI",
                "TIXED": "AT OR ABOVE 3000",
                "HK": "TIXED 3000 RNW 22L TRK 218 UNTIL 2.5 FROM"
            },
            "transitions": []
        },
        {
            "name": "ILS22R",
            "fixes": {
                "MEHAK": "MEHAK AT OR ABOVE 2000",
                "XELBU": "XELBU 2000 RNW 22R TRK 218 UNTIL 580 TRK 265 UNTIL 2000 HDG 265 VECTORS FAF XELBU MAP RNW 22R"
            },
            "transitions": [
                {
                    "name": "PERHO",
                    "fixes": {
                        "PERHO": "PERHO AT OR ABOVE 2000"
                    }
                }
            ]
        },
        {
            "name": "RNAV04L",
            "fixes": {
                "PODOM": "PODOM AT OR ABOVE 2300 SPEED 210",
                "HK856": "HK856 2000 RNW 04L",
                "HK610": "HK610 TRK 355 UNTIL 2000 HDG 355 VECTORS FAF HK856 MAP RNW 04L"
            },
            "transitions": [
                {
                    "name": "RULLI",
                    "fixes": {
                        "RULLI": "RULLI AT OR ABOVE 2300"
                    }
                }
            ]
        },
        {
            "name": "RNAV04R",
            "fixes": {
                "DIPMO": "DIPMO AT OR ABOVE 2200",
                "HK860": "HK860 2100 RNW 04R",
                "HK866": "HK866 TRK 085 UNTIL 2000 HDG 085 VECTORS FAF HK860 MAP RNW 04R"
            },
            "transitions": [
                {
                    "name": "GONAP",
                    "fixes": {
                        "GONAP": "GONAP AT OR ABOVE 3300 SPEED 210"
                    }
                }
            ]
        },
        {
            "name": "RNAV15",
            "fixes": {
                "ELKUN": "ELKUN AT OR ABOVE 2000 SPEED 210",
                "OBUPU": "OBUPU 2000 RNW 15",
                "HK859": "HK859 TRK 080 UNTIL 2000 HDG 080 VECTORS FAF OBUPU MAP RNW 15"
            },
            "transitions": []
        },
        {
            "name": "RNAV22L",
            "fixes": {
                "TIXED": "TIXED AT OR ABOVE 2000",
                "GUMVO": "GUMVO 2000 RNW 22L",
                "HK864": "HK864 TRK 185 UNTIL 2000 HDG 185 VECTORS FAF GUMVO MAP RNW 22L"
            },
            "transitions": [
                {
                    "name": "BIFIX",
                    "fixes": {
                        "BIFIX": ""
                    }
                }
            ]
        },
        {
            "name": "RNAV22R",
            "fixes": {
                "MEHAK": "MEHAK AT OR ABOVE 2000 SPEED 210",
                "XELBU": "XELBU 2000 RNW 22R",
                "HK611": "HK611 TRK 265 UNTIL 2000 HDG 265 VECTORS FAF XELBU MAP RNW 22R"
            },
            "transitions": [
                {
                    "name": "PERHO",
                    "fixes": {
                        "PERHO": "PERHO AT OR ABOVE 2000"
                    }
                }
            ]
        },
        {
            "name": "RNAV33",
            "fixes": {
                "OBONU": "OBONU AT OR ABOVE 3000 SPEED 210",
                "HK900": "HK900 2100 RNW 33 TRK 324 UNTIL 2000 HDG 324 VECTORS FAF HK900 MAP RNW 33"
            },
            "transitions": []
        }
    ]
}