{
    "fixes": [
        {
            "name": "ADTUC",
            "lat": 60.201736116666666,
            "lon": 19.967233333333333
        },
        {
            "name": "AF001",
            "lat": 60.0587751,
            "lon": 20.243155866666665
        },
        {
            "name": "AF002",
            "lat": 60.01336883333333,
            "lon": 20.178292833333334
        },
        {
            "name": "AF003",
            "lat": 59.979753933333335,
            "lon": 20.089278966666665
        },
        {
            "name": "AF004",
            "lat": 59.96100263333334,
            "lon": 19.984308616666667
        },
        {
            "name": "AF005",
            "lat": 59.958824766666666,
            "lon": 19.87297158333333
        },
        {
            "name": "AF006",
            "lat": 60.16015898333333,
            "lon": 20.247063783333335
        },
        {
            "name": "AF007",
            "lat": 60.20440548333333,
            "lon": 20.22430545
        },
        {
            "name": "AF008",
            "lat": 60.24390711666667,
            "lon": 20.178147516666666
        },
        {
            "name": "AF009",
            "lat": 60.23227528333334,
            "lon": 20.194896083333333
        },
        {
            "name": "AF010",
            "lat": 60.25584125,
            "lon": 20.157432983333333
        },
        {
            "name": "BEGOV",
            "lat": 60.28255,
            "lon": 20.037797216666668
        },
        {
            "name": "CI21",
            "lat": 60.29353056666667,
            "lon": 20.047430566666666
        },
        {
            "name": "D029J",
            "lat": 60.27531943333334,
            "lon": 20.11115
        },
        {
            "name": "D060L",
            "lat": 60.218411116666665,
            "lon": 20.283486116666666
        },
        {
            "name": "D092L",
            "lat": 60.10919166666667,
            "lon": 20.309111116666667
        },
        {
            "name": "D092M",
            "lat": 60.106488883333334,
            "lon": 20.341966666666668
        },
        {
            "name": "D197K",
            "lat": 59.97385833333333,
            "lon": 19.766047216666667
        },
        {
            "name": "D229O",
            "lat": 60.000908333333335,
            "lon": 19.501672216666666
        },
        {
            "name": "DODAM",
            "lat": 60.04444443333333,
            "lon": 19.301666666666666
        },
        {
            "name": "EBEBU",
            "lat": 60.095,
            "lon": 20.454444433333332
        },
        {
            "name": "FI21",
            "lat": 60.205252783333336,
            "lon": 19.9703
        },
        {
            "name": "FUSCE",
            "lat": 60.23461666666667,
            "lon": 19.813808333333334
        },
        {
            "name": "KOXFU",
            "lat": 60.05331666666667,
            "lon": 19.838619433333335
        },
        {
            "name": "KUSUP",
            "lat": 60.31559721666667,
            "lon": 19.884141666666668
        },
        {
            "name": "MAMAX",
            "lat": 60.049722216666666,
            "lon": 19.833611116666667
        },
        {
            "name": "MAR",
            "lat": 60.14098611666667,
            "lon": 19.914427783333334
        },
        {
            "name": "NARIL",
            "lat": 59.97697778333333,
            "lon": 19.772961116666668
        },
        {
            "name": "NOLVU",
            "lat": 60.046788883333335,
            "lon": 19.83299166666667
        },
        {
            "name": "OGLOB",
            "lat": 59.93305556666667,
            "lon": 19.462222216666667
        },
        {
            "name": "ORHUH",
            "lat": 60.02024443333333,
            "lon": 19.991036116666667
        },
        {
            "name": "PEXUT",
            "lat": 60.21694443333333,
            "lon": 19.981944433333332
        },
        {
            "name": "RATSO",
            "lat": 60.00972221666667,
            "lon": 19.620463883333333
        },
        {
            "name": "RIKUM",
            "lat": 59.97083333333333,
            "lon": 19.40805556666667
        },
        {
            "name": "RW21",
            "lat": 60.13004166666666,
            "lon": 19.904947216666667
        },
        {
            "name": "SOTUP",
            "lat": 60.288888883333335,
            "lon": 20.623888883333333
        },
        {
            "name": "TIKMO",
            "lat": 60.20507778333333,
            "lon": 19.970144433333335
        },
        {
            "name": "URZUP",
            "lat": 60.168680566666666,
            "lon": 20.12035
        },
        {
            "name": "VASET",
            "lat": 59.94405833333333,
            "lon": 19.925158333333332
        },
        {
            "name": "XERDA",
            "lat": 60.249325,
            "lon": 20.191141666666667
        }
    ],
    "rnws": [
        "RNW 03",
        "RNW 21"
    ],
    "sids": [
        {
            "name": "EBEB1C",
            "rnw": "03",
            "fixes": {
                "ADTUC": "ADTUC SPEED 180",
                "URZUP": "URZUP",
                "EBEBU": "EBEBU"
            },
            "sub_fixes": [],
            "transitions": []
        },
        {
            "name": "EBEB1D",
            "rnw": "21",
            "fixes": {
                "KOXFU": "KOXFU SPEED 180",
                "ORHUH": "ORHUH SPEED 210",
                "EBEBU": "EBEBU"
            },
            "sub_fixes": [],
            "transitions": []
        },
        {
            "name": "OGLO1C",
            "rnw": "03",
            "fixes": {
                "ADTUC": "ADTUC SPEED 180",
                "FUSCE": "FUSCE SPEED 210",
                "OGLOB": "OGLOB"
            },
            "sub_fixes": [],
            "transitions": []
        },
        {
            "name": "OGLO1D",
            "rnw": "21",
            "fixes": {
                "KOXFU": "KOXFU SPEED 180",
                "NARIL": "NARIL",
                "OGLOB": "OGLOB"
            },
            "sub_fixes": [],
            "transitions": []
        },
        {
            "name": "SOTU1C",
            "rnw": "03",
            "fixes": {
                "ADTUC": "ADTUC SPEED 180",
                "SOTUP": "SOTUP"
            },
            "sub_fixes": [],
            "transitions": []
        },
        {
            "name": "SOTU1D",
            "rnw": "21",
            "fixes": {
                "KOXFU": "KOXFU SPEED 180",
                "ORHUH": "ORHUH SPEED 210",
                "SOTUP": "SOTUP"
            },
            "sub_fixes": [],
            "transitions": []
        }
    ],
    "stars": [
        {
            "name": "DODA3A",
            "runway": "RNW 21",
            "fixes": {
                "DODAM": "DODAM AT OR ABOVE 10000",
                "KUSUP": "KUSUP AT OR ABOVE 1900 SPEED 240",
                "BEGOV": "BEGOV AT OR ABOVE 1900"
            }
        },
        {
            "name": "DODA3B",
            "runway": "RNW 03",
            "fixes": {
                "DODAM": "DODAM AT OR ABOVE 10000",
                "RATSO": "RATSO AT OR ABOVE 1900 SPEED 240",
                "NARIL": "NARIL AT OR ABOVE 1900"
            }
        },
        {
            "name": "EBEB2A",
            "runway": "RNW 21",
            "fixes": {
                "EBEBU": "EBEBU AT OR ABOVE 10000",
                "XERDA": "XERDA AT OR ABOVE 1900 SPEED 240",
                "BEGOV": "BEGOV AT OR ABOVE 1900"
            }
        },
        {
            "name": "EBEB2B",
            "runway": "RNW 03",
            "fixes": {
                "EBEBU": "EBEBU AT OR ABOVE 10000",
                "VASET": "VASET AT OR ABOVE 1900 SPEED 240",
                "NARIL": "NARIL AT OR ABOVE 1900"
            }
        },
        {
            "name": "RIKU3A",
            "runway": "RNW 21",
            "fixes": {
                "RIKUM": "RIKUM AT OR ABOVE 10000",
                "KUSUP": "KUSUP AT OR ABOVE 1900 SPEED 240",
                "BEGOV": "BEGOV AT OR ABOVE 1900"
            }
        },
        {
            "name": "RIKU3B",
            "runway": "RNW 03",
            "fixes": {
                "RIKUM": "RIKUM AT OR ABOVE 10000",
                "NARIL": "NARIL AT OR ABOVE 1900"
            }
        },
        {
            "name": "SOTU2A",
            "runway": "RNW 21",
            "fixes": {
                "SOTUP": "SOTUP AT OR ABOVE 10000",
                "BEGOV": "BEGOV AT OR ABOVE 1900"
            }
        },
        {
            "name": "SOTU2B",
            "runway": "RNW 03",
            "fixes": {
                "SOTUP": "SOTUP AT OR ABOVE 10000",
                "VASET": "VASET AT OR ABOVE 1900 SPEED 240",
                "NARIL": "NARIL AT OR ABOVE 1900"
            }
        }
    ],
    "approaches": [
        {
            "name": "VORD03",
            "fixes": {
                "MAMAX": "MAMAX 1640 RNW 03",
                "MAR": "MAR AT OR ABOVE 420",
                "PEXUT": "PEXUT 1900 FAF MAMAX MAP RNW 03"
            },
            "transitions": [
                {
                    "name": "EBEBU",
                    "fixes": {
                        "EBEBU": "EBEBU",
                        "D092M": "D092M AT OR ABOVE 1900",
                        "AF001": "AF001",
                        "AF002": "AF002",
                        "AF003": "AF003",
                        "AF004": "AF004",
                        "AF005": "AF005",
                        "D197K": "D197K AT OR ABOVE 1900"
                    }
                },
                {
                    "name": "MAMAX",
                    "fixes": {
                        "MAMAX": "MAMAX RIGHT TURN INBOUNDCOURSE 017 ALT 1900 LEGTIME 1"
                    }
                },
                {
                    "name": "RIKUM",
                    "fixes": {
                        "RIKUM": "RIKUM",
                        "D229O": "D229O AT OR ABOVE 1900",
                        "D197K": "D197K AT OR ABOVE 1900"
                    }
                }
            ]
        },
        {
            "name": "ILSY21",
            "fixes": {
                "CI21": "CI21 AT OR ABOVE 1900",
                "FI21": "FI21 1900 RNW 21 TRK 197 UNTIL 420",
                "MAMAX": "MAMAX 1900 FAF FI21 MAP RNW 21"
            },
            "transitions": [
                {
                    "name": "EBEBU",
                    "fixes": {
                        "EBEBU": "EBEBU",
                        "D092L": "D092L AT OR ABOVE 1900",
                        "AF006": "AF006",
                        "AF007": "AF007",
                        "AF008": "AF008",
                        "D029J": "D029J AT OR ABOVE 1900"
                    }
                },
                {
                    "name": "SOTUP",
                    "fixes": {
                        "SOTUP": "SOTUP",
                        "D060L": "D060L AT OR ABOVE 1900",
                        "AF009": "AF009",
                        "AF010": "AF010",
                        "D029J": "D029J AT OR ABOVE 1900"
                    }
                }
            ]
        },
        {
            "name": "ILSZ21",
            "fixes": {
                "BEGOV": "BEGOV AT OR ABOVE 1900",
                "TIKMO": "TIKMO 1900 RNW 21 TRK 196 UNTIL 500",
                "NARIL": "NARIL 1900 FAF TIKMO MAP RNW 21"
            },
            "transitions": [
                {
                    "name": "KUSUP",
                    "fixes": {
                        "KUSUP": "KUSUP AT OR ABOVE 1900 SPEED 240"
                    }
                },
                {
                    "name": "XERDA",
                    "fixes": {
                        "XERDA": "XERDA AT OR ABOVE 1900 SPEED 240"
                    }
                }
            ]
        },
        {
            "name": "RNAV03",
            "fixes": {
                "NARIL": "NARIL AT OR ABOVE 1900",
                "NOLVU": "NOLVU 1700 RNW 03",
                "BEGOV": "BEGOV 1900 FAF NOLVU MAP RNW 03"
            },
            "transitions": [
                {
                    "name": "NARIL",
                    "fixes": {
                        "NARIL": "NARIL LEFT TURN INBOUNDCOURSE 286 ALT 1900 SPEED 230 LEGTIME 1"
                    }
                },
                {
                    "name": "RATSO",
                    "fixes": {
                        "RATSO": "RATSO AT OR ABOVE 1900 SPEED 240"
                    }
                },
                {
                    "name": "VASET",
                    "fixes": {
                        "VASET": "VASET AT OR ABOVE 1900 SPEED 240"
                    }
                }
            ]
        },
        {
            "name": "RNAV21",
            "fixes": {
                "BEGOV": "BEGOV AT OR ABOVE 1900",
                "TIKMO": "TIKMO 1900 RNW 21",
                "NARIL": "NARIL 1900 FAF TIKMO MAP RNW 21"
            },
            "transitions": [
                {
                    "name": "BEGOV",
                    "fixes": {
                        "BEGOV": "BEGOV RIGHT TURN INBOUNDCOURSE 196 ALT 1900 SPEED 230 LEGTIME 1"
                    }
                },
                {
                    "name": "KUSUP",
                    "fixes": {
                        "KUSUP": "KUSUP AT OR ABOVE 1900 SPEED 240"
                    }
                },
                {
                    "name": "XERDA",
                    "fixes": {
                        "XERDA": "XERDA AT OR ABOVE 1900 SPEED 240"
                    }
                }
            ]
        }
    ]
}