{
    "fixes": [
        {
            "name": "15LOC",
            "lat": 55.02352221666667,
            "lon": 1.7439916666666666
        },
        {
            "name": "18DME",
            "lat": 55.02334166666667,
            "lon": 1.7434583333333333
        },
        {
            "name": "25LOC",
            "lat": 55.01652778333333,
            "lon": 1.7702638833333335
        },
        {
            "name": "28DME",
            "lat": 55.01628611666667,
            "lon": 1.7696805666666666
        },
        {
            "name": "ASGEB",
            "lat": 55.18265,
            "lon": 1.4891
        },
        {
            "name": "CF07",
            "lat": 54.971636116666666,
            "lon": 1.9381888833333334
        },
        {
            "name": "CF25",
            "lat": 55.100197216666665,
            "lon": 1.4538805666666668
        },
        {
            "name": "D075D",
            "lat": 55.021180566666665,
            "lon": 1.81915
        },
        {
            "name": "D075I",
            "lat": 54.998438883333336,
            "lon": 1.9553611166666667
        },
        {
            "name": "D079D",
            "lat": 55.028388883333335,
            "lon": 1.8217166666666667
        },
        {
            "name": "D079I",
            "lat": 55.011158333333334,
            "lon": 1.9603861166666667
        },
        {
            "name": "D246D",
            "lat": 55.00590833333333,
            "lon": 1.8092638833333332
        },
        {
            "name": "ERUXI",
            "lat": 54.83874443333333,
            "lon": 1.9656055666666667
        },
        {
            "name": "ETSES",
            "lat": 54.699191666666664,
            "lon": 1.6905916666666667
        },
        {
            "name": "FF07",
            "lat": 54.99270833333333,
            "lon": 1.8595194333333334
        },
        {
            "name": "FF25",
            "lat": 55.079391666666666,
            "lon": 1.532975
        },
        {
            "name": "FQ07",
            "lat": 54.992255566666664,
            "lon": 1.8587666666666667
        },
        {
            "name": "GIRLI",
            "lat": 54.711252783333336,
            "lon": 1.8031916666666667
        },
        {
            "name": "GOKOV",
            "lat": 54.14,
            "lon": 1.8673694333333333
        },
        {
            "name": "IRKOR",
            "lat": 54.40426943333333,
            "lon": 1.7844416666666665
        },
        {
            "name": "KUSEG",
            "lat": 55.04518888333333,
            "lon": 2.006894433333333
        },
        {
            "name": "ML07",
            "lat": 55.030511116666666,
            "lon": 1.7177111166666665
        },
        {
            "name": "ML25",
            "lat": 55.0453,
            "lon": 1.6619833333333334
        },
        {
            "name": "MQ07",
            "lat": 55.030461116666665,
            "lon": 1.7169666666666665
        },
        {
            "name": "MQ25",
            "lat": 55.045036116666665,
            "lon": 1.6626388833333334
        },
        {
            "name": "NITUD",
            "lat": 54.81526111666667,
            "lon": 1.8872611166666666
        },
        {
            "name": "NT07F",
            "lat": 54.99694721666667,
            "lon": 1.8437083333333333
        },
        {
            "name": "NT07I",
            "lat": 54.96956111666667,
            "lon": 1.9459861166666665
        },
        {
            "name": "NT25F",
            "lat": 55.07916388333334,
            "lon": 1.5338416666666668
        },
        {
            "name": "NTE05",
            "lat": 55.07965,
            "lon": 1.5319861166666668
        },
        {
            "name": "NTM01",
            "lat": 55.06881943333333,
            "lon": 1.5730611166666666
        },
        {
            "name": "NTM02",
            "lat": 55.01385,
            "lon": 1.7803444333333334
        },
        {
            "name": "NTNB",
            "lat": 55.050383333333336,
            "lon": 1.6426805666666666
        },
        {
            "name": "NTS01",
            "lat": 54.77480833333333,
            "lon": 1.9235694333333333
        },
        {
            "name": "NTS02",
            "lat": 54.86046666666667,
            "lon": 1.6386638833333333
        },
        {
            "name": "NTS08",
            "lat": 54.926091666666665,
            "lon": 1.744475
        },
        {
            "name": "NTS12",
            "lat": 54.975144433333334,
            "lon": 1.5324416666666667
        },
        {
            "name": "NTW02",
            "lat": 55.02312778333334,
            "lon": 1.7454861166666666
        },
        {
            "name": "NTW03",
            "lat": 55.01249166666667,
            "lon": 1.7854777833333333
        },
        {
            "name": "NTW04",
            "lat": 54.93356111666667,
            "lon": 1.9679388833333333
        },
        {
            "name": "POL",
            "lat": 53.743766666666666,
            "lon": 2.1033277833333335
        },
        {
            "name": "RIMTO",
            "lat": 53.71756943333333,
            "lon": 1.4329944333333333
        },
        {
            "name": "SUPIG",
            "lat": 55.10689166666667,
            "lon": 1.4283666666666668
        },
        {
            "name": "UPMOP",
            "lat": 55.025469433333335,
            "lon": 1.3629972166666666
        },
        {
            "name": "XODRU",
            "lat": 54.53548333333333,
            "lon": 1.7428611166666665
        }
    ],
    "rnws": [
        "RNW 07",
        "RNW 25"
    ],
    "sids": [
        {
            "name": "GIRL1T",
            "rnw": "07",
            "fixes": {
                "NTE05": "NTE05 AT OR ABOVE 2000 SPEED 210 TURN RIGHT DIRECT",
                "NTS12": "NTS12 AT OR ABOVE 4000 SPEED 250",
                "GIRLI": "GIRLI 8000"
            },
            "sub_fixes": [],
            "transitions": []
        },
        {
            "name": "GIRL1Y",
            "rnw": "25",
            "fixes": {
                "NTW03": "NTW03 SPEED 180",
                "NTS08": "NTS08 AT OR ABOVE 4000 SPEED 250",
                "GIRLI": "GIRLI 8000"
            },
            "sub_fixes": [],
            "transitions": []
        },
        {
            "name": "GIRL3X",
            "rnw": "25",
            "fixes": {
                "NTW02": "OVERFLY NTW02 AT OR ABOVE 1100 SPEED 180",
                "NITUD": "NITUD 8000 SPEED 250",
                "GIRLI": "GIRLI 8000"
            },
            "sub_fixes": [],
            "transitions": []
        }
    ],
    "stars": [
        {
            "name": "ETSE1J",
            "runway": "RNW 07",
            "fixes": {
                "ETSES": "ETSES 9000 SPEED 220",
                "NTS01": "NTS01 6000 SPEED 220",
                "ERUXI": "ERUXI AT OR ABOVE 5500 SPEED 200"
            }
        },
        {
            "name": "ETSE1K",
            "runway": "RNW 25",
            "fixes": {
                "ETSES": "ETSES 9000 SPEED 220",
                "NTS02": "NTS02 6000 SPEED 220",
                "UPMOP": "UPMOP AT OR ABOVE 4000 SPEED 200"
            }
        },
        {
            "name": "POL1N",
            "runway": "RNW 07 RNW 25",
            "fixes": {
                "POL": "POL",
                "GOKOV": "GOKOV",
                "IRKOR": "IRKOR 16000",
                "XODRU": "XODRU 12000",
                "ETSES": "ETSES 9000 SPEED 220"
            }
        },
        {
            "name": "RIMT1N",
            "runway": "RNW 07 RNW 25",
            "fixes": {
                "RIMTO": "RIMTO",
                "GOKOV": "GOKOV",
                "IRKOR": "IRKOR 16000",
                "XODRU": "XODRU 12000",
                "ETSES": "ETSES 9000 SPEED 220"
            }
        }
    ],
    "approaches": [
        {
            "name": "ILS07",
            "fixes": {
                "CF07": "CF07 AT OR ABOVE 2200",
                "FF07": "FF07 2200 RNW 07",
                "NTNB": "NTNB AT OR ABOVE 2500 HOLD AT NTNB LEFT TURN INBOUNDCOURSE 246 ALT 2500 SPEED 210 LEGTIME 1 FAF FF07 MAP RNW 07"
            },
            "transitions": [
                {
                    "name": "NT1",
                    "fixes": {
                        "NTNB": "NTNB AT OR ABOVE 3500 SPEED 185 TRK 259 UNTIL 6.3 FROM NTNB",
                        "D079I": "OVERFLY D079I AT OR ABOVE 2200"
                    }
                },
                {
                    "name": "NT2",
                    "fixes": {
                        "NTNB": "NTNB AT OR ABOVE 3500 SPEED 185 TRK 255 UNTIL 6.3 FROM NTNB",
                        "D075I": "OVERFLY D075I AT OR ABOVE 2200"
                    }
                }
            ]
        },
        {
            "name": "ILS25",
            "fixes": {
                "CF25": "CF25 AT OR ABOVE 2000",
                "FF25": "FF25 2000 RNW 25",
                "D246D": "D246D TRK 246 UNTIL 2500 TURN RIGHT DIRECT",
                "NTNB": "NTNB 2500 FAF FF25 MAP RNW 25"
            },
            "transitions": [
                {
                    "name": "NT1",
                    "fixes": {
                        "NTNB": "NTNB AT OR ABOVE 3500 SPEED 185 TRK 087 UNTIL 7.2 FROM NTNB"
                    }
                },
                {
                    "name": "NT2",
                    "fixes": {
                        "NTNB": "NTNB AT OR ABOVE 3500 SPEED 185 TRK 079 UNTIL 7.2 FROM NTNB"
                    }
                }
            ]
        },
        {
            "name": "LOC07",
            "fixes": {
                "CF07": "CF07 AT OR ABOVE 2200",
                "FF07": "FF07 2200",
                "25LOC": "25LOC AT OR ABOVE 1110",
                "15LOC": "15LOC AT OR ABOVE 790",
                "ML07": "ML07 473 RNW 07",
                "NTNB": "NTNB AT OR ABOVE 2500 HOLD AT NTNB LEFT TURN INBOUNDCOURSE 246 ALT 2500 SPEED 210 LEGTIME 1 FAF FF07 MAP ML07"
            },
            "transitions": [
                {
                    "name": "NT1",
                    "fixes": {
                        "NTNB": "NTNB AT OR ABOVE 3500 SPEED 185 TRK 259 UNTIL 6.3 FROM NTNB",
                        "D079I": "OVERFLY D079I AT OR ABOVE 2200"
                    }
                },
                {
                    "name": "NT2",
                    "fixes": {
                        "NTNB": "NTNB AT OR ABOVE 3500 SPEED 185 TRK 255 UNTIL 6.3 FROM NTNB",
                        "D075I": "OVERFLY D075I AT OR ABOVE 2200"
                    }
                }
            ]
        },
        {
            "name": "LOC25",
            "fixes": {
                "CF25": "CF25 AT OR ABOVE 2000",
                "FF25": "FF25 2000",
                "ML25": "ML25 451 RNW 25",
                "D246D": "D246D TRK 246 UNTIL 2500 TURN RIGHT DIRECT",
                "NTNB": "NTNB 2500 FAF FF25 MAP ML25"
            },
            "transitions": [
                {
                    "name": "NT1",
                    "fixes": {
                        "NTNB": "NTNB AT OR ABOVE 3500 SPEED 185 TRK 087 UNTIL 7.2 FROM NTNB"
                    }
                },
                {
                    "name": "NT2",
                    "fixes": {
                        "NTNB": "NTNB AT OR ABOVE 3500 SPEED 185 TRK 079 UNTIL 7.2 FROM NTNB"
                    }
                }
            ]
        },
        {
            "name": "NDBD07",
            "fixes": {
                "FQ07": "FQ07 2200",
                "28DME": "28DME AT OR ABOVE 1110",
                "18DME": "18DME AT OR ABOVE 790",
                "MQ07": "MQ07 468 RNW 07",
                "NTNB": "NTNB AT OR ABOVE 2500 HOLD AT NTNB LEFT TURN INBOUNDCOURSE 246 ALT 2500 SPEED 210 LEGTIME 1 FAF FQ07 MAP MQ07"
            },
            "transitions": [
                {
                    "name": "NT1",
                    "fixes": {
                        "NTNB": "NTNB AT OR ABOVE 3500 SPEED 185",
                        "D079D": "D079D AT OR ABOVE 3500",
                        "D079I": "OVERFLY D079I AT OR ABOVE 2200"
                    }
                },
                {
                    "name": "NT2",
                    "fixes": {
                        "NTNB": "NTNB AT OR ABOVE 3500 SPEED 185",
                        "D075D": "D075D AT OR ABOVE 3500",
                        "D075I": "OVERFLY D075I AT OR ABOVE 2200"
                    }
                }
            ]
        },
        {
            "name": "NDBD25",
            "fixes": {
                "CF25": "CF25 AT OR ABOVE 2000",
                "FF25": "FF25 2000",
                "MQ25": "MQ25 440 RNW 25 TRK 246 UNTIL 2500 TURN RIGHT DIRECT",
                "NTNB": "NTNB 2500 FAF FF25 MAP MQ25"
            },
            "transitions": [
                {
                    "name": "NT1",
                    "fixes": {
                        "NTNB": "NTNB AT OR ABOVE 3500 SPEED 185 TRK 087 UNTIL 7.2 FROM NTNB"
                    }
                },
                {
                    "name": "NT2",
                    "fixes": {
                        "NTNB": "NTNB AT OR ABOVE 3500 SPEED 185 TRK 079 UNTIL 7.2 FROM NTNB"
                    }
                }
            ]
        },
        {
            "name": "RNAV07",
            "fixes": {
                "NT07I": "NT07I AT OR ABOVE 2600",
                "NT07F": "NT07F 2000 RNW 07",
                "NTM01": "OVERFLY NTM01 2000 SPEED 210 TRK 066 UNTIL 2000 FAF NT07F MAP RNW 07"
            },
            "transitions": [
                {
                    "name": "ERUXI",
                    "fixes": {
                        "ERUXI": "ERUXI AT OR ABOVE 5500 SPEED 200",
                        "NTW04": "NTW04 AT OR ABOVE 3500 SPEED 200"
                    }
                },
                {
                    "name": "KUSEG",
                    "fixes": {
                        "KUSEG": "KUSEG AT OR ABOVE 4000 SPEED 200"
                    }
                }
            ]
        },
        {
            "name": "RNAV25",
            "fixes": {
                "SUPIG": "SUPIG AT OR ABOVE 2600",
                "NT25F": "NT25F 2000 RNW 25",
                "NTM02": "OVERFLY NTM02 2500 SPEED 210 TRK 246 UNTIL 2500 FAF NT25F MAP RNW 25"
            },
            "transitions": [
                {
                    "name": "ASGEB",
                    "fixes": {
                        "ASGEB": "ASGEB AT OR ABOVE 4000 SPEED 200"
                    }
                },
                {
                    "name": "UPMOP",
                    "fixes": {
                        "UPMOP": "UPMOP AT OR ABOVE 4000 SPEED 200"
                    }
                }
            ]
        }
    ]
}