{
    "fixes": [
        {
            "name": "ADVOL",
            "lat": 52.33956943333333,
            "lon": 0.6326250000000001
        },
        {
            "name": "AMTIL",
            "lat": 52.366722216666666,
            "lon": 0.45340278333333334
        },
        {
            "name": "ASMUV",
            "lat": 52.39414443333333,
            "lon": 0.16586111666666667
        },
        {
            "name": "BAXED",
            "lat": 52.41999166666667,
            "lon": 0.11078333333333333
        },
        {
            "name": "DEKEG",
            "lat": 52.31123888333333,
            "lon": 0.8030277833333332
        },
        {
            "name": "EKVOB",
            "lat": 52.282505566666664,
            "lon": 0.7526888833333333
        },
        {
            "name": "EVDEG",
            "lat": 52.35817778333333,
            "lon": 0.5197777833333334
        },
        {
            "name": "GOVOL",
            "lat": 52.35458056666667,
            "lon": 0.5350583333333333
        },
        {
            "name": "IBUTU",
            "lat": 52.33796388333333,
            "lon": 0.6514583333333334
        },
        {
            "name": "IRDAB",
            "lat": 52.40705833333333,
            "lon": 0.16982221666666666
        },
        {
            "name": "KOVAP",
            "lat": 52.378083333333336,
            "lon": 0.3352055666666667
        },
        {
            "name": "LORVA",
            "lat": 52.36667778333333,
            "lon": 0.45339166666666664
        },
        {
            "name": "NUGTU",
            "lat": 52.67633333333333,
            "lon": 0.127
        },
        {
            "name": "OKNEN",
            "lat": 52.37809443333333,
            "lon": 0.37411388333333334
        },
        {
            "name": "RW10",
            "lat": 52.36483333333334,
            "lon": 0.46636666666666665
        },
        {
            "name": "RW28",
            "lat": 52.359038883333334,
            "lon": 0.5064527833333333
        },
        {
            "name": "TUSMU",
            "lat": 52.31539721666667,
            "lon": 0.80485
        },
        {
            "name": "UFHAB",
            "lat": 52.34041943333333,
            "lon": 0.6342
        },
        {
            "name": "UGDAB",
            "lat": 52.383277783333334,
            "lon": 0.3374361166666667
        },
        {
            "name": "XENKA",
            "lat": 52.24010833333333,
            "lon": 0.7446416666666666
        },
        {
            "name": "XOTKU",
            "lat": 52.34045556666667,
            "lon": 0.6342055666666667
        }
    ],
    "rnws": [
        "RNW 10",
        "RNW 28"
    ],
    "sids": [
        {
            "name": "NUGTU2",
            "rnw": "05",
            "fixes": {},
            "sub_fixes": [
                {
                    "rwy": "RNW 10",
                    "fixes": {
                        "RNW 10": "RNW 10",
                        "RW28": "RW28 HDG 102 UNTIL 600 TURN RIGHT HDG 354 INTERCEPT RADIAL 324 TO",
                        "NUGTU": "NUGTU NUGTU AT OR BELOW 9000 AT OR ABOVE 8000"
                    }
                },
                {
                    "rwy": "RNW 28",
                    "fixes": {
                        "RNW 28": "RNW 28",
                        "RW10": "RW10 HDG 282 UNTIL 600 HDG 009 INTERCEPT RADIAL 324 TO",
                        "NUGTU": "NUGTU NUGTU AT OR BELOW 9000 AT OR ABOVE 8000"
                    }
                }
            ],
            "transitions": []
        }
    ],
    "stars": [],
    "approaches": [
        {
            "name": "ILS10",
            "fixes": {
                "IRDAB": "IRDAB AT OR ABOVE 2600",
                "UGDAB": "UGDAB 1600 RNW 10",
                "GOVOL": "GOVOL",
                "XENKA": "OVERFLY XENKA AT OR ABOVE 2600 HOLD AT XENKA RIGHT TURN INBOUNDCOURSE 307 ALT 7000 SPEED 265 LEGDIST 8 FAF UGDAB MAP RNW 10"
            },
            "transitions": [
                {
                    "name": "IRDAB",
                    "fixes": {
                        "IRDAB": "IRDAB RIGHT TURN INBOUNDCOURSE 102 ALT 2600 SPEED 265 LEGDIST 6"
                    }
                }
            ]
        },
        {
            "name": "ILS28",
            "fixes": {
                "TUSMU": "TUSMU AT OR ABOVE 2600",
                "UFHAB": "UFHAB 1600 RNW 28 TRK 282 UNTIL 440",
                "ASMUV": "OVERFLY ASMUV AT OR ABOVE 2600 HOLD AT ASMUV RIGHT TURN INBOUNDCOURSE 098 ALT 10000 SPEED 265 LEGDIST 6 FAF UFHAB MAP RNW 28"
            },
            "transitions": [
                {
                    "name": "TUSMU",
                    "fixes": {
                        "TUSMU": "TUSMU LEFT TURN INBOUNDCOURSE 283 ALT 2600 SPEED 265 LEGDIST 8"
                    }
                }
            ]
        },
        {
            "name": "LOC10",
            "fixes": {
                "IRDAB": "IRDAB AT OR ABOVE 2600",
                "UGDAB": "UGDAB 1600",
                "LORVA": "LORVA 242 RNW 10",
                "GOVOL": "GOVOL",
                "XENKA": "OVERFLY XENKA AT OR ABOVE 2600 HOLD AT XENKA RIGHT TURN INBOUNDCOURSE 307 ALT 7000 SPEED 265 LEGDIST 8 FAF UGDAB MAP LORVA"
            },
            "transitions": [
                {
                    "name": "IRDAB",
                    "fixes": {
                        "IRDAB": "IRDAB RIGHT TURN INBOUNDCOURSE 102 ALT 2600 SPEED 265 LEGDIST 6"
                    }
                }
            ]
        },
        {
            "name": "RNAV10",
            "fixes": {
                "IRDAB": "IRDAB AT OR ABOVE 2600",
                "UGDAB": "UGDAB 1700 RNW 10 TRK 102 UNTIL 390",
                "IBUTU": "IBUTU",
                "EKVOB": "OVERFLY EKVOB AT OR ABOVE 2600 HOLD AT EKVOB RIGHT TURN INBOUNDCOURSE 131 ALT 7000 SPEED 265 LEGDIST 7 FAF UGDAB MAP RNW 10"
            },
            "transitions": [
                {
                    "name": "IRDAB",
                    "fixes": {
                        "IRDAB": "IRDAB RIGHT TURN INBOUNDCOURSE 102 ALT 2600 SPEED 265 LEGDIST 6"
                    }
                }
            ]
        },
        {
            "name": "RNAV28",
            "fixes": {
                "TUSMU": "TUSMU AT OR ABOVE 2600",
                "XOTKU": "XOTKU 1700 RNW 28 TRK 282 UNTIL 432",
                "OKNEN": "OKNEN",
                "BAXED": "OVERFLY BAXED AT OR ABOVE 2600 HOLD AT BAXED RIGHT TURN INBOUNDCOURSE 103 ALT 10000 SPEED 265 LEGDIST 6 FAF XOTKU MAP RNW 28"
            },
            "transitions": [
                {
                    "name": "TUSMU",
                    "fixes": {
                        "TUSMU": "TUSMU LEFT TURN INBOUNDCOURSE 283 ALT 2600 SPEED 265 LEGDIST 7"
                    }
                }
            ]
        },
        {
            "name": "VOR10",
            "fixes": {
                "ASMUV": "ASMUV AT OR ABOVE 2600",
                "KOVAP": "KOVAP 1700",
                "AMTIL": "OVERFLY AMTIL 251 RNW 10",
                "GOVOL": "GOVOL",
                "XENKA": "OVERFLY XENKA AT OR ABOVE 2600 HOLD AT XENKA RIGHT TURN INBOUNDCOURSE 307 ALT 7000 SPEED 265 LEGDIST 8 FAF KOVAP MAP AMTIL"
            },
            "transitions": [
                {
                    "name": "ASMUV",
                    "fixes": {
                        "ASMUV": "ASMUV RIGHT TURN INBOUNDCOURSE 098 ALT 2600 SPEED 265 LEGDIST 6"
                    }
                }
            ]
        },
        {
            "name": "VOR28",
            "fixes": {
                "DEKEG": "DEKEG AT OR ABOVE 2600",
                "ADVOL": "ADVOL 1700",
                "EVDEG": "OVERFLY EVDEG 260 RNW 28",
                "ASMUV": "OVERFLY ASMUV AT OR ABOVE 2600 HOLD AT ASMUV RIGHT TURN INBOUNDCOURSE 098 ALT 10000 SPEED 265 LEGDIST 6 FAF ADVOL MAP EVDEG"
            },
            "transitions": [
                {
                    "name": "DEKEG",
                    "fixes": {
                        "DEKEG": "DEKEG LEFT TURN INBOUNDCOURSE 284 ALT 2600 SPEED 265 LEGDIST 8"
                    }
                }
            ]
        }
    ]
}