{
    "fixes": [
        {
            "name": "ANZUL",
            "lat": 50.841777783333335,
            "lon": 5.858583333333334
        },
        {
            "name": "BASGU",
            "lat": 51.91222221666666,
            "lon": 5.85
        },
        {
            "name": "BAXIM",
            "lat": 50.95667221666667,
            "lon": 6.0473194333333335
        },
        {
            "name": "BERIR",
            "lat": 50.77146666666667,
            "lon": 5.784216666666667
        },
        {
            "name": "BK201",
            "lat": 50.99727778333333,
            "lon": 5.856888883333333
        },
        {
            "name": "BK202",
            "lat": 50.83711111666667,
            "lon": 5.69475
        },
        {
            "name": "BK302",
            "lat": 50.81886111666667,
            "lon": 5.67625
        },
        {
            "name": "BK303",
            "lat": 50.840861116666666,
            "lon": 5.698416666666667
        },
        {
            "name": "BK306",
            "lat": 51.010416666666664,
            "lon": 5.87025
        },
        {
            "name": "BK310",
            "lat": 50.866,
            "lon": 5.723805566666667
        },
        {
            "name": "BK311",
            "lat": 50.97813888333334,
            "lon": 5.837444433333333
        },
        {
            "name": "BK315",
            "lat": 50.937583333333336,
            "lon": 5.8083888833333335
        },
        {
            "name": "BK316",
            "lat": 50.94866666666667,
            "lon": 5.857361116666667
        },
        {
            "name": "BK317",
            "lat": 50.95794443333333,
            "lon": 5.898361116666667
        },
        {
            "name": "BK318",
            "lat": 50.784666666666666,
            "lon": 5.9655000000000005
        },
        {
            "name": "BK319",
            "lat": 50.81402778333333,
            "lon": 5.9462222166666665
        },
        {
            "name": "BK320",
            "lat": 50.88913888333333,
            "lon": 5.747194433333333
        },
        {
            "name": "BK321",
            "lat": 50.861361116666664,
            "lon": 5.719111116666666
        },
        {
            "name": "BK323",
            "lat": 50.80458333333333,
            "lon": 5.991222216666666
        },
        {
            "name": "BOBMO",
            "lat": 51.11271943333333,
            "lon": 5.996702783333333
        },
        {
            "name": "BOGRU",
            "lat": 51.05191666666666,
            "lon": 5.912527783333333
        },
        {
            "name": "BREDA",
            "lat": 51.56029443333333,
            "lon": 4.8533333333333335
        },
        {
            "name": "D211H",
            "lat": 50.81031943333333,
            "lon": 5.666058333333334
        },
        {
            "name": "D211I",
            "lat": 50.79214721666666,
            "lon": 5.647505566666666
        },
        {
            "name": "D215I",
            "lat": 50.85885,
            "lon": 5.825875
        },
        {
            "name": "D215P",
            "lat": 50.7616,
            "lon": 5.710836116666667
        },
        {
            "name": "D218I",
            "lat": 50.86345,
            "lon": 5.8167
        },
        {
            "name": "D218L",
            "lat": 50.81489166666667,
            "lon": 5.752661116666666
        },
        {
            "name": "DINAK",
            "lat": 51.016333333333336,
            "lon": 6.000194433333333
        },
        {
            "name": "EHOJI",
            "lat": 51.46786111666667,
            "lon": 5.394861116666666
        },
        {
            "name": "ELBED",
            "lat": 50.818294433333335,
            "lon": 6.057641666666667
        },
        {
            "name": "LNO",
            "lat": 50.58583333333333,
            "lon": 5.710277783333334
        },
        {
            "name": "MAS",
            "lat": 50.971944433333334,
            "lon": 5.960416666666667
        },
        {
            "name": "MODRU",
            "lat": 51.017488883333336,
            "lon": 6.090077783333333
        },
        {
            "name": "NETEX",
            "lat": 51.32801943333333,
            "lon": 6.271355566666666
        },
        {
            "name": "NIHOF",
            "lat": 52.009444433333336,
            "lon": 6.247222216666667
        },
        {
            "name": "NVO",
            "lat": 50.822675,
            "lon": 6.636536116666667
        },
        {
            "name": "NWNB",
            "lat": 51.019361116666666,
            "lon": 5.878333333333334
        },
        {
            "name": "OSGOS",
            "lat": 51.18333333333333,
            "lon": 5.915908333333333
        },
        {
            "name": "PESER",
            "lat": 51.61464721666667,
            "lon": 4.526813883333333
        },
        {
            "name": "PIMIP",
            "lat": 51.04061943333333,
            "lon": 6.020133333333333
        },
        {
            "name": "RUMER",
            "lat": 51.620663883333336,
            "lon": 5.884691666666667
        },
        {
            "name": "SOPVI",
            "lat": 51.24968333333333,
            "lon": 5.90185
        },
        {
            "name": "TENLI",
            "lat": 52.24646943333333,
            "lon": 6.250141666666667
        },
        {
            "name": "ULPEN",
            "lat": 50.755555566666665,
            "lon": 5.9275
        }
    ],
    "rnws": [
        "RNW 03",
        "RNW 21"
    ],
    "sids": [
        {
            "name": "LNO3B",
            "rnw": "21",
            "fixes": {
                "BK321": "BK321 TURN LEFT DIRECT",
                "BK323": "BK323 TURN RIGHT DIRECT",
                "ULPEN": "ULPEN AT OR ABOVE 6000",
                "LNO": "LNO"
            },
            "sub_fixes": [],
            "transitions": []
        },
        {
            "name": "LNO4A",
            "rnw": "03",
            "fixes": {
                "BK316": "BK316 AT OR ABOVE 2000 SPEED 220 TURN RIGHT DIRECT",
                "BK318": "BK318",
                "ULPEN": "ULPEN AT OR ABOVE 6000",
                "LNO": "LNO"
            },
            "sub_fixes": [],
            "transitions": []
        },
        {
            "name": "NETE2A",
            "rnw": "03",
            "fixes": {
                "BK315": "BK315",
                "BK317": "BK317 AT OR ABOVE 3500",
                "MAS": "MAS",
                "PIMIP": "PIMIP AT OR ABOVE 6000",
                "NETEX": "NETEX"
            },
            "sub_fixes": [],
            "transitions": []
        },
        {
            "name": "NETE2B",
            "rnw": "21",
            "fixes": {
                "BK320": "OVERFLY BK320 TURN LEFT DIRECT",
                "MAS": "MAS AT OR ABOVE 4500",
                "PIMIP": "PIMIP AT OR ABOVE 6000",
                "NETEX": "NETEX"
            },
            "sub_fixes": [],
            "transitions": []
        },
        {
            "name": "NVO3A",
            "rnw": "03",
            "fixes": {
                "BK316": "BK316 AT OR ABOVE 2000 SPEED 220 TURN RIGHT DIRECT",
                "BK319": "BK319",
                "ELBED": "ELBED AT OR ABOVE 6000",
                "NVO": "NVO"
            },
            "sub_fixes": [],
            "transitions": []
        },
        {
            "name": "NVO3B",
            "rnw": "21",
            "fixes": {
                "BK321": "BK321 TURN LEFT DIRECT",
                "BK319": "BK319",
                "ELBED": "ELBED AT OR ABOVE 6000",
                "NVO": "NVO"
            },
            "sub_fixes": [],
            "transitions": []
        },
        {
            "name": "OSGO2A",
            "rnw": "03",
            "fixes": {
                "BK315": "BK315",
                "BK317": "BK317 AT OR ABOVE 3500",
                "MAS": "MAS",
                "OSGOS": "OSGOS AT OR ABOVE 6000"
            },
            "sub_fixes": [],
            "transitions": []
        },
        {
            "name": "OSGO2B",
            "rnw": "21",
            "fixes": {
                "BK320": "OVERFLY BK320 TURN LEFT DIRECT",
                "MAS": "MAS AT OR ABOVE 4500",
                "OSGOS": "OSGOS AT OR ABOVE 6000"
            },
            "sub_fixes": [],
            "transitions": []
        },
        {
            "name": "PESE4A",
            "rnw": "03",
            "fixes": {
                "BK315": "BK315",
                "BK317": "BK317 AT OR ABOVE 3500",
                "MAS": "MAS",
                "OSGOS": "OSGOS AT OR ABOVE 6000",
                "SOPVI": "SOPVI",
                "EHOJI": "EHOJI",
                "BREDA": "BREDA",
                "PESER": "PESER"
            },
            "sub_fixes": [],
            "transitions": []
        },
        {
            "name": "PESE4B",
            "rnw": "21",
            "fixes": {
                "BK320": "OVERFLY BK320 TURN LEFT DIRECT",
                "MAS": "MAS AT OR ABOVE 4500",
                "OSGOS": "OSGOS AT OR ABOVE 6000",
                "SOPVI": "SOPVI",
                "EHOJI": "EHOJI",
                "BREDA": "BREDA",
                "PESER": "PESER"
            },
            "sub_fixes": [],
            "transitions": []
        },
        {
            "name": "TENL2A",
            "rnw": "03",
            "fixes": {
                "BK315": "BK315",
                "BK317": "BK317 AT OR ABOVE 3500",
                "MAS": "MAS",
                "OSGOS": "OSGOS AT OR ABOVE 6000",
                "SOPVI": "SOPVI",
                "RUMER": "RUMER",
                "BASGU": "BASGU",
                "NIHOF": "NIHOF",
                "TENLI": "TENLI"
            },
            "sub_fixes": [],
            "transitions": []
        },
        {
            "name": "TENL2B",
            "rnw": "21",
            "fixes": {
                "BK320": "OVERFLY BK320 TURN LEFT DIRECT",
                "MAS": "MAS AT OR ABOVE 4500",
                "OSGOS": "OSGOS AT OR ABOVE 6000",
                "SOPVI": "SOPVI",
                "RUMER": "RUMER",
                "BASGU": "BASGU",
                "NIHOF": "NIHOF",
                "TENLI": "TENLI"
            },
            "sub_fixes": [],
            "transitions": []
        }
    ],
    "stars": [
        {
            "name": "LNO1T",
            "runway": "RNW 03",
            "fixes": {
                "LNO": "LNO",
                "BERIR": "BERIR AT OR ABOVE 3000"
            }
        },
        {
            "name": "LNO2M",
            "runway": "RNW 21",
            "fixes": {
                "LNO": "LNO",
                "BERIR": "BERIR",
                "DINAK": "DINAK AT OR ABOVE 4000"
            }
        },
        {
            "name": "MODR1T",
            "runway": "RNW 03",
            "fixes": {
                "MODRU": "MODRU",
                "ANZUL": "ANZUL AT OR ABOVE 3500"
            }
        },
        {
            "name": "MODR2M",
            "runway": "RNW 21",
            "fixes": {
                "MODRU": "MODRU",
                "BOGRU": "BOGRU AT OR ABOVE 3000"
            }
        },
        {
            "name": "NETE1T",
            "runway": "RNW 03",
            "fixes": {
                "NETEX": "NETEX",
                "BOBMO": "BOBMO",
                "ANZUL": "ANZUL AT OR ABOVE 3500"
            }
        },
        {
            "name": "NETE2M",
            "runway": "RNW 21",
            "fixes": {
                "NETEX": "NETEX",
                "BOBMO": "BOBMO",
                "BOGRU": "BOGRU AT OR ABOVE 3000"
            }
        },
        {
            "name": "NVO1T",
            "runway": "RNW 03",
            "fixes": {
                "NVO": "NVO",
                "BAXIM": "BAXIM AT OR ABOVE 4000",
                "ANZUL": "ANZUL AT OR ABOVE 3500"
            }
        },
        {
            "name": "NVO3M",
            "runway": "RNW 21",
            "fixes": {
                "NVO": "NVO",
                "BAXIM": "BAXIM",
                "DINAK": "DINAK AT OR ABOVE 4000"
            }
        },
        {
            "name": "OSGO1T",
            "runway": "RNW 03",
            "fixes": {
                "OSGOS": "OSGOS",
                "BOGRU": "BOGRU",
                "ANZUL": "ANZUL AT OR ABOVE 3500"
            }
        },
        {
            "name": "OSGO2M",
            "runway": "RNW 21",
            "fixes": {
                "OSGOS": "OSGOS",
                "BOGRU": "BOGRU AT OR ABOVE 3000"
            }
        },
        {
            "name": "RUME1T",
            "runway": "RNW 03",
            "fixes": {
                "RUMER": "RUMER",
                "SOPVI": "SOPVI",
                "OSGOS": "OSGOS",
                "BOGRU": "BOGRU",
                "ANZUL": "ANZUL AT OR ABOVE 3500"
            }
        },
        {
            "name": "RUME3M",
            "runway": "RNW 21",
            "fixes": {
                "RUMER": "RUMER",
                "SOPVI": "SOPVI",
                "OSGOS": "OSGOS",
                "BOGRU": "BOGRU AT OR ABOVE 3000"
            }
        }
    ],
    "approaches": [
        {
            "name": "ILSX03",
            "fixes": {
                "BK303": "BK303 AT OR ABOVE 1800",
                "BK310": "BK310 1230 RNW 03 TRK 031 UNTIL 2000 HDG 031 VECTORS FAF BK310 MAP RNW 03"
            },
            "transitions": [
                {
                    "name": "ANZUL",
                    "fixes": {
                        "ANZUL": "ANZUL AT OR ABOVE 3500",
                        "BERIR": "BERIR AT OR ABOVE 3000 TURN RIGHT DIRECT",
                        "BK302": "BK302 SPEED 210"
                    }
                },
                {
                    "name": "BERIR",
                    "fixes": {
                        "BERIR": "BERIR AT OR ABOVE 3000",
                        "BK302": "BK302 SPEED 210"
                    }
                }
            ]
        },
        {
            "name": "ILSY03",
            "fixes": {
                "BK303": "BK303 AT OR ABOVE 1800",
                "BK310": "BK310 1230 RNW 03 TRK 031 UNTIL 2000 HDG 031 VECTORS FAF BK310 MAP RNW 03"
            },
            "transitions": [
                {
                    "name": "BK302",
                    "fixes": {
                        "BK302": "BK302 SPEED 210"
                    }
                },
                {
                    "name": "MAS",
                    "fixes": {
                        "MAS": "MAS",
                        "D218I": "D218I AT OR ABOVE 3000",
                        "D218L": "OVERFLY D218L AT OR ABOVE 2000"
                    }
                }
            ]
        },
        {
            "name": "ILSZ03",
            "fixes": {
                "BK303": "BK303 AT OR ABOVE 1800",
                "BK310": "BK310 1230 RNW 03 TRK 031 UNTIL 2000 HDG 031 VECTORS FAF BK310 MAP RNW 03"
            },
            "transitions": [
                {
                    "name": "MAS",
                    "fixes": {
                        "MAS": "MAS",
                        "D215I": "D215I AT OR ABOVE 3000",
                        "D215P": "OVERFLY D215P AT OR ABOVE 2500 TURN RIGHT DIRECT",
                        "D211I": "D211I AT OR ABOVE 2500",
                        "D211H": "D211H AT OR ABOVE 2500",
                        "BK302": "BK302"
                    }
                }
            ]
        },
        {
            "name": "ILSX21",
            "fixes": {
                "BK306": "BK306 AT OR ABOVE 2500",
                "BK311": "BK311 1760 RNW 21 TRK 211 UNTIL 2000 HDG 211 VECTORS FAF BK311 MAP RNW 21"
            },
            "transitions": [
                {
                    "name": "BOGRU",
                    "fixes": {
                        "BOGRU": "BOGRU AT OR ABOVE 3000 SPEED 185"
                    }
                },
                {
                    "name": "DINAK",
                    "fixes": {
                        "DINAK": "DINAK AT OR ABOVE 4000 SPEED 185",
                        "BOGRU": "BOGRU AT OR ABOVE 3000 SPEED 185"
                    }
                }
            ]
        },
        {
            "name": "NDBD03",
            "fixes": {
                "BK303": "BK303 1800 RNW 03 TRK 031 UNTIL 2000 HDG 031 VECTORS FAF BK303 MAP RNW 03"
            },
            "transitions": [
                {
                    "name": "BK302",
                    "fixes": {
                        "BK302": "BK302 SPEED 210"
                    }
                },
                {
                    "name": "NW",
                    "fixes": {
                        "NWNB": "NWNB AT OR ABOVE 3000 TRK 183 UNTIL 7.4 FROM NWNB",
                        "D218I": "D218I AT OR ABOVE 3000",
                        "D218L": "OVERFLY D218L AT OR ABOVE 2000"
                    }
                }
            ]
        },
        {
            "name": "RNAV21",
            "fixes": {
                "BOGRU": "BOGRU AT OR ABOVE 3000 SPEED 185",
                "BK201": "BK201 2200 RNW 21",
                "BK202": "BK202 2000 FAF BK201 MAP RNW 21"
            },
            "transitions": [
                {
                    "name": "DINAK",
                    "fixes": {
                        "DINAK": "DINAK AT OR ABOVE 4000 SPEED 185"
                    }
                }
            ]
        }
    ]
}