{
    "fixes": [
        {
            "name": "35VOR",
            "lat": 68.40341111666666,
            "lon": 16.622619433333334
        },
        {
            "name": "55VOR",
            "lat": 68.37260556666666,
            "lon": 16.588980566666667
        },
        {
            "name": "AMIMO",
            "lat": 67.875,
            "lon": 16.44138888333333
        },
        {
            "name": "BARVI",
            "lat": 69.01921111666667,
            "lon": 17.103483333333333
        },
        {
            "name": "CD066",
            "lat": 68.41425556666667,
            "lon": 16.278605566666666
        },
        {
            "name": "CD35",
            "lat": 68.25702778333333,
            "lon": 16.463633333333334
        },
        {
            "name": "CI17",
            "lat": 68.69498888333334,
            "lon": 16.654627783333332
        },
        {
            "name": "D170C",
            "lat": 68.45945278333333,
            "lon": 16.681738883333335
        },
        {
            "name": "ELDUR",
            "lat": 68.96083056666667,
            "lon": 17.227152783333334
        },
        {
            "name": "ELVEN",
            "lat": 68.40221388333333,
            "lon": 16.338433333333334
        },
        {
            "name": "EV404",
            "lat": 68.30395278333333,
            "lon": 16.104855566666668
        },
        {
            "name": "EV405",
            "lat": 68.44470833333334,
            "lon": 16.683427783333332
        },
        {
            "name": "EV501",
            "lat": 68.60261388333333,
            "lon": 16.665319433333334
        },
        {
            "name": "EV512",
            "lat": 68.745275,
            "lon": 16.648738883333333
        },
        {
            "name": "EV513",
            "lat": 68.66641943333333,
            "lon": 16.657927783333335
        },
        {
            "name": "EV514",
            "lat": 68.43838611666666,
            "lon": 16.684147216666666
        },
        {
            "name": "EV650",
            "lat": 68.19201943333333,
            "lon": 17.071722216666668
        },
        {
            "name": "EV710",
            "lat": 68.46673611666667,
            "lon": 16.68091666666667
        },
        {
            "name": "EV712",
            "lat": 68.33605,
            "lon": 16.601872216666667
        },
        {
            "name": "EV720",
            "lat": 68.44022778333333,
            "lon": 16.683936116666665
        },
        {
            "name": "EV721",
            "lat": 68.421675,
            "lon": 16.674180566666667
        },
        {
            "name": "EV722",
            "lat": 68.31240833333334,
            "lon": 16.540719433333333
        },
        {
            "name": "EV750",
            "lat": 68.08579166666667,
            "lon": 16.848508333333335
        },
        {
            "name": "EVANI",
            "lat": 68.95929443333333,
            "lon": 16.360125
        },
        {
            "name": "EVD",
            "lat": 68.45730556666666,
            "lon": 16.681713883333334
        },
        {
            "name": "EVPUS",
            "lat": 68.7499,
            "lon": 16.968833333333333
        },
        {
            "name": "FD066",
            "lat": 68.42499166666667,
            "lon": 16.378155566666667
        },
        {
            "name": "FD35",
            "lat": 68.30018888333333,
            "lon": 16.510280566666665
        },
        {
            "name": "FF17",
            "lat": 68.66181111666667,
            "lon": 16.658480566666668
        },
        {
            "name": "FSNB",
            "lat": 68.598625,
            "lon": 16.672408333333333
        },
        {
            "name": "GEPTU",
            "lat": 67.79420833333333,
            "lon": 15.35445
        },
        {
            "name": "GILEN",
            "lat": 68.0275,
            "lon": 17.101111116666665
        },
        {
            "name": "GOGOD",
            "lat": 68.11233611666667,
            "lon": 15.715372216666667
        },
        {
            "name": "LALOL",
            "lat": 68.82514721666666,
            "lon": 16.639363883333335
        },
        {
            "name": "LAVNA",
            "lat": 68.81446666666666,
            "lon": 17.712138883333335
        },
        {
            "name": "LEGLU",
            "lat": 68.224175,
            "lon": 16.041894433333333
        },
        {
            "name": "MAXED",
            "lat": 68.12526388333333,
            "lon": 16.67575
        },
        {
            "name": "MD066",
            "lat": 68.44812778333333,
            "lon": 16.594894433333334
        },
        {
            "name": "MD35",
            "lat": 68.44190833333333,
            "lon": 16.6648
        },
        {
            "name": "ODDNB",
            "lat": 68.39828056666667,
            "lon": 16.122972216666668
        },
        {
            "name": "OKNOT",
            "lat": 68.598525,
            "lon": 16.665802783333334
        },
        {
            "name": "OSKUB",
            "lat": 68.45702221666667,
            "lon": 17.650733333333335
        },
        {
            "name": "PENNO",
            "lat": 67.93638888333334,
            "lon": 16.102777783333334
        },
        {
            "name": "PIKOX",
            "lat": 68.32333333333334,
            "lon": 15.46
        },
        {
            "name": "RIMER",
            "lat": 68.74004443333334,
            "lon": 16.328786116666667
        },
        {
            "name": "RORMI",
            "lat": 68.58735278333333,
            "lon": 16.200325
        },
        {
            "name": "STETI",
            "lat": 68.179925,
            "lon": 16.380775
        },
        {
            "name": "SUSOP",
            "lat": 68.3411,
            "lon": 16.901225
        },
        {
            "name": "VEGEN",
            "lat": 68.43709166666666,
            "lon": 17.0024
        }
    ],
    "rnws": [
        "RNW 17",
        "RNW 35"
    ],
    "sids": [
        {
            "name": "AMIM1E",
            "rnw": "17",
            "fixes": {
                "EV405": "OVERFLY EV405 SPEED 205",
                "SUSOP": "SUSOP SPEED 250",
                "AMIMO": "AMIMO"
            },
            "sub_fixes": [],
            "transitions": []
        },
        {
            "name": "AMIM1F",
            "rnw": "35",
            "fixes": {
                "EV501": "OVERFLY EV501 TURN RIGHT DIRECT",
                "VEGEN": "VEGEN",
                "AMIMO": "AMIMO"
            },
            "sub_fixes": [],
            "transitions": []
        },
        {
            "name": "BARV1E",
            "rnw": "17",
            "fixes": {
                "EV405": "OVERFLY EV405 SPEED 205",
                "ELVEN": "ELVEN SPEED 215 TURN RIGHT DIRECT",
                "RORMI": "RORMI",
                "BARVI": "BARVI"
            },
            "sub_fixes": [],
            "transitions": []
        },
        {
            "name": "BARV4F",
            "rnw": "35",
            "fixes": {
                "EV501": "OVERFLY EV501",
                "BARVI": "BARVI"
            },
            "sub_fixes": [],
            "transitions": []
        },
        {
            "name": "EVAN2E",
            "rnw": "17",
            "fixes": {
                "EV405": "OVERFLY EV405 SPEED 205",
                "ELVEN": "ELVEN SPEED 215 TURN RIGHT DIRECT",
                "RORMI": "RORMI",
                "EVANI": "EVANI"
            },
            "sub_fixes": [],
            "transitions": []
        },
        {
            "name": "EVAN4F",
            "rnw": "35",
            "fixes": {
                "EV501": "OVERFLY EV501",
                "EVANI": "EVANI"
            },
            "sub_fixes": [],
            "transitions": []
        },
        {
            "name": "GEPT1E",
            "rnw": "17",
            "fixes": {
                "EV405": "OVERFLY EV405 SPEED 205",
                "ELVEN": "ELVEN SPEED 250",
                "EV404": "EV404",
                "GOGOD": "GOGOD",
                "GEPTU": "GEPTU"
            },
            "sub_fixes": [],
            "transitions": []
        },
        {
            "name": "GEPT1F",
            "rnw": "35",
            "fixes": {
                "EV501": "OVERFLY EV501 TURN LEFT DIRECT",
                "RORMI": "RORMI SPEED 240",
                "GOGOD": "GOGOD",
                "GEPTU": "GEPTU"
            },
            "sub_fixes": [],
            "transitions": []
        },
        {
            "name": "LAVN1E",
            "rnw": "17",
            "fixes": {
                "EV405": "OVERFLY EV405 SPEED 205 TURN LEFT DIRECT",
                "VEGEN": "VEGEN SPEED 250",
                "LAVNA": "LAVNA"
            },
            "sub_fixes": [],
            "transitions": []
        },
        {
            "name": "LAVN2D",
            "rnw": "17",
            "fixes": {
                "EV405": "OVERFLY EV405 SPEED 205",
                "ELVEN": "ELVEN SPEED 215 TURN RIGHT DIRECT",
                "RORMI": "RORMI",
                "LAVNA": "LAVNA"
            },
            "sub_fixes": [],
            "transitions": []
        },
        {
            "name": "LAVN4F",
            "rnw": "35",
            "fixes": {
                "EV501": "OVERFLY EV501",
                "LAVNA": "LAVNA"
            },
            "sub_fixes": [],
            "transitions": []
        },
        {
            "name": "PIKO1E",
            "rnw": "17",
            "fixes": {
                "EV405": "OVERFLY EV405 SPEED 205",
                "ELVEN": "ELVEN SPEED 250",
                "PIKOX": "PIKOX"
            },
            "sub_fixes": [],
            "transitions": []
        },
        {
            "name": "PIKO1F",
            "rnw": "35",
            "fixes": {
                "EV501": "OVERFLY EV501 TURN LEFT DIRECT",
                "RORMI": "RORMI SPEED 240",
                "PIKOX": "PIKOX"
            },
            "sub_fixes": [],
            "transitions": []
        },
        {
            "name": "PIKO1X",
            "rnw": "35",
            "fixes": {
                "FSNB": "OVERFLY FSNB TRK 352 UNTIL 4000 TURN LEFT DIRECT",
                "PIKOX": "PIKOX"
            },
            "sub_fixes": [],
            "transitions": []
        },
        {
            "name": "PIKO2W",
            "rnw": "17",
            "fixes": {
                "EVD": "OVERFLY EVD",
                "ODDNB": "ODDNB SPEED 250",
                "PIKOX": "PIKOX"
            },
            "sub_fixes": [],
            "transitions": []
        }
    ],
    "stars": [
        {
            "name": "ELDU1M",
            "runway": "RNW 35",
            "fixes": {
                "ELDUR": "ELDUR",
                "VEGEN": "VEGEN",
                "MAXED": "MAXED AT OR ABOVE 7000"
            }
        },
        {
            "name": "ELDU2L",
            "runway": "RNW 17",
            "fixes": {
                "ELDUR": "ELDUR AT OR ABOVE 8000",
                "LALOL": "LALOL AT OR ABOVE 6000"
            }
        },
        {
            "name": "EVAN2L",
            "runway": "RNW 17",
            "fixes": {
                "EVANI": "EVANI AT OR ABOVE 7000",
                "LALOL": "LALOL AT OR ABOVE 6000"
            }
        },
        {
            "name": "EVAN3M",
            "runway": "RNW 35",
            "fixes": {
                "EVANI": "EVANI",
                "LEGLU": "LEGLU AT OR ABOVE 7000"
            }
        },
        {
            "name": "GILE1M",
            "runway": "RNW 35",
            "fixes": {
                "GILEN": "GILEN AT OR ABOVE 12000",
                "EV750": "EV750 AT OR ABOVE 9100",
                "MAXED": "MAXED AT OR ABOVE 7000"
            }
        },
        {
            "name": "GILE2L",
            "runway": "RNW 17",
            "fixes": {
                "GILEN": "GILEN",
                "EV650": "EV650 AT OR ABOVE 12000",
                "EVPUS": "EVPUS AT OR ABOVE 6000"
            }
        },
        {
            "name": "OSKU1L",
            "runway": "RNW 17",
            "fixes": {
                "OSKUB": "OSKUB AT OR ABOVE 12000",
                "EVPUS": "EVPUS AT OR ABOVE 6000"
            }
        },
        {
            "name": "OSKU1M",
            "runway": "RNW 35",
            "fixes": {
                "OSKUB": "OSKUB AT OR ABOVE 12000",
                "VEGEN": "VEGEN",
                "MAXED": "MAXED AT OR ABOVE 7000"
            }
        },
        {
            "name": "PENO1L",
            "runway": "RNW 17",
            "fixes": {
                "PENNO": "PENNO AT OR ABOVE 8000",
                "ELVEN": "ELVEN AT OR ABOVE 7000",
                "RIMER": "RIMER AT OR ABOVE 6000"
            }
        },
        {
            "name": "PENO1M",
            "runway": "RNW 35",
            "fixes": {
                "PENNO": "PENNO AT OR ABOVE 8000",
                "STETI": "STETI AT OR ABOVE 7000"
            }
        },
        {
            "name": "PIKO1L",
            "runway": "RNW 17",
            "fixes": {
                "PIKOX": "PIKOX AT OR ABOVE 8000",
                "RORMI": "RORMI AT OR ABOVE 7000",
                "RIMER": "RIMER AT OR ABOVE 6000"
            }
        },
        {
            "name": "PIKO1M",
            "runway": "RNW 35",
            "fixes": {
                "PIKOX": "PIKOX",
                "LEGLU": "LEGLU AT OR ABOVE 7000"
            }
        }
    ],
    "approaches": [
        {
            "name": "VORD35",
            "fixes": {
                "CD35": "CD35 AT OR ABOVE 5000",
                "FD35": "FD35 5000",
                "55VOR": "55VOR AT OR ABOVE 3000",
                "35VOR": "35VOR AT OR ABOVE 2160",
                "MD35": "MD35 1079 RNW 35",
                "FSNB": "FSNB SPEED 185 TRK 351 UNTIL 3800 TURN LEFT DIRECT FSNB HOLD AT FSNB RIGHT TURN INBOUNDCOURSE 170 ALT 5000 LEGTIME 1 FAF FD35 MAP MD35"
            },
            "transitions": [
                {
                    "name": "EVD1",
                    "fixes": {
                        "EVD": "EVD AT OR ABOVE 5000 SPEED 220 TRK 216 UNTIL 13.0 FROM EVD SPEED 220"
                    }
                },
                {
                    "name": "EVD2",
                    "fixes": {
                        "EVD": "EVD AT OR ABOVE 5000 SPEED 220 TRK 205 UNTIL 13.0 FROM EVD SPEED 220"
                    }
                },
                {
                    "name": "LEGLU",
                    "fixes": {
                        "LEGLU": "LEGLU",
                        "STETI": "STETI AT OR ABOVE 7000 SPEED 220"
                    }
                },
                {
                    "name": "MAXED",
                    "fixes": {
                        "MAXED": "MAXED",
                        "STETI": "STETI AT OR ABOVE 7000 SPEED 220"
                    }
                },
                {
                    "name": "STETI",
                    "fixes": {
                        "STETI": "STETI AT OR ABOVE 7000 SPEED 220"
                    }
                }
            ]
        },
        {
            "name": "ILS17",
            "fixes": {
                "CI17": "CI17 AT OR ABOVE 4000",
                "FF17": "FF17 4000 RNW 17",
                "D170C": "OVERFLY D170C",
                "ODDNB": "ODDNB 5000 SPEED 185 HOLD AT ODDNB RIGHT TURN INBOUNDCOURSE 068 ALT 5000 SPEED 215 LEGTIME 1 FAF FF17 MAP RNW 17"
            },
            "transitions": [
                {
                    "name": "EVPUS",
                    "fixes": {
                        "EVPUS": "EVPUS SPEED 230",
                        "EV512": "EV512 AT OR ABOVE 4500"
                    }
                },
                {
                    "name": "FS3",
                    "fixes": {
                        "FSNB": "FSNB AT OR ABOVE 5000 TRK 327 UNTIL 6.2 FROM FSNB"
                    }
                },
                {
                    "name": "FS4",
                    "fixes": {
                        "FSNB": "FSNB AT OR ABOVE 5000 TRK 334 UNTIL 7.7 FROM FSNB"
                    }
                },
                {
                    "name": "LALOL",
                    "fixes": {
                        "LALOL": "LALOL SPEED 230",
                        "EV512": "EV512 AT OR ABOVE 4500"
                    }
                },
                {
                    "name": "RIMER",
                    "fixes": {
                        "RIMER": "RIMER SPEED 230",
                        "EV512": "EV512 AT OR ABOVE 4500"
                    }
                }
            ]
        },
        {
            "name": "RNAV17",
            "fixes": {
                "EV512": "EV512 AT OR ABOVE 4500",
                "EV513": "EV513 4000 RNW 17",
                "EV514": "EV514 SPEED 185",
                "ODDNB": "ODDNB TRK 251 UNTIL 3800 TURN RIGHT DIRECT ODDNB HOLD AT ODDNB RIGHT TURN INBOUNDCOURSE 068 ALT 5000 SPEED 205 LEGTIME 1 FAF EV513 MAP RNW 17"
            },
            "transitions": [
                {
                    "name": "EVPUS",
                    "fixes": {
                        "EVPUS": "EVPUS AT OR ABOVE 6000 SPEED 230"
                    }
                },
                {
                    "name": "LALOL",
                    "fixes": {
                        "LALOL": "LALOL AT OR ABOVE 6000 SPEED 230"
                    }
                },
                {
                    "name": "RIMER",
                    "fixes": {
                        "RIMER": "RIMER AT OR ABOVE 6000 SPEED 230"
                    }
                }
            ]
        },
        {
            "name": "RNAVX35",
            "fixes": {
                "STETI": "STETI AT OR ABOVE 7000 SPEED 220",
                "EV722": "EV722 4000",
                "EV721": "EV721",
                "EV720": "EV720 RNW 35",
                "OKNOT": "OKNOT TRK 350 UNTIL 3800 TURN LEFT DIRECT OKNOT HOLD AT OKNOT RIGHT TURN INBOUNDCOURSE 170 ALT 5000 SPEED 220 LEGTIME 1 FAF EV722 MAP RNW 35"
            },
            "transitions": [
                {
                    "name": "LEGLU",
                    "fixes": {
                        "LEGLU": "LEGLU AT OR ABOVE 7000"
                    }
                },
                {
                    "name": "MAXED",
                    "fixes": {
                        "MAXED": "MAXED AT OR ABOVE 7000"
                    }
                }
            ]
        },
        {
            "name": "RNAVZ35",
            "fixes": {
                "STETI": "STETI AT OR ABOVE 7000 SPEED 220",
                "EV712": "EV712 3800",
                "EV710": "OVERFLY EV710 440 RNW 35",
                "FSNB": "FSNB SPEED 185 TRK 351 UNTIL 3800 TURN LEFT DIRECT FSNB HOLD AT FSNB RIGHT TURN INBOUNDCOURSE 171 ALT 5000 SPEED 210 LEGTIME 1 FAF EV712 MAP EV710"
            },
            "transitions": [
                {
                    "name": "LEGLU",
                    "fixes": {
                        "LEGLU": "LEGLU AT OR ABOVE 7000"
                    }
                },
                {
                    "name": "MAXED",
                    "fixes": {
                        "MAXED": "MAXED AT OR ABOVE 7000"
                    }
                }
            ]
        },
        {
            "name": "VORA17",
            "fixes": {
                "CD066": "CD066 AT OR ABOVE 4000",
                "FD066": "FD066 3110",
                "MD066": "MD066 2140 RNW 17",
                "EVD": "EVD TRK 091 UNTIL 4000 TURN LEFT DIRECT EVD 6000 HOLD AT EVD LEFT TURN INBOUNDCOURSE 350 ALT 6000 LEGTIME 1 FAF FD066 MAP MD066"
            },
            "transitions": [
                {
                    "name": "EVD1",
                    "fixes": {
                        "EVD": "EVD AT OR ABOVE 6000 TRK 225 UNTIL 10.0 FROM EVD SPEED 220"
                    }
                },
                {
                    "name": "EVD2",
                    "fixes": {
                        "EVD": "EVD AT OR ABOVE 6000 TRK 237 UNTIL 10.0 FROM EVD SPEED 220"
                    }
                },
                {
                    "name": "ODD1",
                    "fixes": {}
                },
                {
                    "name": "ODD2",
                    "fixes": {}
                }
            ]
        },
        {
            "name": "VORA35",
            "fixes": {
                "CD066": "CD066 AT OR ABOVE 4000",
                "FD066": "FD066 3110",
                "MD066": "MD066 2140 RNW 35",
                "EVD": "EVD TRK 091 UNTIL 4000 TURN LEFT DIRECT EVD 6000 HOLD AT EVD LEFT TURN INBOUNDCOURSE 350 ALT 6000 LEGTIME 1 FAF FD066 MAP MD066"
            },
            "transitions": [
                {
                    "name": "EVD1",
                    "fixes": {
                        "EVD": "EVD AT OR ABOVE 6000 TRK 225 UNTIL 10.0 FROM EVD SPEED 220"
                    }
                },
                {
                    "name": "EVD2",
                    "fixes": {
                        "EVD": "EVD AT OR ABOVE 6000 TRK 237 UNTIL 10.0 FROM EVD SPEED 220"
                    }
                },
                {
                    "name": "ODD1",
                    "fixes": {}
                },
                {
                    "name": "ODD2",
                    "fixes": {}
                }
            ]
        }
    ]
}