{
    "fixes": [
        {
            "name": "27VOR",
            "lat": 54.405166666666666,
            "lon": 18.354388883333332
        },
        {
            "name": "DEXIR",
            "lat": 54.22416666666667,
            "lon": 17.448888883333332
        },
        {
            "name": "EVNOB",
            "lat": 54.26497221666666,
            "lon": 18.184638883333335
        },
        {
            "name": "GD402",
            "lat": 54.311138883333335,
            "lon": 18.7335
        },
        {
            "name": "GD421",
            "lat": 54.32572221666667,
            "lon": 18.675138883333332
        },
        {
            "name": "GD422",
            "lat": 54.48325,
            "lon": 18.787055566666666
        },
        {
            "name": "GD423",
            "lat": 54.63741666666667,
            "lon": 18.14025
        },
        {
            "name": "GD432",
            "lat": 54.13966666666666,
            "lon": 19.049972216666667
        },
        {
            "name": "GD441",
            "lat": 54.32094443333333,
            "lon": 18.694277783333334
        },
        {
            "name": "GD443",
            "lat": 54.47716666666667,
            "lon": 18.062583333333333
        },
        {
            "name": "GD444",
            "lat": 54.249222216666666,
            "lon": 18.619416666666666
        },
        {
            "name": "GD446",
            "lat": 53.93961111666667,
            "lon": 18.6165
        },
        {
            "name": "GD451",
            "lat": 54.26,
            "lon": 18.326416666666667
        },
        {
            "name": "GD511",
            "lat": 54.42627778333333,
            "lon": 18.268166666666666
        },
        {
            "name": "GD512",
            "lat": 54.349583333333335,
            "lon": 18.213055566666668
        },
        {
            "name": "GD513",
            "lat": 54.314166666666665,
            "lon": 18.357361116666667
        },
        {
            "name": "GD514",
            "lat": 54.33802778333333,
            "lon": 18.601638883333333
        },
        {
            "name": "GD521",
            "lat": 54.59455556666666,
            "lon": 18.089638883333333
        },
        {
            "name": "GD531",
            "lat": 54.12825,
            "lon": 18.362972216666666
        },
        {
            "name": "GD532",
            "lat": 53.839083333333335,
            "lon": 18.556277783333332
        },
        {
            "name": "GD541",
            "lat": 54.442222216666664,
            "lon": 18.202861116666668
        },
        {
            "name": "GD542",
            "lat": 54.350805566666665,
            "lon": 18.137333333333334
        },
        {
            "name": "GD543",
            "lat": 54.28794443333334,
            "lon": 17.833333333333332
        },
        {
            "name": "GD551",
            "lat": 54.283166666666666,
            "lon": 18.258222216666667
        },
        {
            "name": "GD801",
            "lat": 54.41591666666667,
            "lon": 18.310388883333335
        },
        {
            "name": "GD802",
            "lat": 54.42555556666667,
            "lon": 18.270944433333334
        },
        {
            "name": "GD803",
            "lat": 54.483888883333336,
            "lon": 18.030333333333335
        },
        {
            "name": "GD804",
            "lat": 54.51561111666667,
            "lon": 17.898388883333332
        },
        {
            "name": "GD806",
            "lat": 54.43866666666667,
            "lon": 17.844
        },
        {
            "name": "GD807",
            "lat": 54.407,
            "lon": 17.97575
        },
        {
            "name": "GD808",
            "lat": 54.375166666666665,
            "lon": 18.107472216666668
        },
        {
            "name": "GD809",
            "lat": 54.34286111666667,
            "lon": 18.240194433333333
        },
        {
            "name": "GD811",
            "lat": 54.1935,
            "lon": 18.112027783333332
        },
        {
            "name": "GD821",
            "lat": 54.56066666666667,
            "lon": 18.085222216666665
        },
        {
            "name": "GD822",
            "lat": 54.528666666666666,
            "lon": 18.217138883333334
        },
        {
            "name": "GD823",
            "lat": 54.67013888333334,
            "lon": 18.16375
        },
        {
            "name": "GD831",
            "lat": 54.38638888333333,
            "lon": 18.794305566666665
        },
        {
            "name": "GD832",
            "lat": 54.44922221666667,
            "lon": 18.541222216666668
        },
        {
            "name": "GD841",
            "lat": 53.982055566666666,
            "lon": 18.423305566666667
        },
        {
            "name": "GD842",
            "lat": 54.1905,
            "lon": 18.247805566666667
        },
        {
            "name": "GD852",
            "lat": 54.273,
            "lon": 18.888
        },
        {
            "name": "GD902",
            "lat": 54.309583333333336,
            "lon": 18.739805566666668
        },
        {
            "name": "GD903",
            "lat": 54.25069443333334,
            "lon": 18.974083333333333
        },
        {
            "name": "GD904",
            "lat": 54.217666666666666,
            "lon": 19.104388883333332
        },
        {
            "name": "GD906",
            "lat": 54.141361116666666,
            "lon": 19.048027783333332
        },
        {
            "name": "GD907",
            "lat": 54.17430556666667,
            "lon": 18.917944433333332
        },
        {
            "name": "GD908",
            "lat": 54.207138883333336,
            "lon": 18.787638883333333
        },
        {
            "name": "GD909",
            "lat": 54.23980556666667,
            "lon": 18.657111116666666
        },
        {
            "name": "GD911",
            "lat": 54.21994443333333,
            "lon": 18.453138883333335
        },
        {
            "name": "GD912",
            "lat": 54.192138883333335,
            "lon": 18.173416666666668
        },
        {
            "name": "GD921",
            "lat": 54.327027783333335,
            "lon": 19.030444433333333
        },
        {
            "name": "GD922",
            "lat": 54.35994443333333,
            "lon": 18.89975
        },
        {
            "name": "GD923",
            "lat": 54.39275,
            "lon": 18.768861116666667
        },
        {
            "name": "GD924",
            "lat": 54.42541666666666,
            "lon": 18.63775
        },
        {
            "name": "GD926",
            "lat": 54.67433333333334,
            "lon": 18.164555566666667
        },
        {
            "name": "GD931",
            "lat": 54.163305566666665,
            "lon": 18.601555566666665
        },
        {
            "name": "GD932",
            "lat": 54.120944433333335,
            "lon": 18.770611116666668
        },
        {
            "name": "GD933",
            "lat": 53.9405,
            "lon": 18.761888883333334
        },
        {
            "name": "GD941",
            "lat": 54.321027783333335,
            "lon": 18.693972216666666
        },
        {
            "name": "GD951",
            "lat": 54.321,
            "lon": 18.694305566666667
        },
        {
            "name": "GD952",
            "lat": 54.311166666666665,
            "lon": 18.733527783333333
        },
        {
            "name": "GZD",
            "lat": 54.387805566666664,
            "lon": 18.425277783333332
        },
        {
            "name": "IPLAM",
            "lat": 54.283555566666664,
            "lon": 18.843611116666665
        },
        {
            "name": "IRLUN",
            "lat": 53.75058333333333,
            "lon": 18.614861116666667
        },
        {
            "name": "KOSEX",
            "lat": 54.12622221666667,
            "lon": 17.536194433333332
        },
        {
            "name": "MD29",
            "lat": 54.367888883333336,
            "lon": 18.505805566666666
        },
        {
            "name": "NIKMI",
            "lat": 54.20130556666667,
            "lon": 19.145083333333332
        },
        {
            "name": "OGDAV",
            "lat": 54.80194443333333,
            "lon": 17.99819443333333
        },
        {
            "name": "OSLOG",
            "lat": 53.765805566666664,
            "lon": 18.7535
        },
        {
            "name": "RATOR",
            "lat": 53.96366666666667,
            "lon": 17.880444433333334
        },
        {
            "name": "RW29",
            "lat": 54.37126666666666,
            "lon": 18.491716666666665
        },
        {
            "name": "UGNUR",
            "lat": 54.60616666666667,
            "lon": 18.273
        },
        {
            "name": "UVRIK",
            "lat": 54.45194443333333,
            "lon": 18.162222216666667
        },
        {
            "name": "VAPOS",
            "lat": 54.79527778333333,
            "lon": 17.826666666666668
        },
        {
            "name": "VIZAN",
            "lat": 54.65,
            "lon": 17.647777783333332
        }
    ],
    "rnws": [
        "RNW 11",
        "RNW 29"
    ],
    "sids": [
        {
            "name": "DEXI2B",
            "rnw": "11",
            "fixes": {
                "GD421": "GD421 AT OR ABOVE 3300 SPEED 220",
                "GD444": "GD444 AT OR ABOVE 5500 SPEED 220",
                "GD451": "GD451 AT OR ABOVE 9000",
                "EVNOB": "EVNOB",
                "DEXIR": "DEXIR AT OR ABOVE 10000"
            },
            "sub_fixes": [],
            "transitions": []
        },
        {
            "name": "DEXI2H",
            "rnw": "29",
            "fixes": {
                "GD541": "GD541 AT OR ABOVE 4500 SPEED 220",
                "GD542": "GD542 AT OR ABOVE 7000",
                "GD543": "GD543",
                "DEXIR": "DEXIR AT OR ABOVE 10000"
            },
            "sub_fixes": [],
            "transitions": []
        },
        {
            "name": "IRLU2B",
            "rnw": "11",
            "fixes": {
                "GD421": "GD421 AT OR ABOVE 3300 SPEED 220",
                "GD444": "GD444 AT OR ABOVE 5500",
                "GD446": "GD446 AT OR ABOVE 13000",
                "IRLUN": "IRLUN"
            },
            "sub_fixes": [],
            "transitions": []
        },
        {
            "name": "IRLU2H",
            "rnw": "29",
            "fixes": {
                "GD541": "GD541 AT OR ABOVE 4500 SPEED 220",
                "GD542": "GD542 AT OR ABOVE 7000 SPEED 220",
                "GD551": "GD551 AT OR ABOVE 9000",
                "GD531": "GD531",
                "GD532": "GD532 AT OR ABOVE 13000",
                "IRLUN": "IRLUN"
            },
            "sub_fixes": [],
            "transitions": []
        },
        {
            "name": "NIKM1H",
            "rnw": "29",
            "fixes": {
                "GD511": "GD511 AT OR ABOVE 3300 SPEED 220",
                "GD512": "GD512 AT OR ABOVE 5000 SPEED 220",
                "GD513": "GD513 SPEED 250",
                "GD514": "GD514 AT OR ABOVE 10000",
                "NIKMI": "NIKMI"
            },
            "sub_fixes": [],
            "transitions": []
        },
        {
            "name": "NIKM2B",
            "rnw": "11",
            "fixes": {
                "GD421": "GD421 AT OR ABOVE 3300",
                "GD432": "GD432 SPEED 250",
                "NIKMI": "NIKMI 10000"
            },
            "sub_fixes": [],
            "transitions": []
        },
        {
            "name": "VAPO1H",
            "rnw": "29",
            "fixes": {
                "GD511": "GD511 AT OR ABOVE 3300",
                "GD521": "GD521",
                "VAPOS": "VAPOS AT OR ABOVE 11000"
            },
            "sub_fixes": [],
            "transitions": []
        },
        {
            "name": "VAPO2B",
            "rnw": "11",
            "fixes": {
                "GD421": "GD421 AT OR ABOVE 3300 SPEED 220",
                "GD422": "GD422 AT OR BELOW 8000 SPEED 220",
                "UGNUR": "UGNUR AT OR ABOVE 10000",
                "GD423": "GD423 AT OR ABOVE 12000",
                "VAPOS": "VAPOS"
            },
            "sub_fixes": [],
            "transitions": []
        },
        {
            "name": "VIZA1B",
            "rnw": "11",
            "fixes": {
                "GD421": "GD421 AT OR ABOVE 3300 SPEED 220",
                "GD422": "GD422 AT OR BELOW 8000 SPEED 220",
                "UGNUR": "UGNUR AT OR ABOVE 10000",
                "VIZAN": "VIZAN"
            },
            "sub_fixes": [],
            "transitions": []
        },
        {
            "name": "VIZA1H",
            "rnw": "29",
            "fixes": {
                "GD511": "GD511 AT OR ABOVE 3300",
                "VIZAN": "VIZAN"
            },
            "sub_fixes": [],
            "transitions": []
        }
    ],
    "stars": [
        {
            "name": "IRLU4R",
            "runway": "RNW 11",
            "fixes": {
                "IRLUN": "IRLUN AT OR BELOW 12000 SPEED 250",
                "GD841": "GD841",
                "GD842": "GD842 AT OR BELOW 7000",
                "EVNOB": "EVNOB SPEED 220",
                "GD809": "GD809 AT OR ABOVE 5000 SPEED 220",
                "GD808": "GD808 AT OR ABOVE 5000 SPEED 220",
                "GD807": "GD807 AT OR ABOVE 5000 SPEED 220",
                "GD806": "GD806 AT OR ABOVE 5000 SPEED 210",
                "GD804": "GD804 AT OR ABOVE 5000 SPEED 210",
                "GD803": "GD803 5000 SPEED 210"
            }
        },
        {
            "name": "IRLU4T",
            "runway": "RNW 29",
            "fixes": {
                "IRLUN": "IRLUN AT OR BELOW 12000 SPEED 250",
                "GD933": "GD933 SPEED 250",
                "GD932": "GD932 SPEED 220",
                "GD931": "GD931 SPEED 220",
                "GD909": "GD909 AT OR ABOVE 5000 SPEED 220",
                "GD908": "GD908 AT OR ABOVE 5000 SPEED 220",
                "GD907": "GD907 AT OR ABOVE 5000 SPEED 220",
                "GD906": "GD906 AT OR ABOVE 5000 SPEED 210",
                "GD904": "GD904 AT OR ABOVE 5000 SPEED 210",
                "GD903": "GD903 5000 SPEED 210"
            }
        },
        {
            "name": "KOSE4R",
            "runway": "RNW 11",
            "fixes": {
                "KOSEX": "KOSEX AT OR ABOVE 10000 SPEED 250",
                "GD811": "GD811 AT OR BELOW 7000",
                "EVNOB": "EVNOB",
                "GD809": "GD809 AT OR ABOVE 5000 SPEED 220",
                "GD808": "GD808 AT OR ABOVE 5000 SPEED 220",
                "GD807": "GD807 AT OR ABOVE 5000 SPEED 220",
                "GD806": "GD806 AT OR ABOVE 5000 SPEED 210",
                "GD804": "GD804 AT OR ABOVE 5000 SPEED 210",
                "GD803": "GD803 5000 SPEED 210"
            }
        },
        {
            "name": "KOSE4T",
            "runway": "RNW 29",
            "fixes": {
                "KOSEX": "KOSEX AT OR ABOVE 10000 SPEED 250",
                "GD912": "GD912 AT OR BELOW 7000",
                "GD911": "GD911",
                "GD909": "GD909 AT OR ABOVE 5000 SPEED 220",
                "GD908": "GD908 AT OR ABOVE 5000 SPEED 220",
                "GD907": "GD907 AT OR ABOVE 5000 SPEED 220",
                "GD906": "GD906 AT OR ABOVE 5000 SPEED 210",
                "GD904": "GD904 AT OR ABOVE 5000 SPEED 210",
                "GD903": "GD903 5000 SPEED 210"
            }
        },
        {
            "name": "NIKM3T",
            "runway": "RNW 29",
            "fixes": {
                "NIKMI": "NIKMI AT OR BELOW 9000 SPEED 250",
                "GD903": "GD903 5000 SPEED 210"
            }
        },
        {
            "name": "NIKM4R",
            "runway": "RNW 11",
            "fixes": {
                "NIKMI": "NIKMI AT OR ABOVE 11000 SPEED 250",
                "GD831": "GD831 AT OR ABOVE 9000",
                "GD832": "GD832 AT OR ABOVE 9000",
                "GD822": "GD822 AT OR ABOVE 5000",
                "GD821": "GD821 AT OR ABOVE 5000 SPEED 210",
                "GD803": "GD803 5000 SPEED 210"
            }
        },
        {
            "name": "OGDA4R",
            "runway": "RNW 11",
            "fixes": {
                "OGDAV": "OGDAV AT OR BELOW 11000 SPEED 250",
                "GD823": "GD823 6000 SPEED 250",
                "UGNUR": "UGNUR 6000",
                "GD822": "GD822 AT OR ABOVE 5000 SPEED 220",
                "GD821": "GD821 AT OR ABOVE 5000 SPEED 210",
                "GD803": "GD803 5000 SPEED 210"
            }
        },
        {
            "name": "OGDA4T",
            "runway": "RNW 29",
            "fixes": {
                "OGDAV": "OGDAV AT OR ABOVE 10000 SPEED 250",
                "GD926": "GD926 AT OR ABOVE 5000 SPEED 250",
                "GD924": "GD924 AT OR ABOVE 5000 SPEED 220",
                "GD923": "GD923 AT OR ABOVE 5000 SPEED 220",
                "GD922": "GD922 AT OR ABOVE 5000 SPEED 220",
                "GD921": "GD921 AT OR ABOVE 5000 SPEED 210",
                "GD903": "GD903 5000 SPEED 210"
            }
        },
        {
            "name": "OSLO4R",
            "runway": "RNW 11",
            "fixes": {
                "OSLOG": "OSLOG AT OR BELOW 12000 SPEED 250",
                "GD841": "GD841",
                "GD842": "GD842 AT OR BELOW 7000",
                "EVNOB": "EVNOB SPEED 220",
                "GD809": "GD809 AT OR ABOVE 5000 SPEED 220",
                "GD808": "GD808 AT OR ABOVE 5000 SPEED 220",
                "GD807": "GD807 AT OR ABOVE 5000 SPEED 220",
                "GD806": "GD806 AT OR ABOVE 5000 SPEED 210",
                "GD804": "GD804 AT OR ABOVE 5000 SPEED 210",
                "GD803": "GD803 5000 SPEED 210"
            }
        },
        {
            "name": "OSLO4T",
            "runway": "RNW 29",
            "fixes": {
                "OSLOG": "OSLOG AT OR BELOW 12000 SPEED 250",
                "GD933": "GD933 SPEED 250",
                "GD932": "GD932 SPEED 220",
                "GD931": "GD931 SPEED 220",
                "GD909": "GD909 AT OR ABOVE 5000 SPEED 220",
                "GD908": "GD908 AT OR ABOVE 5000 SPEED 220",
                "GD907": "GD907 AT OR ABOVE 5000 SPEED 220",
                "GD906": "GD906 AT OR ABOVE 5000 SPEED 210",
                "GD904": "GD904 AT OR ABOVE 5000 SPEED 210",
                "GD903": "GD903 5000 SPEED 210"
            }
        },
        {
            "name": "RATO4R",
            "runway": "RNW 11",
            "fixes": {
                "RATOR": "RATOR AT OR ABOVE 10000 SPEED 250",
                "GD811": "GD811 AT OR BELOW 7000",
                "EVNOB": "EVNOB",
                "GD809": "GD809 AT OR ABOVE 5000 SPEED 220",
                "GD808": "GD808 AT OR ABOVE 5000 SPEED 220",
                "GD807": "GD807 AT OR ABOVE 5000 SPEED 220",
                "GD806": "GD806 AT OR ABOVE 5000 SPEED 210",
                "GD804": "GD804 AT OR ABOVE 5000 SPEED 210",
                "GD803": "GD803 5000 SPEED 210"
            }
        },
        {
            "name": "RATO4T",
            "runway": "RNW 29",
            "fixes": {
                "RATOR": "RATOR AT OR ABOVE 10000 SPEED 250",
                "GD912": "GD912 AT OR BELOW 7000 SPEED 250",
                "GD911": "GD911",
                "GD909": "GD909 AT OR ABOVE 5000 SPEED 220",
                "GD908": "GD908 AT OR ABOVE 5000 SPEED 220",
                "GD907": "GD907 AT OR ABOVE 5000 SPEED 220",
                "GD906": "GD906 AT OR ABOVE 5000 SPEED 210",
                "GD904": "GD904 AT OR ABOVE 5000 SPEED 210",
                "GD903": "GD903 5000 SPEED 210"
            }
        }
    ],
    "approaches": [
        {
            "name": "VORD11",
            "fixes": {
                "GD802": "GD802 AT OR ABOVE 2500",
                "GD801": "GD801 2500",
                "27VOR": "27VOR AT OR ABOVE 1880",
                "GZD": "GZD 882 RNW 11 TRK 107 UNTIL 3000 HDG 107 VECTORS FAF GD801 MAP GZD"
            },
            "transitions": [
                {
                    "name": "GD803",
                    "fixes": {
                        "GD803": "GD803 5000",
                        "UVRIK": "UVRIK AT OR ABOVE 3500"
                    }
                }
            ]
        },
        {
            "name": "VORD29",
            "fixes": {
                "GD952": "GD952 AT OR ABOVE 3000",
                "GD951": "GD951 3000",
                "MD29": "MD29 712 RNW 29 TRK 287 UNTIL 3000 HDG 287 VECTORS FAF GD951 MAP MD29"
            },
            "transitions": [
                {
                    "name": "GD903",
                    "fixes": {
                        "GD903": "GD903 5000",
                        "IPLAM": "IPLAM AT OR ABOVE 4000"
                    }
                }
            ]
        },
        {
            "name": "ILS29",
            "fixes": {
                "GD902": "GD902 AT OR ABOVE 3000",
                "GD941": "GD941 3000 RNW 29 TRK 287 VECTORS FAF GD941 MAP RNW 29"
            },
            "transitions": [
                {
                    "name": "GD903",
                    "fixes": {
                        "GD903": "GD903 5000",
                        "IPLAM": "IPLAM AT OR ABOVE 4000"
                    }
                }
            ]
        },
        {
            "name": "RNAV11",
            "fixes": {
                "GD802": "GD802 AT OR ABOVE 2500",
                "GD801": "GD801 2500 RNW 11",
                "GD852": "OVERFLY GD852 3000 FAF GD801 MAP RNW 11"
            },
            "transitions": [
                {
                    "name": "GD803",
                    "fixes": {
                        "GD803": "GD803 5000",
                        "UVRIK": "UVRIK AT OR ABOVE 3500"
                    }
                }
            ]
        },
        {
            "name": "RNAV29",
            "fixes": {
                "GD402": "GD402 AT OR ABOVE 3000",
                "GD441": "GD441 3000 RNW 29",
                "GD443": "OVERFLY GD443 3000 FAF GD441 MAP RNW 29"
            },
            "transitions": [
                {
                    "name": "GD903",
                    "fixes": {
                        "GD903": "GD903 5000",
                        "IPLAM": "IPLAM AT OR ABOVE 4000"
                    }
                }
            ]
        }
    ]
}