{
    "fixes": [
        {
            "name": "BASDA",
            "lat": 50.07479443333333,
            "lon": 8.455336116666667
        },
        {
            "name": "ELTIL",
            "lat": 50.01548056666667,
            "lon": 8.148113883333334
        },
        {
            "name": "EROVO",
            "lat": 49.98718888333333,
            "lon": 8.013947216666667
        },
        {
            "name": "FFM",
            "lat": 50.05374166666667,
            "lon": 8.637091666666667
        },
        {
            "name": "GALEC",
            "lat": 50.12146943333333,
            "lon": 8.701230566666666
        },
        {
            "name": "GED",
            "lat": 50.41194721666667,
            "lon": 9.249163883333333
        },
        {
            "name": "MASIR",
            "lat": 50.25491388333333,
            "lon": 7.737927783333333
        },
        {
            "name": "MTR",
            "lat": 50.276275,
            "lon": 8.848625
        },
        {
            "name": "NANYI",
            "lat": 50.007558333333336,
            "lon": 8.00645
        },
        {
            "name": "OU101",
            "lat": 50.06150278333333,
            "lon": 8.395397216666666
        },
        {
            "name": "OU102",
            "lat": 50.02691943333333,
            "lon": 8.158572216666666
        },
        {
            "name": "OU103",
            "lat": 50.04417221666667,
            "lon": 8.295569433333334
        },
        {
            "name": "OU104",
            "lat": 50.038758333333334,
            "lon": 8.252430566666666
        },
        {
            "name": "OU105",
            "lat": 50.053797216666666,
            "lon": 8.350397216666666
        },
        {
            "name": "OU106",
            "lat": 50.06601666666667,
            "lon": 8.413288883333333
        },
        {
            "name": "OU107",
            "lat": 50.07733888333333,
            "lon": 8.47175
        },
        {
            "name": "OU108",
            "lat": 50.075927783333334,
            "lon": 8.461486116666666
        },
        {
            "name": "OU111",
            "lat": 50.022163883333334,
            "lon": 8.189697216666668
        },
        {
            "name": "OU112",
            "lat": 50.194375,
            "lon": 8.102541666666667
        },
        {
            "name": "OU401",
            "lat": 50.06299166666667,
            "lon": 8.393811116666667
        },
        {
            "name": "OU402",
            "lat": 50.037480566666666,
            "lon": 8.261497216666667
        },
        {
            "name": "OU420",
            "lat": 50.09531666666667,
            "lon": 8.562786116666667
        },
        {
            "name": "OU421",
            "lat": 50.19589166666667,
            "lon": 8.632147216666667
        },
        {
            "name": "OU425",
            "lat": 50.022497216666665,
            "lon": 8.189541666666667
        },
        {
            "name": "OU451",
            "lat": 49.991338883333334,
            "lon": 8.024475
        },
        {
            "name": "OU452",
            "lat": 50.070988883333335,
            "lon": 7.986869433333333
        },
        {
            "name": "OU453",
            "lat": 50.063147216666664,
            "lon": 8.394633333333333
        },
        {
            "name": "OU455",
            "lat": 50.25046388333333,
            "lon": 8.162525
        },
        {
            "name": "RID",
            "lat": 49.78169166666667,
            "lon": 8.541486116666666
        },
        {
            "name": "RIDKO",
            "lat": 49.844886116666665,
            "lon": 7.934363883333333
        },
        {
            "name": "SOBRA",
            "lat": 49.86083333333333,
            "lon": 7.775555566666666
        },
        {
            "name": "TABUM",
            "lat": 50.290925,
            "lon": 8.405058333333333
        },
        {
            "name": "TAU",
            "lat": 50.25046388333333,
            "lon": 8.162525
        },
        {
            "name": "UBENO",
            "lat": 49.737194433333336,
            "lon": 8.690005566666667
        },
        {
            "name": "WIB",
            "lat": 50.04608056666667,
            "lon": 8.310797216666666
        }
    ],
    "rnws": [
        "RNW 07",
        "RNW 25"
    ],
    "sids": [
        {
            "name": "MASI1V",
            "rnw": "25",
            "fixes": {
                "OU111": "OU111 AT OR BELOW 2500 AT OR ABOVE 1500",
                "EROVO": "OVERFLY EROVO 4000 TURN RIGHT DIRECT",
                "TAU": "OVERFLY TAU 5000 TURN LEFT DIRECT",
                "MASIR": "MASIR 5000 SPEED 250"
            },
            "sub_fixes": [],
            "transitions": []
        },
        {
            "name": "MASI2W",
            "rnw": "25",
            "fixes": {
                "OU111": "OU111 AT OR BELOW 2500 AT OR ABOVE 1500",
                "EROVO": "OVERFLY EROVO 4000 TURN RIGHT DIRECT",
                "TAU": "TAU 5000",
                "MASIR": "MASIR 5000"
            },
            "sub_fixes": [],
            "transitions": []
        },
        {
            "name": "MASI2X",
            "rnw": "07",
            "fixes": {
                "OU453": "OVERFLY OU453 AT OR ABOVE 1400 TURN LEFT DIRECT",
                "TAU": "TAU 5000 SPEED 230",
                "MASIR": "MASIR 5000"
            },
            "sub_fixes": [],
            "transitions": []
        },
        {
            "name": "RID1V",
            "rnw": "25",
            "fixes": {
                "OU111": "OU111 AT OR BELOW 2500 AT OR ABOVE 1500",
                "EROVO": "EROVO 4000",
                "RIDKO": "RIDKO 5000 SPEED 250 TURN LEFT DIRECT",
                "RID": "RID 5000"
            },
            "sub_fixes": [],
            "transitions": []
        },
        {
            "name": "RID2W",
            "rnw": "25",
            "fixes": {
                "OU111": "OU111 AT OR BELOW 2500 AT OR ABOVE 1500",
                "EROVO": "EROVO 4000",
                "RIDKO": "RIDKO TURN LEFT DIRECT",
                "RID": "RID 5000"
            },
            "sub_fixes": [],
            "transitions": []
        },
        {
            "name": "RID2X",
            "rnw": "07",
            "fixes": {
                "OU453": "OVERFLY OU453 AT OR ABOVE 1400 TURN LEFT DIRECT",
                "TAU": "TAU 5000 SPEED 230",
                "TABUM": "TABUM",
                "FFM": "FFM",
                "RID": "RID"
            },
            "sub_fixes": [],
            "transitions": []
        },
        {
            "name": "SOBR1V",
            "rnw": "25",
            "fixes": {
                "OU111": "OU111 AT OR BELOW 2500 AT OR ABOVE 1500",
                "EROVO": "EROVO 4000",
                "SOBRA": "SOBRA 5000"
            },
            "sub_fixes": [],
            "transitions": []
        },
        {
            "name": "SOBR2W",
            "rnw": "25",
            "fixes": {
                "OU111": "OU111 AT OR BELOW 2500 AT OR ABOVE 1500",
                "EROVO": "EROVO 4000",
                "RIDKO": "RIDKO",
                "SOBRA": "SOBRA 5000"
            },
            "sub_fixes": [],
            "transitions": []
        },
        {
            "name": "SOBR2X",
            "rnw": "07",
            "fixes": {
                "OU453": "OVERFLY OU453 AT OR ABOVE 1400 TURN LEFT DIRECT",
                "TAU": "TAU 5000 SPEED 230",
                "RIDKO": "RIDKO",
                "SOBRA": "SOBRA"
            },
            "sub_fixes": [],
            "transitions": []
        },
        {
            "name": "TABU1V",
            "rnw": "25",
            "fixes": {
                "OU111": "OU111 AT OR BELOW 2500 AT OR ABOVE 1500",
                "EROVO": "OVERFLY EROVO 4000 TURN RIGHT DIRECT",
                "TAU": "OVERFLY TAU 5000 SPEED 250",
                "TABUM": "TABUM 6000"
            },
            "sub_fixes": [],
            "transitions": []
        },
        {
            "name": "TABU2W",
            "rnw": "25",
            "fixes": {
                "OU111": "OU111 AT OR BELOW 2500 AT OR ABOVE 1500",
                "EROVO": "OVERFLY EROVO 4000 TURN RIGHT DIRECT",
                "TAU": "TAU 5000",
                "TABUM": "TABUM"
            },
            "sub_fixes": [],
            "transitions": []
        },
        {
            "name": "TABU2X",
            "rnw": "07",
            "fixes": {
                "OU453": "OVERFLY OU453 AT OR ABOVE 1400 TURN LEFT DIRECT",
                "TAU": "TAU 5000 SPEED 230",
                "TABUM": "TABUM"
            },
            "sub_fixes": [],
            "transitions": []
        },
        {
            "name": "UBEN1V",
            "rnw": "25",
            "fixes": {
                "OU111": "OU111 AT OR BELOW 2500 AT OR ABOVE 1500",
                "EROVO": "EROVO 4000",
                "RIDKO": "RIDKO 5000 SPEED 250 TURN LEFT DIRECT",
                "RID": "RID 5000",
                "UBENO": "UBENO 5000"
            },
            "sub_fixes": [],
            "transitions": []
        },
        {
            "name": "UBEN2W",
            "rnw": "25",
            "fixes": {
                "OU111": "OU111 AT OR BELOW 2500 AT OR ABOVE 1500",
                "EROVO": "EROVO 4000",
                "RIDKO": "RIDKO TURN LEFT DIRECT",
                "RID": "RID 5000",
                "UBENO": "UBENO 5000"
            },
            "sub_fixes": [],
            "transitions": []
        },
        {
            "name": "UBEN2X",
            "rnw": "07",
            "fixes": {
                "OU453": "OVERFLY OU453 AT OR ABOVE 1400 TURN LEFT DIRECT",
                "TAU": "TAU 5000 SPEED 230",
                "TABUM": "TABUM",
                "FFM": "FFM",
                "UBENO": "UBENO"
            },
            "sub_fixes": [],
            "transitions": []
        }
    ],
    "stars": [],
    "approaches": [
        {
            "name": "ILS25",
            "fixes": {
                "GALEC": "GALEC AT OR ABOVE 4000",
                "OU108": "OU108 2100 RNW 25 TRK 252 UNTIL 860",
                "OU425": "OVERFLY OU425 AT OR BELOW 2500 AT OR ABOVE 1500 TURN RIGHT DIRECT",
                "TAU": "OVERFLY TAU AT OR ABOVE 4400",
                "MTR": "OVERFLY MTR HOLD AT MTR RIGHT TURN INBOUNDCOURSE 241 SPEED 250 LEGTIME 1 FAF OU108 MAP RNW 25"
            },
            "transitions": [
                {
                    "name": "GED",
                    "fixes": {
                        "GED": "GED AT OR ABOVE 5000",
                        "MTR": "OVERFLY MTR TRK 209 UNTIL 6.9 FROM MTR"
                    }
                }
            ]
        },
        {
            "name": "RNAV07",
            "fixes": {
                "OU451": "OU451 AT OR ABOVE 3500 SPEED 200",
                "ELTIL": "OVERFLY ELTIL 2600",
                "OU402": "OU402 AT OR ABOVE 1120 RNW 07 TRK 072 UNTIL 760",
                "OU453": "OVERFLY OU453 TURN LEFT DIRECT",
                "OU455": "OVERFLY OU455 5000 HOLD AT OU455 RIGHT TURN INBOUNDCOURSE 227 LEGDIST 5 FAF ELTIL MAP RNW 07"
            },
            "transitions": [
                {
                    "name": "OU455",
                    "fixes": {
                        "OU455": "OU455 AT OR ABOVE 5000",
                        "OU452": "OU452 AT OR ABOVE 3500"
                    }
                }
            ]
        },
        {
            "name": "RNAV25",
            "fixes": {
                "OU420": "OU420 AT OR ABOVE 3000",
                "BASDA": "BASDA 2000",
                "OU401": "OU401 AT OR ABOVE 1240 RNW 25 TRK 252 UNTIL 860",
                "OU425": "OU425 AT OR BELOW 2500",
                "EROVO": "OVERFLY EROVO 4000 TURN RIGHT DIRECT",
                "OU455": "OU455 SPEED 230",
                "MTR": "OVERFLY MTR 5000 HOLD AT MTR RIGHT TURN INBOUNDCOURSE 241 SPEED 265 LEGDIST 4 FAF BASDA MAP RNW 25"
            },
            "transitions": [
                {
                    "name": "MTR",
                    "fixes": {
                        "MTR": "MTR AT OR ABOVE 4000",
                        "OU421": "OU421 AT OR ABOVE 3000"
                    }
                }
            ]
        },
        {
            "name": "VOR07",
            "fixes": {
                "NANYI": "NANYI AT OR ABOVE 4000",
                "OU102": "OU102 2600",
                "OU104": "OU104 AT OR ABOVE 1280",
                "OU103": "OU103 717 RNW 07",
                "WIB": "WIB",
                "OU101": "OVERFLY OU101 TURN LEFT DIRECT",
                "TAU": "OVERFLY TAU AT OR ABOVE 5000 SPEED 230 HOLD AT TAU RIGHT TURN INBOUNDCOURSE 227 ALT 7000 SPEED 250 LEGTIME 1 FAF OU102 MAP OU103"
            },
            "transitions": [
                {
                    "name": "TAU",
                    "fixes": {
                        "TAU": "TAU AT OR ABOVE 5000",
                        "OU112": "OU112"
                    }
                }
            ]
        },
        {
            "name": "VOR25",
            "fixes": {
                "GALEC": "GALEC AT OR ABOVE 4000",
                "OU107": "OU107 2200",
                "OU106": "OU106 AT OR ABOVE 1450",
                "OU105": "OU105 642 RNW 25",
                "WIB": "WIB TRK 251 UNTIL 4.9 FROM WIB",
                "EROVO": "OVERFLY EROVO 4000 TURN RIGHT DIRECT",
                "TAU": "TAU AT OR ABOVE 4400",
                "MTR": "MTR SPEED 230 HOLD AT MTR RIGHT TURN INBOUNDCOURSE 241 ALT 10000 SPEED 250 LEGTIME 1 FAF OU107 MAP OU105"
            },
            "transitions": [
                {
                    "name": "GED",
                    "fixes": {
                        "GED": "GED AT OR ABOVE 5000",
                        "MTR": "MTR"
                    }
                }
            ]
        }
    ]
}