{
    "fixes": [
        {
            "name": "BAGGS",
            "lat": 27.134244433333333,
            "lon": 82.84088888333334
        },
        {
            "name": "BATTN",
            "lat": 29.17175556666667,
            "lon": 82.12735833333333
        },
        {
            "name": "BREKR",
            "lat": 28.119822216666666,
            "lon": 82.03393333333334
        },
        {
            "name": "CODGR",
            "lat": 27.440511116666666,
            "lon": 83.35557221666667
        },
        {
            "name": "COKUX",
            "lat": 27.079494433333334,
            "lon": 82.19050833333333
        },
        {
            "name": "EHFAZ",
            "lat": 26.79545278333333,
            "lon": 82.32711943333334
        },
        {
            "name": "FA54",
            "lat": 26.853741666666668,
            "lon": 82.25260278333333
        },
        {
            "name": "GURPE",
            "lat": 26.911744433333332,
            "lon": 82.17831388333333
        },
        {
            "name": "GUSEC",
            "lat": 26.868330566666668,
            "lon": 82.51893888333333
        },
        {
            "name": "KRVUR",
            "lat": 30.742263883333333,
            "lon": 82.941775
        },
        {
            "name": "KYYUU",
            "lat": 30.637175,
            "lon": 82.19882221666667
        },
        {
            "name": "LUBBR",
            "lat": 28.67899166666667,
            "lon": 82.11705833333333
        },
        {
            "name": "LYFIE",
            "lat": 27.610327783333332,
            "lon": 82.38522221666666
        },
        {
            "name": "OBESE",
            "lat": 28.562888883333333,
            "lon": 83.35054721666667
        },
        {
            "name": "OJHEC",
            "lat": 26.877633333333332,
            "lon": 81.99471943333333
        },
        {
            "name": "OJWIP",
            "lat": 26.846061116666668,
            "lon": 82.26243056666667
        },
        {
            "name": "OYOKI",
            "lat": 26.728402783333333,
            "lon": 82.41268611666666
        },
        {
            "name": "PIKKR",
            "lat": 26.940119433333333,
            "lon": 82.69035556666667
        },
        {
            "name": "PLYER",
            "lat": 28.9476,
            "lon": 83.33571943333334
        },
        {
            "name": "REMIS",
            "lat": 27.884052783333335,
            "lon": 85.25788611666667
        },
        {
            "name": "RILEE",
            "lat": 28.139627783333335,
            "lon": 83.37075556666667
        },
        {
            "name": "ROSTY",
            "lat": 27.176691666666667,
            "lon": 82.28561388333334
        },
        {
            "name": "RUNNE",
            "lat": 28.324430566666667,
            "lon": 82.06442778333333
        },
        {
            "name": "SSPAZ",
            "lat": 29.592138883333334,
            "lon": 82.18021943333333
        },
        {
            "name": "WHITL",
            "lat": 28.274444433333333,
            "lon": 83.36166666666666
        },
        {
            "name": "WNWUD",
            "lat": 30.15780833333333,
            "lon": 82.25298333333333
        },
        {
            "name": "WUBKU",
            "lat": 26.829075,
            "lon": 82.51074166666666
        },
        {
            "name": "WUDDY",
            "lat": 27.77215,
            "lon": 82.22585833333333
        },
        {
            "name": "YENUT",
            "lat": 26.9786,
            "lon": 82.09252778333334
        },
        {
            "name": "ZEBON",
            "lat": 28.487322216666666,
            "lon": 82.089625
        },
        {
            "name": "ZEMUT",
            "lat": 26.627661116666665,
            "lon": 82.3148
        }
    ],
    "rnws": [
        "RNW 05",
        "RNW 23"
    ],
    "sids": [],
    "stars": [
        {
            "name": "LUBBR3",
            "runway": "RNW 05 RNW 23",
            "fixes": {
                "LUBBR": "LUBBR",
                "ZEBON": "ZEBON",
                "RUNNE": "RUNNE",
                "BREKR": "BREKR",
                "WUDDY": "WUDDY",
                "LYFIE": "LYFIE",
                "ROSTY": "OVERFLY ROSTY AT OR ABOVE 3000 HDG 180 VECTORS"
            }
        },
        {
            "name": "PIKKR7",
            "runway": "RNW 05 RNW 23",
            "fixes": {
                "PIKKR": "PIKKR",
                "GUSEC": "OVERFLY GUSEC HDG 118 VECTORS"
            }
        }
    ],
    "approaches": [
        {
            "name": "RNAV05",
            "fixes": {
                "OYOKI": "OYOKI AT OR ABOVE 2000",
                "EHFAZ": "EHFAZ 1600",
                "OJWIP": "OVERFLY OJWIP 137 RNW 05 TRK 054 UNTIL 600",
                "ZEMUT": "ZEMUT AT OR ABOVE 2000 HOLD AT ZEMUT RIGHT TURN INBOUNDCOURSE 324 LEGDIST 4 FAF EHFAZ MAP OJWIP"
            },
            "transitions": [
                {
                    "name": "OYOKI",
                    "fixes": {
                        "OYOKI": "OYOKI RIGHT TURN INBOUNDCOURSE 054 ALT 2000 LEGDIST 4"
                    }
                },
                {
                    "name": "WUBKU",
                    "fixes": {
                        "WUBKU": "WUBKU"
                    }
                },
                {
                    "name": "ZEMUT",
                    "fixes": {
                        "ZEMUT": "ZEMUT"
                    }
                }
            ]
        },
        {
            "name": "RNAV23",
            "fixes": {
                "YENUT": "YENUT AT OR ABOVE 2000",
                "GURPE": "GURPE 1600 RNW 23 TRK 234 UNTIL 600",
                "ZEMUT": "OVERFLY ZEMUT AT OR ABOVE 2000 HOLD AT ZEMUT RIGHT TURN INBOUNDCOURSE 324 LEGDIST 4 FAF GURPE MAP RNW 23"
            },
            "transitions": [
                {
                    "name": "COKUX",
                    "fixes": {
                        "COKUX": "COKUX"
                    }
                },
                {
                    "name": "OJHEC",
                    "fixes": {
                        "OJHEC": "OJHEC"
                    }
                },
                {
                    "name": "YENUT",
                    "fixes": {
                        "YENUT": "YENUT RIGHT TURN INBOUNDCOURSE 234 ALT 2000 LEGDIST 4"
                    }
                }
            ]
        }
    ]
}