{
    "fixes": [
        {
            "name": "33VOR",
            "lat": 4.290530566666667,
            "lon": 15.208263883333334
        },
        {
            "name": "36VOR",
            "lat": 4.2160111166666665,
            "lon": 15.295777783333333
        },
        {
            "name": "AF001",
            "lat": 4.081562266666666,
            "lon": 15.359211866666667
        },
        {
            "name": "AF002",
            "lat": 4.1043551166666665,
            "lon": 15.38794915
        },
        {
            "name": "AF003",
            "lat": 4.0516430833333335,
            "lon": 15.255940166666667
        },
        {
            "name": "AF004",
            "lat": 4.061239033333333,
            "lon": 15.185235566666666
        },
        {
            "name": "AF005",
            "lat": 4.094921216666667,
            "lon": 15.122373016666666
        },
        {
            "name": "AF006",
            "lat": 4.148426266666666,
            "lon": 15.075310733333334
        },
        {
            "name": "AF007",
            "lat": 4.2149806666666665,
            "lon": 15.050010133333334
        },
        {
            "name": "AF008",
            "lat": 4.053875016666667,
            "lon": 15.295357
        },
        {
            "name": "AF009",
            "lat": 4.048700566666667,
            "lon": 15.262596483333333
        },
        {
            "name": "AF010",
            "lat": 4.058907583333333,
            "lon": 15.312718016666667
        },
        {
            "name": "AF011",
            "lat": 4.076248033333333,
            "lon": 15.350655466666666
        },
        {
            "name": "AF012",
            "lat": 4.100929783333333,
            "lon": 15.3842598
        },
        {
            "name": "AF013",
            "lat": 4.055016266666667,
            "lon": 15.209509616666667
        },
        {
            "name": "AF014",
            "lat": 4.075961816666666,
            "lon": 15.151008683333334
        },
        {
            "name": "AF015",
            "lat": 4.113768366666666,
            "lon": 15.101744966666667
        },
        {
            "name": "AF016",
            "lat": 4.164804883333334,
            "lon": 15.066451383333334
        },
        {
            "name": "AF017",
            "lat": 4.224168983333334,
            "lon": 15.048521
        },
        {
            "name": "AF018",
            "lat": 4.050622166666667,
            "lon": 15.279082366666668
        },
        {
            "name": "AF019",
            "lat": 4.065694166666667,
            "lon": 15.330106066666666
        },
        {
            "name": "AF020",
            "lat": 4.0934226166666665,
            "lon": 15.375483366666666
        },
        {
            "name": "AF021",
            "lat": 4.065579783333333,
            "lon": 15.17316705
        },
        {
            "name": "AF022",
            "lat": 4.0924192,
            "lon": 15.125594333333334
        },
        {
            "name": "AF023",
            "lat": 4.131073383333334,
            "lon": 15.087051383333334
        },
        {
            "name": "AF024",
            "lat": 4.17867175,
            "lon": 15.060401983333334
        },
        {
            "name": "AF025",
            "lat": 4.231678966666666,
            "lon": 15.04762775
        },
        {
            "name": "AF026",
            "lat": 4.122213016666667,
            "lon": 15.09415215
        },
        {
            "name": "AF027",
            "lat": 4.171681283333333,
            "lon": 15.06329525
        },
        {
            "name": "AF028",
            "lat": 4.227919766666667,
            "lon": 15.048038783333332
        },
        {
            "name": "AF029",
            "lat": 4.065216283333333,
            "lon": 15.165367666666667
        },
        {
            "name": "AF030",
            "lat": 4.0544472166666665,
            "lon": 15.196730483333333
        },
        {
            "name": "AF031",
            "lat": 4.156768866666667,
            "lon": 15.0705517
        },
        {
            "name": "AF032",
            "lat": 4.197981116666667,
            "lon": 15.053949916666667
        },
        {
            "name": "AF033",
            "lat": 4.241831283333333,
            "lon": 15.046876033333334
        },
        {
            "name": "AF034",
            "lat": 4.083537733333333,
            "lon": 15.132221383333333
        },
        {
            "name": "AF035",
            "lat": 4.0599776,
            "lon": 15.178591083333334
        },
        {
            "name": "AF036",
            "lat": 4.175259866666667,
            "lon": 15.058165433333333
        },
        {
            "name": "AF037",
            "lat": 4.112765583333333,
            "lon": 15.098102066666666
        },
        {
            "name": "AF038",
            "lat": 4.0686929166666665,
            "lon": 15.157833916666666
        },
        {
            "name": "AF039",
            "lat": 4.450586716666667,
            "lon": 15.228548283333334
        },
        {
            "name": "AF040",
            "lat": 4.442017983333334,
            "lon": 15.186315933333333
        },
        {
            "name": "AF041",
            "lat": 4.318739133333334,
            "lon": 15.0583249
        },
        {
            "name": "AF042",
            "lat": 4.352439266666667,
            "lon": 15.074074883333333
        },
        {
            "name": "AF043",
            "lat": 4.227820816666667,
            "lon": 15.044684916666666
        },
        {
            "name": "AF044",
            "lat": 4.17416445,
            "lon": 15.058613216666666
        },
        {
            "name": "AF045",
            "lat": 4.126251783333333,
            "lon": 15.086549316666666
        },
        {
            "name": "AF046",
            "lat": 4.087641466666667,
            "lon": 15.126416033333333
        },
        {
            "name": "AF047",
            "lat": 4.0612007666666665,
            "lon": 15.175251366666666
        },
        {
            "name": "AF048",
            "lat": 4.3087895,
            "lon": 15.0550535
        },
        {
            "name": "AF049",
            "lat": 4.330646716666666,
            "lon": 15.06302545
        },
        {
            "name": "APTON",
            "lat": 4.237027783333334,
            "lon": 15.450555566666667
        },
        {
            "name": "BB501",
            "lat": 4.323661116666667,
            "lon": 15.164338883333333
        },
        {
            "name": "BB502",
            "lat": 4.205058333333334,
            "lon": 15.305633333333333
        },
        {
            "name": "BB503",
            "lat": 4.175594433333333,
            "lon": 15.340725
        },
        {
            "name": "BB504",
            "lat": 4.293341666666667,
            "lon": 15.200463883333333
        },
        {
            "name": "BE2",
            "lat": 4.130791666666667,
            "lon": 15.403172216666666
        },
        {
            "name": "BILEV",
            "lat": 4.053763883333334,
            "lon": 15.348005566666666
        },
        {
            "name": "BW2",
            "lat": 4.368983333333333,
            "lon": 15.097305566666666
        },
        {
            "name": "BZ",
            "lat": 4.251452783333334,
            "lon": 15.247194433333334
        },
        {
            "name": "BZ401",
            "lat": 4.393361116666667,
            "lon": 15.105194433333333
        },
        {
            "name": "CI05Y",
            "lat": 4.338875,
            "lon": 15.146208333333334
        },
        {
            "name": "D008N",
            "lat": 4.018722216666666,
            "lon": 15.275647216666666
        },
        {
            "name": "D024N",
            "lat": 4.035611116666667,
            "lon": 15.338425
        },
        {
            "name": "D051E",
            "lat": 4.209569433333334,
            "lon": 15.300255566666667
        },
        {
            "name": "D174N",
            "lat": 4.484177783333333,
            "lon": 15.275663883333333
        },
        {
            "name": "D208P",
            "lat": 4.643269433333334,
            "lon": 15.301475
        },
        {
            "name": "D219L",
            "lat": 4.409813883333333,
            "lon": 15.123916666666666
        },
        {
            "name": "D241L",
            "lat": 4.351919433333333,
            "lon": 15.0738
        },
        {
            "name": "D262N",
            "lat": 4.288097216666666,
            "lon": 15.016502783333333
        },
        {
            "name": "D272N",
            "lat": 4.247325,
            "lon": 15.013675
        },
        {
            "name": "D312N",
            "lat": 4.0976027833333335,
            "lon": 15.070961116666666
        },
        {
            "name": "D328N",
            "lat": 4.054794433333333,
            "lon": 15.120022216666667
        },
        {
            "name": "D355N",
            "lat": 4.018261116666666,
            "lon": 15.222786116666667
        },
        {
            "name": "DIPVA",
            "lat": 4.313994433333334,
            "lon": 15.038080566666666
        },
        {
            "name": "EBSIX",
            "lat": 3.431408333333333,
            "lon": 14.248658333333333
        },
        {
            "name": "FD05",
            "lat": 4.329608333333334,
            "lon": 15.169330566666666
        },
        {
            "name": "FD23",
            "lat": 4.1805666666666665,
            "lon": 15.344358333333334
        },
        {
            "name": "FI05",
            "lat": 4.3235222166666665,
            "lon": 15.164522216666667
        },
        {
            "name": "GUGUS",
            "lat": 4.121866666666667,
            "lon": 15.4047
        },
        {
            "name": "IKROS",
            "lat": 4.222388883333333,
            "lon": 15.664083333333334
        },
        {
            "name": "INEBA",
            "lat": 3.0602777833333334,
            "lon": 15.713333333333333
        },
        {
            "name": "KIRGA",
            "lat": 4.101361116666666,
            "lon": 15.636027783333333
        },
        {
            "name": "KSA",
            "lat": 4.402430566666666,
            "lon": 15.418547216666667
        },
        {
            "name": "LIKEL",
            "lat": 3.868388883333333,
            "lon": 15.406972216666666
        },
        {
            "name": "LINOS",
            "lat": 4.4256111166666665,
            "lon": 15.146944433333333
        },
        {
            "name": "LISIT",
            "lat": 3.0,
            "lon": 15.37
        },
        {
            "name": "LONB",
            "lat": 4.210555566666667,
            "lon": 12.668055566666666
        },
        {
            "name": "MD05",
            "lat": 4.266847216666667,
            "lon": 15.231858333333333
        },
        {
            "name": "MENAT",
            "lat": 3.8394722166666666,
            "lon": 15.294222216666666
        },
        {
            "name": "MONEK",
            "lat": 4.131305566666667,
            "lon": 15.412305566666667
        },
        {
            "name": "NAMOT",
            "lat": 3.8393333333333333,
            "lon": 15.203527783333334
        },
        {
            "name": "NAPUX",
            "lat": 4.4501694333333335,
            "lon": 15.151552783333333
        },
        {
            "name": "ODRAB",
            "lat": 3.9033888833333332,
            "lon": 15.022916666666667
        },
        {
            "name": "POGLO",
            "lat": 3.9810277833333334,
            "lon": 14.933555566666668
        },
        {
            "name": "PONUS",
            "lat": 4.285916666666667,
            "lon": 15.049722216666666
        },
        {
            "name": "POTAN",
            "lat": 3.1930555666666667,
            "lon": 14.523611116666666
        },
        {
            "name": "RAKON",
            "lat": 4.240555566666667,
            "lon": 14.831555566666667
        },
        {
            "name": "RAPUT",
            "lat": 4.612916666666667,
            "lon": 15.292611116666667
        },
        {
            "name": "RASUK",
            "lat": 4.189933333333333,
            "lon": 15.461444433333334
        },
        {
            "name": "RW23",
            "lat": 4.239627783333333,
            "lon": 15.264458333333334
        },
        {
            "name": "SEMOT",
            "lat": 4.320083333333334,
            "lon": 14.83625
        },
        {
            "name": "TANIS",
            "lat": 4.382083333333333,
            "lon": 15.094811116666667
        },
        {
            "name": "TIVAL",
            "lat": 1.8283333333333334,
            "lon": 14.905833333333334
        },
        {
            "name": "UBALA",
            "lat": 4.047444433333333,
            "lon": 15.229416666666667
        },
        {
            "name": "UDRID",
            "lat": 3.825427783333333,
            "lon": 16.598916666666668
        },
        {
            "name": "ULVAS",
            "lat": 4.225736116666667,
            "lon": 16.719655566666667
        },
        {
            "name": "VORAX",
            "lat": 4.5377777833333335,
            "lon": 13.577222216666666
        },
        {
            "name": "XIVMA",
            "lat": 5.574830566666667,
            "lon": 14.837675
        }
    ],
    "rnws": [
        "RNW 05",
        "RNW 23"
    ],
    "sids": [
        {
            "name": "KSA3A",
            "rnw": "23",
            "fixes": {
                "BW2": "OVERFLY BW2 AT OR BELOW 3200 HDG 122 VECTORS"
            },
            "sub_fixes": [],
            "transitions": []
        },
        {
            "name": "KSA4B",
            "rnw": "05",
            "fixes": {
                "BE2": "OVERFLY BE2 AT OR BELOW 4500 TRK 138 INTERCEPT RADIAL 027 FROM",
                "KSA": "KSA"
            },
            "sub_fixes": [],
            "transitions": []
        }
    ],
    "stars": [
        {
            "name": "IKRO1A",
            "runway": "RNW 23",
            "fixes": {
                "ULVAS": "ULVAS",
                "IKROS": "OVERFLY IKROS",
                "APTON": "APTON AT OR ABOVE 4000"
            }
        },
        {
            "name": "IKRO2V",
            "runway": "RNW 05",
            "fixes": {
                "ULVAS": "ULVAS",
                "IKROS": "OVERFLY IKROS",
                "BZ": "BZ AT OR ABOVE 4500"
            }
        },
        {
            "name": "KIRG1M",
            "runway": "RNW 23",
            "fixes": {
                "UDRID": "UDRID",
                "KIRGA": "OVERFLY KIRGA",
                "MONEK": "MONEK AT OR ABOVE 4000"
            }
        },
        {
            "name": "KIRG2V",
            "runway": "RNW 05",
            "fixes": {
                "UDRID": "UDRID",
                "KIRGA": "OVERFLY KIRGA",
                "BZ": "BZ AT OR ABOVE 4500"
            }
        },
        {
            "name": "KSA1A",
            "runway": "RNW 23",
            "fixes": {
                "KSA": "KSA",
                "APTON": "APTON AT OR ABOVE 4000"
            }
        },
        {
            "name": "KSA1L",
            "runway": "RNW 05",
            "fixes": {
                "KSA": "KSA",
                "LINOS": "LINOS AT OR ABOVE 3000"
            }
        },
        {
            "name": "KSA3V",
            "runway": "RNW 05 RNW 23",
            "fixes": {
                "KSA": "KSA",
                "BZ": "BZ AT OR ABOVE 4500"
            }
        },
        {
            "name": "LIKE1M",
            "runway": "RNW 23",
            "fixes": {
                "INEBA": "INEBA",
                "LIKEL": "OVERFLY LIKEL",
                "D024N": "OVERFLY D024N",
                "AF001": "AF001",
                "AF002": "AF002",
                "MONEK": "MONEK AT OR ABOVE 4000"
            }
        },
        {
            "name": "LIKE1P",
            "runway": "RNW 05",
            "fixes": {
                "INEBA": "INEBA",
                "LIKEL": "OVERFLY LIKEL",
                "D024N": "OVERFLY D024N",
                "AF003": "AF003",
                "AF004": "AF004",
                "AF005": "AF005",
                "AF006": "AF006",
                "AF007": "AF007",
                "PONUS": "PONUS AT OR ABOVE 4500"
            }
        },
        {
            "name": "LIKE1U",
            "runway": "RNW 23",
            "fixes": {
                "INEBA": "INEBA",
                "LIKEL": "OVERFLY LIKEL",
                "D024N": "OVERFLY D024N",
                "AF008": "AF008",
                "AF009": "AF009",
                "UBALA": "UBALA AT OR ABOVE 4500"
            }
        },
        {
            "name": "LIKE2V",
            "runway": "RNW 05 RNW 23",
            "fixes": {
                "INEBA": "INEBA",
                "LIKEL": "OVERFLY LIKEL",
                "BZ": "BZ AT OR ABOVE 4500"
            }
        },
        {
            "name": "MENA1M",
            "runway": "RNW 23",
            "fixes": {
                "LISIT": "LISIT",
                "MENAT": "OVERFLY MENAT",
                "D008N": "OVERFLY D008N",
                "AF010": "AF010",
                "AF011": "AF011",
                "AF012": "AF012",
                "MONEK": "MONEK AT OR ABOVE 4000"
            }
        },
        {
            "name": "MENA1P",
            "runway": "RNW 05",
            "fixes": {
                "LISIT": "LISIT",
                "MENAT": "OVERFLY MENAT",
                "D008N": "OVERFLY D008N",
                "AF013": "AF013",
                "AF014": "AF014",
                "AF015": "AF015",
                "AF016": "AF016",
                "AF017": "AF017",
                "PONUS": "PONUS AT OR ABOVE 4500"
            }
        },
        {
            "name": "MENA1U",
            "runway": "RNW 23",
            "fixes": {
                "LISIT": "LISIT",
                "MENAT": "OVERFLY MENAT",
                "D008N": "OVERFLY D008N",
                "UBALA": "UBALA AT OR ABOVE 4500"
            }
        },
        {
            "name": "MENA2V",
            "runway": "RNW 05 RNW 23",
            "fixes": {
                "LISIT": "LISIT",
                "MENAT": "OVERFLY MENAT",
                "BZ": "BZ AT OR ABOVE 4500"
            }
        },
        {
            "name": "NAMO1M",
            "runway": "RNW 23",
            "fixes": {
                "TIVAL": "TIVAL",
                "NAMOT": "OVERFLY NAMOT",
                "D355N": "OVERFLY D355N",
                "AF018": "AF018",
                "AF019": "AF019",
                "AF020": "AF020",
                "MONEK": "MONEK AT OR ABOVE 4000"
            }
        },
        {
            "name": "NAMO1P",
            "runway": "RNW 05",
            "fixes": {
                "TIVAL": "TIVAL",
                "NAMOT": "OVERFLY NAMOT",
                "D355N": "OVERFLY D355N",
                "AF021": "AF021",
                "AF022": "AF022",
                "AF023": "AF023",
                "AF024": "AF024",
                "AF025": "AF025",
                "PONUS": "PONUS AT OR ABOVE 4500"
            }
        },
        {
            "name": "NAMO2V",
            "runway": "RNW 05 RNW 23",
            "fixes": {
                "TIVAL": "TIVAL",
                "NAMOT": "OVERFLY NAMOT",
                "BZ": "BZ AT OR ABOVE 4500"
            }
        },
        {
            "name": "ODRA1P",
            "runway": "RNW 05",
            "fixes": {
                "POTAN": "POTAN",
                "ODRAB": "OVERFLY ODRAB",
                "D328N": "OVERFLY D328N",
                "AF026": "AF026",
                "AF027": "AF027",
                "AF028": "AF028",
                "PONUS": "PONUS AT OR ABOVE 4500"
            }
        },
        {
            "name": "ODRA1U",
            "runway": "RNW 23",
            "fixes": {
                "POTAN": "POTAN",
                "ODRAB": "OVERFLY ODRAB",
                "D328N": "OVERFLY D328N",
                "AF029": "AF029",
                "AF030": "AF030",
                "UBALA": "UBALA AT OR ABOVE 4500"
            }
        },
        {
            "name": "ODRA2V",
            "runway": "RNW 05 RNW 23",
            "fixes": {
                "POTAN": "POTAN",
                "ODRAB": "OVERFLY ODRAB",
                "BZ": "BZ AT OR ABOVE 4500"
            }
        },
        {
            "name": "POGL1P",
            "runway": "RNW 05",
            "fixes": {
                "EBSIX": "EBSIX",
                "POGLO": "OVERFLY POGLO",
                "D312N": "OVERFLY D312N",
                "AF031": "AF031",
                "AF032": "AF032",
                "AF033": "AF033",
                "PONUS": "PONUS AT OR ABOVE 4500"
            }
        },
        {
            "name": "POGL1U",
            "runway": "RNW 23",
            "fixes": {
                "EBSIX": "EBSIX",
                "POGLO": "OVERFLY POGLO",
                "D312N": "OVERFLY D312N",
                "AF034": "AF034",
                "AF035": "AF035",
                "UBALA": "UBALA AT OR ABOVE 4500"
            }
        },
        {
            "name": "POGL2V",
            "runway": "RNW 05 RNW 23",
            "fixes": {
                "EBSIX": "EBSIX",
                "POGLO": "OVERFLY POGLO",
                "BZ": "BZ AT OR ABOVE 4500"
            }
        },
        {
            "name": "RAKO1P",
            "runway": "RNW 05",
            "fixes": {
                "LONB": "LONB",
                "RAKON": "OVERFLY RAKON",
                "D272N": "OVERFLY D272N",
                "PONUS": "PONUS AT OR ABOVE 4500"
            }
        },
        {
            "name": "RAKO1U",
            "runway": "RNW 23",
            "fixes": {
                "LONB": "LONB",
                "RAKON": "OVERFLY RAKON",
                "D272N": "OVERFLY D272N",
                "AF036": "AF036",
                "AF037": "AF037",
                "AF038": "AF038",
                "UBALA": "UBALA AT OR ABOVE 4500"
            }
        },
        {
            "name": "RAKO2V",
            "runway": "RNW 05 RNW 23",
            "fixes": {
                "LONB": "LONB",
                "RAKON": "OVERFLY RAKON",
                "BZ": "BZ AT OR ABOVE 4500"
            }
        },
        {
            "name": "RAPU1L",
            "runway": "RNW 05",
            "fixes": {
                "XIVMA": "XIVMA",
                "D208P": "D208P",
                "RAPUT": "OVERFLY RAPUT",
                "D174N": "OVERFLY D174N",
                "AF039": "AF039",
                "AF040": "AF040",
                "LINOS": "LINOS AT OR ABOVE 3000"
            }
        },
        {
            "name": "RAPU3V",
            "runway": "RNW 05 RNW 23",
            "fixes": {
                "XIVMA": "XIVMA",
                "D208P": "D208P",
                "RAPUT": "OVERFLY RAPUT",
                "BZ": "BZ AT OR ABOVE 11000"
            }
        },
        {
            "name": "SEMO1T",
            "runway": "RNW 05",
            "fixes": {
                "VORAX": "VORAX",
                "SEMOT": "OVERFLY SEMOT",
                "D262N": "OVERFLY D262N",
                "AF041": "AF041",
                "AF042": "AF042",
                "TANIS": "TANIS AT OR ABOVE 3000"
            }
        },
        {
            "name": "SEMO1U",
            "runway": "RNW 23",
            "fixes": {
                "VORAX": "VORAX",
                "SEMOT": "OVERFLY SEMOT",
                "D262N": "OVERFLY D262N",
                "AF043": "AF043",
                "AF044": "AF044",
                "AF045": "AF045",
                "AF046": "AF046",
                "AF047": "AF047",
                "UBALA": "UBALA AT OR ABOVE 4500"
            }
        },
        {
            "name": "SEMO2V",
            "runway": "RNW 05 RNW 23",
            "fixes": {
                "VORAX": "VORAX",
                "SEMOT": "OVERFLY SEMOT",
                "BZ": "BZ AT OR ABOVE 4500"
            }
        }
    ],
    "approaches": [
        {
            "name": "VORDY05",
            "fixes": {
                "FD05": "FD05 3000",
                "33VOR": "33VOR AT OR ABOVE 1960",
                "MD05": "MD05 1318 RNW 05 TRK 051 UNTIL 4.0 FROM",
                "BZ": "BZ TURN LEFT DIRECT BZ 4500 FAF FD05 MAP MD05"
            },
            "transitions": [
                {
                    "name": "BZ1",
                    "fixes": {
                        "BZ": "BZ TRK 249 UNTIL 9.0 FROM BZ"
                    }
                },
                {
                    "name": "BZ2",
                    "fixes": {
                        "BZ": "BZ TRK 238 UNTIL 8.0 FROM BZ"
                    }
                }
            ]
        },
        {
            "name": "VORDZ05",
            "fixes": {
                "BZ401": "BZ401 AT OR ABOVE 3000",
                "FD05": "FD05 3000",
                "33VOR": "33VOR AT OR ABOVE 1960",
                "MD05": "MD05 1318 RNW 05 TRK 051 UNTIL 4.0 FROM",
                "BZ": "BZ TURN LEFT TRK 230 INTERCEPT RADIAL 275 FROM BZ TRK 275 VECTORS FAF FD05 MAP MD05"
            },
            "transitions": [
                {
                    "name": "LINOS",
                    "fixes": {
                        "LINOS": "LINOS AT OR ABOVE 3000"
                    }
                },
                {
                    "name": "PONUS",
                    "fixes": {
                        "PONUS": "PONUS AT OR ABOVE 4500"
                    }
                }
            ]
        },
        {
            "name": "VORDY23",
            "fixes": {
                "FD23": "FD23 3000",
                "36VOR": "36VOR AT OR ABOVE 1870 RNW 23 TRK 231 UNTIL 5.0 FROM",
                "BZ": "BZ TURN RIGHT DIRECT BZ 4500 FAF FD23 MAP RNW 23"
            },
            "transitions": [
                {
                    "name": "BZ1",
                    "fixes": {
                        "BZ": "BZ TRK 078 UNTIL 9.0 FROM BZ"
                    }
                },
                {
                    "name": "BZ2",
                    "fixes": {
                        "BZ": "BZ TRK 067 UNTIL 8.0 FROM BZ"
                    }
                }
            ]
        },
        {
            "name": "VORDZ23",
            "fixes": {
                "MONEK": "MONEK AT OR ABOVE 4000",
                "FD23": "FD23 3000",
                "36VOR": "36VOR AT OR ABOVE 1870 RNW 23 TRK 231 UNTIL 5.0 FROM",
                "BZ": "BZ TURN RIGHT TRK 027 INTERCEPT RADIAL 342 FROM BZ TRK 342 VECTORS FAF FD23 MAP RNW 23"
            },
            "transitions": [
                {
                    "name": "APTON",
                    "fixes": {
                        "APTON": "APTON AT OR ABOVE 4000"
                    }
                },
                {
                    "name": "UBALA",
                    "fixes": {
                        "UBALA": "UBALA AT OR ABOVE 4500"
                    }
                }
            ]
        },
        {
            "name": "ILSX05",
            "fixes": {
                "TANIS": "TANIS AT OR ABOVE 4000 SPEED 230",
                "BB501": "BB501 3000 SPEED 230 RNW 05",
                "BB502": "OVERFLY BB502 TURN LEFT DIRECT",
                "DIPVA": "DIPVA 4000 HOLD AT DIPVA LEFT TURN INBOUNDCOURSE 141 ALT 4000 SPEED 230 LEGTIME 1 FAF BB501 MAP RNW 05"
            },
            "transitions": [
                {
                    "name": "DIPVA",
                    "fixes": {
                        "DIPVA": "DIPVA AT OR ABOVE 4000 SPEED 230"
                    }
                },
                {
                    "name": "NAPUX",
                    "fixes": {
                        "NAPUX": "NAPUX AT OR ABOVE 4000 SPEED 230"
                    }
                }
            ]
        },
        {
            "name": "ILSY05",
            "fixes": {
                "CI05Y": "CI05Y AT OR ABOVE 3000",
                "FI05": "FI05 3000 RNW 05",
                "D051E": "OVERFLY D051E TURN LEFT DIRECT",
                "BZ": "BZ 4500 FAF FI05 MAP RNW 05"
            },
            "transitions": [
                {
                    "name": "BZ1",
                    "fixes": {
                        "BZ": "BZ TRK 253 UNTIL 9.0 FROM BZ"
                    }
                },
                {
                    "name": "BZ2",
                    "fixes": {
                        "BZ": "BZ TRK 242 UNTIL 8.0 FROM BZ"
                    }
                }
            ]
        },
        {
            "name": "ILSZ05",
            "fixes": {
                "TANIS": "TANIS AT OR ABOVE 3000",
                "FI05": "FI05 3000 RNW 05",
                "D051E": "OVERFLY D051E TURN LEFT TRK 230 INTERCEPT RADIAL 275 FROM",
                "BZ": "BZ TRK 275 VECTORS FAF FI05 MAP RNW 05"
            },
            "transitions": [
                {
                    "name": "LINOS",
                    "fixes": {
                        "LINOS": "LINOS AT OR ABOVE 3000",
                        "D219L": "D219L AT OR ABOVE 3000"
                    }
                },
                {
                    "name": "PONUS",
                    "fixes": {
                        "PONUS": "PONUS AT OR ABOVE 4500",
                        "AF048": "AF048",
                        "AF049": "AF049",
                        "D241L": "D241L AT OR ABOVE 3000"
                    }
                }
            ]
        },
        {
            "name": "RNAV05",
            "fixes": {
                "TANIS": "TANIS AT OR ABOVE 4000 SPEED 230",
                "BB501": "BB501 3000 SPEED 230 RNW 05",
                "BB502": "OVERFLY BB502 TURN LEFT DIRECT",
                "DIPVA": "DIPVA 4000 HOLD AT DIPVA LEFT TURN INBOUNDCOURSE 141 ALT 4000 SPEED 230 LEGTIME 1 FAF BB501 MAP RNW 05"
            },
            "transitions": [
                {
                    "name": "DIPVA",
                    "fixes": {
                        "DIPVA": "DIPVA AT OR ABOVE 4000 SPEED 230"
                    }
                },
                {
                    "name": "NAPUX",
                    "fixes": {
                        "NAPUX": "NAPUX AT OR ABOVE 4000 SPEED 230"
                    }
                }
            ]
        },
        {
            "name": "RNAV23",
            "fixes": {
                "GUGUS": "GUGUS AT OR ABOVE 4000 SPEED 230",
                "BB503": "BB503 3000 SPEED 230 RNW 23",
                "BB504": "OVERFLY BB504 TURN RIGHT DIRECT",
                "BILEV": "BILEV 4000 HOLD AT BILEV LEFT TURN INBOUNDCOURSE 141 ALT 4000 SPEED 230 LEGTIME 1 FAF BB503 MAP RNW 23"
            },
            "transitions": [
                {
                    "name": "BILEV",
                    "fixes": {
                        "BILEV": "BILEV AT OR ABOVE 4000 SPEED 230"
                    }
                },
                {
                    "name": "RASUK",
                    "fixes": {
                        "RASUK": "RASUK AT OR ABOVE 4000 SPEED 230"
                    }
                }
            ]
        }
    ]
}