{
    "fixes": [
        {
            "name": "10VOR",
            "lat": 3.9863111166666667,
            "lon": 9.758330566666666
        },
        {
            "name": "40VOR",
            "lat": 3.9634972166666667,
            "lon": 9.802905566666666
        },
        {
            "name": "50VOR",
            "lat": 4.0319305666666665,
            "lon": 9.669169433333334
        },
        {
            "name": "60VOR",
            "lat": 4.0395305666666665,
            "lon": 9.654308333333333
        },
        {
            "name": "AF001",
            "lat": 3.8188279166666668,
            "lon": 9.797959066666667
        },
        {
            "name": "AF002",
            "lat": 3.839289066666667,
            "lon": 9.842198583333333
        },
        {
            "name": "AF003",
            "lat": 3.8706383166666667,
            "lon": 9.879489033333334
        },
        {
            "name": "AF004",
            "lat": 3.8193903666666666,
            "lon": 9.68720165
        },
        {
            "name": "AF005",
            "lat": 3.8487862666666666,
            "lon": 9.631190233333333
        },
        {
            "name": "AF006",
            "lat": 3.8953973,
            "lon": 9.588492483333333
        },
        {
            "name": "AF007",
            "lat": 3.9536961666666666,
            "lon": 9.5641741
        },
        {
            "name": "AF008",
            "lat": 4.016768416666666,
            "lon": 9.561123266666666
        },
        {
            "name": "AF009",
            "lat": 3.8598257333333335,
            "lon": 9.868789383333333
        },
        {
            "name": "AF010",
            "lat": 3.8835709833333336,
            "lon": 9.890225616666667
        },
        {
            "name": "AF011",
            "lat": 3.8123671333333333,
            "lon": 9.769043833333333
        },
        {
            "name": "AF012",
            "lat": 3.8185924166666667,
            "lon": 9.689751566666667
        },
        {
            "name": "AF013",
            "lat": 3.8576643833333333,
            "lon": 9.620519816666667
        },
        {
            "name": "AF014",
            "lat": 3.9222653833333334,
            "lon": 9.574316833333333
        },
        {
            "name": "AF015",
            "lat": 4.00029445,
            "lon": 9.559803083333334
        },
        {
            "name": "AF016",
            "lat": 4.177025833333333,
            "lon": 9.752558666666667
        },
        {
            "name": "AF017",
            "lat": 4.15915645,
            "lon": 9.823089833333333
        },
        {
            "name": "AF018",
            "lat": 4.115385416666666,
            "lon": 9.881135633333333
        },
        {
            "name": "AF019",
            "lat": 4.052576216666667,
            "lon": 9.91759695
        },
        {
            "name": "AF020",
            "lat": 3.9805756833333334,
            "lon": 9.92676315
        },
        {
            "name": "AF021",
            "lat": 4.1453013,
            "lon": 9.639799916666666
        },
        {
            "name": "AF022",
            "lat": 4.114985416666666,
            "lon": 9.605455183333333
        },
        {
            "name": "AF023",
            "lat": 3.8874410166666666,
            "lon": 9.593873583333334
        },
        {
            "name": "AF024",
            "lat": 3.8367639666666666,
            "lon": 9.648836583333333
        },
        {
            "name": "AF025",
            "lat": 3.8121514333333333,
            "lon": 9.719489383333332
        },
        {
            "name": "AF026",
            "lat": 3.8176838333333336,
            "lon": 9.794118033333334
        },
        {
            "name": "AF027",
            "lat": 3.8524439833333335,
            "lon": 9.860350533333333
        },
        {
            "name": "AF028",
            "lat": 3.9970958,
            "lon": 9.55971985
        },
        {
            "name": "AF029",
            "lat": 4.038249666666666,
            "lon": 9.565141933333333
        },
        {
            "name": "AF030",
            "lat": 4.105509916666667,
            "lon": 9.889294433333333
        },
        {
            "name": "AF031",
            "lat": 4.044431183333334,
            "lon": 9.920143483333334
        },
        {
            "name": "AF032",
            "lat": 3.9763246833333334,
            "lon": 9.926401866666666
        },
        {
            "name": "AF033",
            "lat": 4.170722566666667,
            "lon": 9.792080466666667
        },
        {
            "name": "AF034",
            "lat": 4.1772469,
            "lon": 9.7424028
        },
        {
            "name": "AF035",
            "lat": 4.1701464,
            "lon": 9.692804633333333
        },
        {
            "name": "AF036",
            "lat": 4.149949016666667,
            "lon": 9.646973616666667
        },
        {
            "name": "AF037",
            "lat": 4.11815635,
            "lon": 9.608316716666666
        },
        {
            "name": "ARASI",
            "lat": 1.8006611166666668,
            "lon": 10.277372216666667
        },
        {
            "name": "ARBOX",
            "lat": 4.169672216666667,
            "lon": 9.581883333333334
        },
        {
            "name": "BATA",
            "lat": 1.9057111166666667,
            "lon": 9.802063883333334
        },
        {
            "name": "BILOS",
            "lat": 3.4816666666666665,
            "lon": 9.313666666666666
        },
        {
            "name": "CI30X",
            "lat": 3.939238883333333,
            "lon": 9.851269433333334
        },
        {
            "name": "CI30Y",
            "lat": 3.94875,
            "lon": 9.832513883333334
        },
        {
            "name": "CI30Z",
            "lat": 3.934405566666667,
            "lon": 9.860797216666667
        },
        {
            "name": "D032M",
            "lat": 4.179555566666667,
            "lon": 9.856777783333333
        },
        {
            "name": "D118E",
            "lat": 3.9558944333333335,
            "lon": 9.817763883333333
        },
        {
            "name": "D134P",
            "lat": 3.811136116666667,
            "lon": 9.938580566666667
        },
        {
            "name": "D148M",
            "lat": 3.8122777833333332,
            "lon": 9.863
        },
        {
            "name": "D179M",
            "lat": 3.776277783333333,
            "lon": 9.749583333333334
        },
        {
            "name": "D259M",
            "lat": 3.9473055666666665,
            "lon": 9.531694433333334
        },
        {
            "name": "D282P",
            "lat": 4.045005566666667,
            "lon": 9.481522216666667
        },
        {
            "name": "D299R",
            "lat": 4.131186116666667,
            "lon": 9.475072216666666
        },
        {
            "name": "D341M",
            "lat": 4.199083333333333,
            "lon": 9.670916666666667
        },
        {
            "name": "DENB",
            "lat": 3.7907666666666664,
            "lon": 10.138055566666667
        },
        {
            "name": "DISDO",
            "lat": 3.9108611166666667,
            "lon": 9.907222216666666
        },
        {
            "name": "DLA",
            "lat": 3.993916666666667,
            "lon": 9.743472216666667
        },
        {
            "name": "DLA30",
            "lat": 3.574713883333333,
            "lon": 10.019222216666666
        },
        {
            "name": "EDEBA",
            "lat": 3.9327777833333335,
            "lon": 10.158888883333333
        },
        {
            "name": "EMTES",
            "lat": 2.6041666666666665,
            "lon": 9.7825
        },
        {
            "name": "ERPIS",
            "lat": 3.847358333333333,
            "lon": 9.078463883333333
        },
        {
            "name": "ETNOM",
            "lat": 2.4875,
            "lon": 10.733055566666666
        },
        {
            "name": "FD12Z",
            "lat": 4.054736116666667,
            "lon": 9.624586116666666
        },
        {
            "name": "FD30Z",
            "lat": 3.9490499999999997,
            "lon": 9.831136116666666
        },
        {
            "name": "FI30Y",
            "lat": 3.9638472166666667,
            "lon": 9.802738883333333
        },
        {
            "name": "FI30Z",
            "lat": 3.9495055666666667,
            "lon": 9.831025
        },
        {
            "name": "FS12Y",
            "lat": 4.047133333333333,
            "lon": 9.639447216666667
        },
        {
            "name": "FS30Y",
            "lat": 3.9637138833333334,
            "lon": 9.802488883333334
        },
        {
            "name": "IPOVO",
            "lat": 2.662125,
            "lon": 8.626197216666666
        },
        {
            "name": "IRANA",
            "lat": 3.5743888833333335,
            "lon": 10.019361116666667
        },
        {
            "name": "KD401",
            "lat": 3.90425,
            "lon": 9.336222216666666
        },
        {
            "name": "KD402",
            "lat": 3.7188055666666666,
            "lon": 9.810555566666666
        },
        {
            "name": "KD403",
            "lat": 3.849666666666667,
            "lon": 9.722638883333333
        },
        {
            "name": "KD404",
            "lat": 4.1105,
            "lon": 9.938611116666667
        },
        {
            "name": "KD501",
            "lat": 4.094922216666666,
            "lon": 9.544286116666667
        },
        {
            "name": "KD502",
            "lat": 4.057169433333334,
            "lon": 9.618722216666667
        },
        {
            "name": "KD503",
            "lat": 3.9741055666666667,
            "lon": 9.782469433333333
        },
        {
            "name": "KD504",
            "lat": 3.9165666666666668,
            "lon": 9.895897216666667
        },
        {
            "name": "KD506",
            "lat": 3.954325,
            "lon": 9.821475
        },
        {
            "name": "KD507",
            "lat": 4.037997216666667,
            "lon": 9.656541666666667
        },
        {
            "name": "KEREM",
            "lat": 3.8788055666666668,
            "lon": 9.970313883333333
        },
        {
            "name": "KOKAM",
            "lat": 4.490722216666667,
            "lon": 9.567722216666667
        },
        {
            "name": "LIPEV",
            "lat": 3.8418222166666665,
            "lon": 9.8583
        },
        {
            "name": "MBO",
            "lat": 3.7682166666666665,
            "lon": 8.720261116666666
        },
        {
            "name": "MD12Z",
            "lat": 4.020525,
            "lon": 9.691461116666666
        },
        {
            "name": "MINRO",
            "lat": 4.0201722166666665,
            "lon": 9.506694433333333
        },
        {
            "name": "MOKAL",
            "lat": 4.0769166666666665,
            "lon": 9.579694433333334
        },
        {
            "name": "NATER",
            "lat": 3.5059805666666666,
            "lon": 9.862630566666667
        },
        {
            "name": "NLY",
            "lat": 3.7258055666666667,
            "lon": 11.556472216666666
        },
        {
            "name": "NURES",
            "lat": 3.818397216666667,
            "lon": 9.580477783333333
        },
        {
            "name": "ONILO",
            "lat": 4.420472216666667,
            "lon": 10.004916666666666
        },
        {
            "name": "RINAP",
            "lat": 3.9913055666666666,
            "lon": 9.9335
        },
        {
            "name": "RW12",
            "lat": 4.011869433333334,
            "lon": 9.708047216666667
        },
        {
            "name": "RW30",
            "lat": 4.000244433333333,
            "lon": 9.730977783333334
        },
        {
            "name": "SERUR",
            "lat": 3.771702783333333,
            "lon": 9.645536116666667
        },
        {
            "name": "SEXAT",
            "lat": 5.643055566666667,
            "lon": 10.7525
        },
        {
            "name": "SIBIL",
            "lat": 3.491447216666667,
            "lon": 9.757780566666666
        },
        {
            "name": "TI",
            "lat": 4.087638883333334,
            "lon": 9.355888883333334
        },
        {
            "name": "UBOSU",
            "lat": 4.806666666666667,
            "lon": 11.103888883333333
        }
    ],
    "rnws": [
        "RNW 12",
        "RNW 30"
    ],
    "sids": [
        {
            "name": "EDEB1E",
            "rnw": "12",
            "fixes": {
                "DLA": "DLA AT OR ABOVE 440",
                "EDEBA": "EDEBA",
                "NLY": "NLY"
            },
            "sub_fixes": [],
            "transitions": []
        },
        {
            "name": "EDEB1N",
            "rnw": "12",
            "fixes": {
                "DLA": "DLA TRK 078 UNTIL 9000 TRK 148 INTERCEPT RADIAL 099 TO",
                "NLY": "NLY"
            },
            "sub_fixes": [],
            "transitions": []
        },
        {
            "name": "MBO1W",
            "rnw": "12",
            "fixes": {
                "DLA": "OVERFLY DLA AT OR ABOVE 440 TURN RIGHT DIRECT",
                "MBO": "MBO"
            },
            "sub_fixes": [],
            "transitions": []
        }
    ],
    "stars": [
        {
            "name": "BILO1L",
            "runway": "RNW 30",
            "fixes": {
                "IPOVO": "IPOVO",
                "BILOS": "BILOS AT OR ABOVE 6000 SPEED 230",
                "KD402": "KD402 AT OR ABOVE 6000 SPEED 230",
                "LIPEV": "LIPEV AT OR ABOVE 3000 SPEED 230"
            }
        },
        {
            "name": "BILO1M",
            "runway": "RNW 12",
            "fixes": {
                "IPOVO": "IPOVO",
                "BILOS": "BILOS AT OR ABOVE 6000 SPEED 230",
                "KD401": "KD401 AT OR ABOVE 5000 SPEED 230",
                "MINRO": "MINRO AT OR ABOVE 3000 SPEED 230"
            }
        },
        {
            "name": "BT1D",
            "runway": "RNW 30",
            "fixes": {
                "BATA": "BATA",
                "D179M": "D179M",
                "AF001": "AF001",
                "AF002": "AF002",
                "AF003": "AF003",
                "DISDO": "DISDO"
            }
        },
        {
            "name": "BT1M",
            "runway": "RNW 12",
            "fixes": {
                "BATA": "BATA",
                "D179M": "D179M",
                "AF004": "AF004",
                "AF005": "AF005",
                "AF006": "AF006",
                "AF007": "AF007",
                "AF008": "AF008",
                "MOKAL": "MOKAL"
            }
        },
        {
            "name": "BT1V",
            "runway": "RNW 12 RNW 30",
            "fixes": {
                "BATA": "BATA",
                "DLA": "DLA"
            }
        },
        {
            "name": "DE1D",
            "runway": "RNW 30",
            "fixes": {
                "NLY": "NLY",
                "DENB": "DENB",
                "DISDO": "DISDO"
            }
        },
        {
            "name": "DE1K",
            "runway": "RNW 30",
            "fixes": {
                "DENB": "DENB AT OR ABOVE 6000 SPEED 230",
                "KEREM": "KEREM AT OR ABOVE 3000 SPEED 230"
            }
        },
        {
            "name": "DE1M",
            "runway": "RNW 12",
            "fixes": {
                "DENB": "DENB AT OR ABOVE 6000 SPEED 230",
                "KD403": "KD403 AT OR ABOVE 5000 SPEED 230",
                "MINRO": "MINRO AT OR ABOVE 3000 SPEED 230"
            }
        },
        {
            "name": "EDEB1M",
            "runway": "RNW 12",
            "fixes": {
                "NLY": "NLY",
                "EDEBA": "EDEBA",
                "DLA": "DLA",
                "D282P": "OVERFLY D282P TURN RIGHT DIRECT",
                "MOKAL": "MOKAL"
            }
        },
        {
            "name": "EDEB1V",
            "runway": "RNW 12 RNW 30",
            "fixes": {
                "NLY": "NLY",
                "EDEBA": "EDEBA",
                "DLA": "DLA"
            }
        },
        {
            "name": "ERPI1L",
            "runway": "RNW 30",
            "fixes": {
                "MBO": "MBO",
                "ERPIS": "ERPIS AT OR ABOVE 5000 SPEED 230",
                "KD401": "KD401 AT OR ABOVE 5000 SPEED 230",
                "LIPEV": "LIPEV AT OR ABOVE 3000 SPEED 230"
            }
        },
        {
            "name": "ERPI1M",
            "runway": "RNW 12",
            "fixes": {
                "MBO": "MBO",
                "ERPIS": "ERPIS AT OR ABOVE 5000 SPEED 230",
                "KD401": "KD401 AT OR ABOVE 5000 SPEED 230",
                "MINRO": "MINRO AT OR ABOVE 3000 SPEED 230"
            }
        },
        {
            "name": "ETN1DB",
            "runway": "RNW 30",
            "fixes": {
                "ETNOM": "ETNOM",
                "D148M": "D148M",
                "AF009": "AF009",
                "AF010": "AF010",
                "DISDO": "DISDO"
            }
        },
        {
            "name": "ETNO1D",
            "runway": "RNW 30",
            "fixes": {
                "ETNOM": "ETNOM",
                "DLA30": "OVERFLY DLA30 TRK 355 INTERCEPT RADIAL 124 FROM",
                "DLA": "DLA",
                "DISDO": "DISDO"
            }
        },
        {
            "name": "ETNO1M",
            "runway": "RNW 12",
            "fixes": {
                "ETNOM": "ETNOM",
                "D148M": "D148M",
                "AF011": "AF011",
                "AF012": "AF012",
                "AF013": "AF013",
                "AF014": "AF014",
                "AF015": "AF015",
                "MOKAL": "MOKAL"
            }
        },
        {
            "name": "ETNO1V",
            "runway": "RNW 12 RNW 30",
            "fixes": {
                "ETNOM": "ETNOM",
                "DLA": "DLA"
            }
        },
        {
            "name": "IRAN1K",
            "runway": "RNW 30",
            "fixes": {
                "ETNOM": "ETNOM",
                "IRANA": "IRANA AT OR ABOVE 6000 SPEED 230",
                "KEREM": "KEREM AT OR ABOVE 3000 SPEED 230"
            }
        },
        {
            "name": "IRAN1L",
            "runway": "RNW 30",
            "fixes": {
                "ETNOM": "ETNOM",
                "IRANA": "IRANA AT OR ABOVE 6000 SPEED 230",
                "KD402": "KD402 AT OR ABOVE 6000 SPEED 230",
                "LIPEV": "LIPEV AT OR ABOVE 3000 SPEED 230"
            }
        },
        {
            "name": "IRAN1M",
            "runway": "RNW 12",
            "fixes": {
                "ETNOM": "ETNOM",
                "IRANA": "IRANA AT OR ABOVE 6000 SPEED 230",
                "KD402": "KD402 AT OR ABOVE 6000 SPEED 230",
                "KD403": "KD403 AT OR ABOVE 5000 SPEED 230",
                "MINRO": "MINRO AT OR ABOVE 3000 SPEED 230"
            }
        },
        {
            "name": "KOKA1A",
            "runway": "RNW 12",
            "fixes": {
                "KOKAM": "KOKAM AT OR ABOVE 6000 SPEED 230",
                "ARBOX": "ARBOX AT OR ABOVE 3000 SPEED 230"
            }
        },
        {
            "name": "KOKA1D",
            "runway": "RNW 30",
            "fixes": {
                "KOKAM": "KOKAM",
                "D341M": "D341M 3100",
                "AF016": "AF016",
                "AF017": "AF017",
                "AF018": "AF018",
                "AF019": "AF019",
                "AF020": "AF020",
                "DISDO": "DISDO"
            }
        },
        {
            "name": "KOKA1M",
            "runway": "RNW 12",
            "fixes": {
                "KOKAM": "KOKAM",
                "D341M": "D341M 3100",
                "AF021": "AF021",
                "AF022": "AF022",
                "MOKAL": "MOKAL"
            }
        },
        {
            "name": "KOKA1R",
            "runway": "RNW 30",
            "fixes": {
                "KOKAM": "KOKAM AT OR ABOVE 6000 SPEED 230",
                "KD404": "KD404 AT OR ABOVE 5000 SPEED 230",
                "RINAP": "RINAP AT OR ABOVE 3000 SPEED 230"
            }
        },
        {
            "name": "KOKA1V",
            "runway": "RNW 12 RNW 30",
            "fixes": {
                "KOKAM": "KOKAM",
                "DLA": "DLA"
            }
        },
        {
            "name": "MBO2D",
            "runway": "RNW 30",
            "fixes": {
                "MBO": "MBO",
                "D259M": "D259M 3800",
                "AF023": "AF023",
                "AF024": "AF024",
                "AF025": "AF025",
                "AF026": "AF026",
                "AF027": "AF027",
                "DISDO": "DISDO"
            }
        },
        {
            "name": "MBO2M",
            "runway": "RNW 12",
            "fixes": {
                "MBO": "MBO",
                "D259M": "D259M 3800",
                "AF028": "AF028",
                "AF029": "AF029",
                "MOKAL": "MOKAL"
            }
        },
        {
            "name": "MBO2V",
            "runway": "RNW 12 RNW 30",
            "fixes": {
                "MBO": "MBO",
                "DLA": "DLA"
            }
        },
        {
            "name": "NATE1K",
            "runway": "RNW 30",
            "fixes": {
                "ARASI": "ARASI",
                "NATER": "NATER AT OR ABOVE 6000 SPEED 230",
                "KEREM": "KEREM AT OR ABOVE 3000 SPEED 230"
            }
        },
        {
            "name": "NATE1L",
            "runway": "RNW 30",
            "fixes": {
                "ARASI": "ARASI",
                "NATER": "NATER AT OR ABOVE 6000 SPEED 230",
                "KD402": "KD402 AT OR ABOVE 6000 SPEED 230",
                "LIPEV": "LIPEV AT OR ABOVE 3000 SPEED 230"
            }
        },
        {
            "name": "NATE1M",
            "runway": "RNW 12",
            "fixes": {
                "ARASI": "ARASI",
                "NATER": "NATER AT OR ABOVE 6000 SPEED 230",
                "KD402": "KD402 AT OR ABOVE 6000 SPEED 230",
                "KD403": "KD403 AT OR ABOVE 5000 SPEED 230",
                "MINRO": "MINRO AT OR ABOVE 3000 SPEED 230"
            }
        },
        {
            "name": "ONIL1A",
            "runway": "RNW 12",
            "fixes": {
                "ONILO": "ONILO AT OR ABOVE 6000 SPEED 230",
                "ARBOX": "ARBOX AT OR ABOVE 3000 SPEED 230"
            }
        },
        {
            "name": "ONIL1R",
            "runway": "RNW 30",
            "fixes": {
                "ONILO": "ONILO AT OR ABOVE 6000 SPEED 230",
                "KD404": "KD404 AT OR ABOVE 5000 SPEED 230",
                "RINAP": "RINAP AT OR ABOVE 3000 SPEED 230"
            }
        },
        {
            "name": "SEXA1D",
            "runway": "RNW 30",
            "fixes": {
                "SEXAT": "SEXAT",
                "D032M": "D032M 3100",
                "AF030": "AF030",
                "AF031": "AF031",
                "AF032": "AF032",
                "DISDO": "DISDO"
            }
        },
        {
            "name": "SEXA1M",
            "runway": "RNW 12",
            "fixes": {
                "SEXAT": "SEXAT",
                "D032M": "D032M 3100",
                "AF033": "AF033",
                "AF034": "AF034",
                "AF035": "AF035",
                "AF036": "AF036",
                "AF037": "AF037",
                "MOKAL": "MOKAL"
            }
        },
        {
            "name": "SEXA1V",
            "runway": "RNW 12 RNW 30",
            "fixes": {
                "SEXAT": "SEXAT",
                "DLA": "DLA"
            }
        },
        {
            "name": "SIBI1K",
            "runway": "RNW 30",
            "fixes": {
                "EMTES": "EMTES",
                "SIBIL": "SIBIL AT OR ABOVE 6000 SPEED 230",
                "KEREM": "KEREM AT OR ABOVE 3000 SPEED 230"
            }
        },
        {
            "name": "SIBI1L",
            "runway": "RNW 30",
            "fixes": {
                "EMTES": "EMTES",
                "SIBIL": "SIBIL AT OR ABOVE 6000 SPEED 230",
                "KD402": "KD402 AT OR ABOVE 6000 SPEED 230",
                "LIPEV": "LIPEV AT OR ABOVE 3000 SPEED 230"
            }
        },
        {
            "name": "SIBI1M",
            "runway": "RNW 12",
            "fixes": {
                "EMTES": "EMTES",
                "SIBIL": "SIBIL AT OR ABOVE 6000 SPEED 230",
                "KD402": "KD402 AT OR ABOVE 6000 SPEED 230",
                "KD403": "KD403 AT OR ABOVE 5000 SPEED 230",
                "MINRO": "MINRO AT OR ABOVE 3000 SPEED 230"
            }
        },
        {
            "name": "TI1D",
            "runway": "RNW 30",
            "fixes": {
                "TI": "TI",
                "DLA": "DLA",
                "D134P": "OVERFLY D134P TURN LEFT DIRECT",
                "DISDO": "DISDO"
            }
        },
        {
            "name": "TI1M",
            "runway": "RNW 12",
            "fixes": {
                "TI": "TI",
                "D299R": "D299R 3800",
                "MOKAL": "MOKAL"
            }
        },
        {
            "name": "TI1V",
            "runway": "RNW 12 RNW 30",
            "fixes": {
                "TI": "TI",
                "DLA": "DLA"
            }
        }
    ],
    "approaches": [
        {
            "name": "VORDZ12",
            "fixes": {
                "FD12Z": "FD12Z 2200",
                "60VOR": "60VOR AT OR ABOVE 1440",
                "50VOR": "50VOR AT OR ABOVE 1070",
                "MD12Z": "MD12Z 506 RNW 12",
                "DLA": "DLA TRK 118 UNTIL 1400 TURN RIGHT HDG 312 INTERCEPT RADIAL 282 TO",
                "D282P": "D282P OVERFLY D282P 2200 TURN RIGHT DIRECT",
                "MOKAL": "MOKAL HOLD AT MOKAL RIGHT TURN INBOUNDCOURSE 118 SPEED 230 LEGDIST 5 FAF FD12Z MAP MD12Z"
            },
            "transitions": [
                {
                    "name": "MOKAL",
                    "fixes": {
                        "MOKAL": "MOKAL AT OR ABOVE 2200"
                    }
                }
            ]
        },
        {
            "name": "VORDZ30",
            "fixes": {
                "FD30Z": "FD30Z 2200",
                "40VOR": "40VOR AT OR ABOVE 1600",
                "10VOR": "10VOR AT OR ABOVE 640",
                "DLA": "DLA 335 RNW 30 TRK 298 UNTIL 1000 TURN LEFT HDG 104 INTERCEPT RADIAL 134 TO",
                "D134P": "D134P OVERFLY D134P 2200 TURN LEFT DIRECT",
                "DISDO": "DISDO HOLD AT DISDO LEFT TURN INBOUNDCOURSE 298 SPEED 230 LEGDIST 5 FAF FD30Z MAP DLA"
            },
            "transitions": [
                {
                    "name": "DISDO",
                    "fixes": {
                        "DISDO": "DISDO AT OR ABOVE 2200"
                    }
                }
            ]
        },
        {
            "name": "ILSX30",
            "fixes": {
                "CI30X": "CI30X AT OR ABOVE 2000",
                "KD506": "KD506 2000 RNW 30 TRK 298 UNTIL 440",
                "KD507": "OVERFLY KD507 TURN LEFT DIRECT",
                "NURES": "NURES AT OR ABOVE 3000 SPEED 230 FAF KD506 MAP RNW 30"
            },
            "transitions": [
                {
                    "name": "KEREM",
                    "fixes": {
                        "KEREM": "KEREM AT OR ABOVE 3000 SPEED 230",
                        "KD504": "KD504 AT OR ABOVE 3000 SPEED 230"
                    }
                },
                {
                    "name": "LIPEV",
                    "fixes": {
                        "LIPEV": "LIPEV AT OR ABOVE 3000 SPEED 230",
                        "KD504": "KD504 AT OR ABOVE 3000 SPEED 230"
                    }
                },
                {
                    "name": "RINAP",
                    "fixes": {
                        "RINAP": "RINAP AT OR ABOVE 3000 SPEED 230",
                        "KD504": "KD504 AT OR ABOVE 3000 SPEED 230"
                    }
                }
            ]
        },
        {
            "name": "ILSY30",
            "fixes": {
                "CI30Y": "CI30Y AT OR ABOVE 1600",
                "FI30Y": "FI30Y 1600 RNW 30 TRK 298 UNTIL 1000 TURN LEFT DIRECT",
                "DLA": "DLA 2200 FAF FI30Y MAP RNW 30"
            },
            "transitions": [
                {
                    "name": "DLA",
                    "fixes": {
                        "DLA": "DLA AT OR ABOVE 2200",
                        "D118E": "D118E AT OR ABOVE 1600 TRK 163 UNTIL 4.3 FROM D118E"
                    }
                }
            ]
        },
        {
            "name": "ILSZ30",
            "fixes": {
                "CI30Z": "CI30Z AT OR ABOVE 2200",
                "FI30Z": "FI30Z 2200 RNW 30 TRK 298 UNTIL 1000 TURN LEFT HDG 104 INTERCEPT RADIAL 134 TO",
                "D134P": "D134P OVERFLY D134P 2200 TURN LEFT DIRECT",
                "DISDO": "DISDO HOLD AT DISDO LEFT TURN INBOUNDCOURSE 298 SPEED 230 LEGDIST 5 FAF FI30Z MAP RNW 30"
            },
            "transitions": [
                {
                    "name": "DISDO",
                    "fixes": {
                        "DISDO": "DISDO AT OR ABOVE 2200"
                    }
                }
            ]
        },
        {
            "name": "RNAV12",
            "fixes": {
                "KD501": "KD501 AT OR ABOVE 3000 SPEED 230",
                "KD502": "KD502 2000 RNW 12 TRK 118 UNTIL 440",
                "KD503": "OVERFLY KD503 TURN RIGHT DIRECT",
                "SERUR": "SERUR AT OR ABOVE 3000 SPEED 230 FAF KD502 MAP RNW 12"
            },
            "transitions": [
                {
                    "name": "ARBOX",
                    "fixes": {
                        "ARBOX": "ARBOX AT OR ABOVE 3000 SPEED 230"
                    }
                },
                {
                    "name": "MINRO",
                    "fixes": {
                        "MINRO": "MINRO AT OR ABOVE 3000 SPEED 230"
                    }
                }
            ]
        },
        {
            "name": "RNAV30",
            "fixes": {
                "KD504": "KD504 AT OR ABOVE 3000 SPEED 230",
                "KD506": "KD506 2000 RNW 30 TRK 298 UNTIL 440",
                "KD507": "OVERFLY KD507 TURN LEFT DIRECT",
                "NURES": "NURES AT OR ABOVE 3000 SPEED 230 FAF KD506 MAP RNW 30"
            },
            "transitions": [
                {
                    "name": "KEREM",
                    "fixes": {
                        "KEREM": "KEREM AT OR ABOVE 3000 SPEED 230"
                    }
                },
                {
                    "name": "LIPEV",
                    "fixes": {
                        "LIPEV": "LIPEV AT OR ABOVE 3000 SPEED 230"
                    }
                },
                {
                    "name": "RINAP",
                    "fixes": {
                        "RINAP": "RINAP AT OR ABOVE 3000 SPEED 230"
                    }
                }
            ]
        },
        {
            "name": "VORY12",
            "fixes": {
                "FS12Y": "FS12Y 1600 RNW 12",
                "DLA": "OVERFLY DLA TRK 118 UNTIL 1000 TURN RIGHT DIRECT DLA 2200 FAF FS12Y MAP RNW 12"
            },
            "transitions": [
                {
                    "name": "DLA1",
                    "fixes": {
                        "DLA": "DLA AT OR ABOVE 2200 TRK 315 UNTIL 10.5 FROM DLA"
                    }
                },
                {
                    "name": "DLA2",
                    "fixes": {
                        "DLA": "DLA AT OR ABOVE 2200 TRK 311 UNTIL 7.0 FROM DLA"
                    }
                }
            ]
        },
        {
            "name": "VORY30",
            "fixes": {
                "FS30Y": "FS30Y 1600",
                "DLA": "DLA 335 RNW 30 TRK 298 UNTIL 1000 TURN LEFT DIRECT DLA 2200 FAF FS30Y MAP DLA"
            },
            "transitions": [
                {
                    "name": "DLA",
                    "fixes": {
                        "DLA": "DLA AT OR ABOVE 2200",
                        "D118E": "D118E AT OR ABOVE 1600 TRK 163 UNTIL 4.3 FROM D118E"
                    }
                }
            ]
        }
    ]
}