{
    "fixes": [
        {
            "name": "ADMIS",
            "lat": 13.381111116666666,
            "lon": 32.32083333333333
        },
        {
            "name": "ANVEV",
            "lat": 13.5145,
            "lon": 31.892388883333332
        },
        {
            "name": "ANVOD",
            "lat": 13.221222216666666,
            "lon": 32.23527778333333
        },
        {
            "name": "AXEBO",
            "lat": 13.529444433333333,
            "lon": 32.8275
        },
        {
            "name": "CD09",
            "lat": 13.244330566666667,
            "lon": 31.743583333333333
        },
        {
            "name": "CD27",
            "lat": 13.240805566666667,
            "lon": 32.11746943333333
        },
        {
            "name": "D036L",
            "lat": 13.091502783333333,
            "lon": 32.02213056666667
        },
        {
            "name": "D067J",
            "lat": 13.185633333333334,
            "lon": 32.06564721666667
        },
        {
            "name": "D088F",
            "lat": 13.251716666666667,
            "lon": 32.01210556666667
        },
        {
            "name": "D111L",
            "lat": 13.320541666666667,
            "lon": 32.10969443333333
        },
        {
            "name": "D243J",
            "lat": 13.348061116666667,
            "lon": 31.766991666666666
        },
        {
            "name": "D255H",
            "lat": 13.306838883333333,
            "lon": 31.781194433333333
        },
        {
            "name": "DULRU",
            "lat": 13.333722216666667,
            "lon": 32.14675
        },
        {
            "name": "DUVPA",
            "lat": 13.04,
            "lon": 31.523777783333333
        },
        {
            "name": "EGNED",
            "lat": 13.246944433333333,
            "lon": 32.03191666666667
        },
        {
            "name": "EKBEK",
            "lat": 13.2685,
            "lon": 31.86025
        },
        {
            "name": "ERDAB",
            "lat": 13.249194433333333,
            "lon": 32.014
        },
        {
            "name": "ETOLI",
            "lat": 12.191666666666666,
            "lon": 32.58833333333333
        },
        {
            "name": "FD09",
            "lat": 13.254875,
            "lon": 31.84555
        },
        {
            "name": "FD27",
            "lat": 13.250136116666667,
            "lon": 32.0274
        },
        {
            "name": "GERUV",
            "lat": 13.020361116666667,
            "lon": 31.827861116666668
        },
        {
            "name": "IBSOR",
            "lat": 13.040333333333333,
            "lon": 30.817416666666666
        },
        {
            "name": "IBTUN",
            "lat": 13.283666666666667,
            "lon": 31.739055566666668
        },
        {
            "name": "IMDEX",
            "lat": 13.234111116666666,
            "lon": 32.133611116666664
        },
        {
            "name": "IMLOD",
            "lat": 13.043444433333333,
            "lon": 31.838444433333333
        },
        {
            "name": "IMPEN",
            "lat": 13.238916666666666,
            "lon": 32.35397221666667
        },
        {
            "name": "IMSAG",
            "lat": 13.131861116666666,
            "lon": 31.961694433333335
        },
        {
            "name": "IXETU",
            "lat": 13.468527783333334,
            "lon": 32.042833333333334
        },
        {
            "name": "MF103",
            "lat": 13.296333333333333,
            "lon": 31.637333333333334
        },
        {
            "name": "MF106",
            "lat": 13.118916666666667,
            "lon": 32.277222216666665
        },
        {
            "name": "MF206",
            "lat": 13.39725,
            "lon": 31.598416666666665
        },
        {
            "name": "MF525",
            "lat": 12.478111116666666,
            "lon": 32.54783333333334
        },
        {
            "name": "MF530",
            "lat": 13.617361116666666,
            "lon": 31.110083333333332
        },
        {
            "name": "MF628",
            "lat": 13.284138883333334,
            "lon": 31.195833333333333
        },
        {
            "name": "NERAL",
            "lat": 13.331722216666666,
            "lon": 32.44705556666667
        },
        {
            "name": "NIDUP",
            "lat": 13.370583333333334,
            "lon": 31.993472216666667
        },
        {
            "name": "NIGOB",
            "lat": 13.238083333333334,
            "lon": 31.257805566666665
        },
        {
            "name": "OKLAR",
            "lat": 13.493638883333333,
            "lon": 31.887027783333334
        },
        {
            "name": "OKLUT",
            "lat": 13.359666666666667,
            "lon": 31.942333333333334
        },
        {
            "name": "OKPAV",
            "lat": 13.134472216666667,
            "lon": 32.1205
        },
        {
            "name": "TEVAS",
            "lat": 14.371666666666666,
            "lon": 32.05833333333333
        },
        {
            "name": "TEXEB",
            "lat": 13.030083333333334,
            "lon": 30.767
        },
        {
            "name": "UDKUG",
            "lat": 13.264138883333333,
            "lon": 31.42716666666667
        },
        {
            "name": "UDLED",
            "lat": 12.335138883333332,
            "lon": 32.55619443333333
        },
        {
            "name": "UNBET",
            "lat": 12.70075,
            "lon": 32.43327778333333
        },
        {
            "name": "UNDAD",
            "lat": 12.558583333333333,
            "lon": 32.28338888333333
        },
        {
            "name": "USUNA",
            "lat": 13.936861116666666,
            "lon": 32.10452778333333
        },
        {
            "name": "USUXA",
            "lat": 13.994472216666667,
            "lon": 31.955361116666666
        },
        {
            "name": "UTOSU",
            "lat": 13.5195,
            "lon": 32.17125
        },
        {
            "name": "UTSIG",
            "lat": 13.185277783333333,
            "lon": 30.917222216666666
        },
        {
            "name": "UVBOL",
            "lat": 13.419055566666668,
            "lon": 31.077444433333334
        },
        {
            "name": "UVEVO",
            "lat": 14.039805566666667,
            "lon": 31.83775
        },
        {
            "name": "UVGIN",
            "lat": 13.389444433333333,
            "lon": 31.122
        },
        {
            "name": "UVKEM",
            "lat": 12.354638883333333,
            "lon": 32.386611116666664
        },
        {
            "name": "UVLOT",
            "lat": 13.349111116666666,
            "lon": 32.027138883333336
        },
        {
            "name": "UVMEB",
            "lat": 13.891972216666666,
            "lon": 32.22052778333333
        },
        {
            "name": "UVMEL",
            "lat": 13.184027783333333,
            "lon": 31.72608333333333
        },
        {
            "name": "VMF",
            "lat": 13.261886116666666,
            "lon": 31.913533333333334
        },
        {
            "name": "XABID",
            "lat": 13.044805566666666,
            "lon": 31.987222216666666
        },
        {
            "name": "XAGAP",
            "lat": 13.236194433333333,
            "lon": 32.441
        },
        {
            "name": "XAGUV",
            "lat": 13.118027783333334,
            "lon": 31.202111116666668
        },
        {
            "name": "XAKDA",
            "lat": 13.383305566666667,
            "lon": 31.752027783333332
        },
        {
            "name": "XASGA",
            "lat": 13.567833333333333,
            "lon": 31.166055566666667
        },
        {
            "name": "XATBI",
            "lat": 13.270944433333334,
            "lon": 31.840777783333333
        },
        {
            "name": "XOSOM",
            "lat": 13.689694433333333,
            "lon": 30.648333333333333
        },
        {
            "name": "XUBIK",
            "lat": 13.628861116666666,
            "lon": 31.784027783333332
        },
        {
            "name": "XUDUX",
            "lat": 13.524055566666666,
            "lon": 32.44380556666667
        }
    ],
    "rnws": [
        "RNW 09",
        "RNW 27"
    ],
    "sids": [
        {
            "name": "AXEB1A",
            "rnw": "09",
            "fixes": {
                "ERDAB": "OVERFLY ERDAB",
                "IMPEN": "IMPEN",
                "XAGAP": "XAGAP",
                "AXEBO": "AXEBO AT OR ABOVE 7500"
            },
            "sub_fixes": [],
            "transitions": []
        },
        {
            "name": "AXEB1B",
            "rnw": "27",
            "fixes": {
                "EKBEK": "OVERFLY EKBEK",
                "ANVEV": "ANVEV AT OR BELOW 6500",
                "UTOSU": "UTOSU",
                "XUDUX": "XUDUX",
                "AXEBO": "AXEBO AT OR ABOVE 7500"
            },
            "sub_fixes": [],
            "transitions": []
        },
        {
            "name": "ETOL1A",
            "rnw": "09",
            "fixes": {
                "ERDAB": "OVERFLY ERDAB",
                "MF525": "MF525",
                "ETOLI": "ETOLI AT OR ABOVE 18000"
            },
            "sub_fixes": [],
            "transitions": []
        },
        {
            "name": "IBSO1A",
            "rnw": "27",
            "fixes": {
                "EKBEK": "OVERFLY EKBEK",
                "MF628": "MF628",
                "IBSOR": "IBSOR AT OR ABOVE 16000"
            },
            "sub_fixes": [],
            "transitions": []
        },
        {
            "name": "TEVA1A",
            "rnw": "09",
            "fixes": {
                "ERDAB": "OVERFLY ERDAB",
                "IXETU": "IXETU AT OR BELOW 8000",
                "USUNA": "USUNA",
                "TEVAS": "TEVAS AT OR ABOVE 7500"
            },
            "sub_fixes": [],
            "transitions": []
        },
        {
            "name": "TEVA1B",
            "rnw": "27",
            "fixes": {
                "EKBEK": "OVERFLY EKBEK",
                "ANVEV": "ANVEV AT OR BELOW 6500",
                "USUXA": "USUXA",
                "TEVAS": "TEVAS AT OR ABOVE 7500"
            },
            "sub_fixes": [],
            "transitions": []
        },
        {
            "name": "TEXE1A",
            "rnw": "09",
            "fixes": {
                "ERDAB": "OVERFLY ERDAB",
                "XABID": "XABID SPEED 230",
                "IMLOD": "IMLOD",
                "DUVPA": "DUVPA",
                "TEXEB": "TEXEB AT OR ABOVE 20000"
            },
            "sub_fixes": [],
            "transitions": []
        },
        {
            "name": "UDLE1A",
            "rnw": "27",
            "fixes": {
                "EKBEK": "OVERFLY EKBEK",
                "GERUV": "GERUV AT OR BELOW 6500",
                "UNDAD": "UNDAD",
                "UDLED": "UDLED AT OR ABOVE 17500"
            },
            "sub_fixes": [],
            "transitions": []
        },
        {
            "name": "XOSO1A",
            "rnw": "09",
            "fixes": {
                "ERDAB": "OVERFLY ERDAB",
                "IXETU": "IXETU AT OR BELOW 8000 SPEED 230",
                "OKLAR": "OKLAR AT OR ABOVE 11000",
                "MF530": "MF530",
                "XOSOM": "XOSOM AT OR ABOVE 22000"
            },
            "sub_fixes": [],
            "transitions": []
        },
        {
            "name": "XOSO1B",
            "rnw": "27",
            "fixes": {
                "EKBEK": "OVERFLY EKBEK",
                "UVGIN": "UVGIN",
                "XOSOM": "XOSOM AT OR ABOVE 18000"
            },
            "sub_fixes": [],
            "transitions": []
        }
    ],
    "stars": [
        {
            "name": "AXEB1A",
            "runway": "RNW 09",
            "fixes": {
                "AXEBO": "AXEBO AT OR ABOVE 9000",
                "ADMIS": "ADMIS",
                "UVLOT": "UVLOT",
                "OKLUT": "OKLUT AT OR ABOVE 9000",
                "XAKDA": "XAKDA AT OR ABOVE 5500"
            }
        },
        {
            "name": "AXEB1B",
            "runway": "RNW 27",
            "fixes": {
                "AXEBO": "AXEBO AT OR ABOVE 7500",
                "NERAL": "NERAL AT OR ABOVE 6500",
                "ANVOD": "ANVOD AT OR ABOVE 5500"
            }
        },
        {
            "name": "IBSO1A",
            "runway": "RNW 27",
            "fixes": {
                "IBSOR": "IBSOR AT OR ABOVE 21500",
                "XAGUV": "XAGUV",
                "IMSAG": "IMSAG AT OR ABOVE 7500",
                "OKPAV": "OKPAV AT OR ABOVE 5500"
            }
        },
        {
            "name": "TEVA1A",
            "runway": "RNW 09",
            "fixes": {
                "TEVAS": "TEVAS AT OR ABOVE 7500",
                "UVEVO": "UVEVO",
                "XUBIK": "XUBIK AT OR BELOW 10000",
                "XAKDA": "XAKDA AT OR ABOVE 5500"
            }
        },
        {
            "name": "TEVA1B",
            "runway": "RNW 27",
            "fixes": {
                "TEVAS": "TEVAS AT OR ABOVE 7500",
                "UVMEB": "UVMEB",
                "UTOSU": "UTOSU AT OR ABOVE 6000",
                "DULRU": "DULRU AT OR ABOVE 5500"
            }
        },
        {
            "name": "UDLE1A",
            "runway": "RNW 27",
            "fixes": {
                "UDLED": "UDLED AT OR ABOVE 16500",
                "UNBET": "UNBET",
                "OKPAV": "OKPAV AT OR ABOVE 5500"
            }
        },
        {
            "name": "UTSI1A",
            "runway": "RNW 09",
            "fixes": {
                "UTSIG": "UTSIG AT OR ABOVE 7500",
                "NIGOB": "NIGOB AT OR ABOVE 7000",
                "UDKUG": "UDKUG",
                "MF103": "MF103 AT OR ABOVE 5500"
            }
        },
        {
            "name": "UVKE1A",
            "runway": "RNW 09",
            "fixes": {
                "UVKEM": "UVKEM AT OR ABOVE 18500",
                "IMLOD": "IMLOD",
                "UVMEL": "UVMEL AT OR ABOVE 5500"
            }
        },
        {
            "name": "XOSO1A",
            "runway": "RNW 09",
            "fixes": {
                "XOSOM": "XOSOM AT OR ABOVE 18500",
                "UVBOL": "UVBOL AT OR ABOVE 6500",
                "MF103": "MF103 AT OR ABOVE 5500"
            }
        },
        {
            "name": "XOSO1B",
            "runway": "RNW 27",
            "fixes": {
                "XOSOM": "XOSOM AT OR ABOVE 24500",
                "XASGA": "XASGA",
                "NIDUP": "NIDUP AT OR ABOVE 7500",
                "DULRU": "DULRU AT OR ABOVE 5500"
            }
        }
    ],
    "approaches": [
        {
            "name": "VORD09",
            "fixes": {
                "CD09": "CD09 AT OR ABOVE 4200",
                "FD09": "FD09 3400",
                "VMF": "VMF 2129 RNW 09 TRK 100 VECTORS FAF FD09 MAP VMF"
            },
            "transitions": [
                {
                    "name": "D243J",
                    "fixes": {
                        "D243J": "D243J AT OR ABOVE 5100"
                    }
                },
                {
                    "name": "VMF",
                    "fixes": {
                        "VMF": "VMF AT OR ABOVE 5100",
                        "FD09": "FD09",
                        "D255H": "OVERFLY D255H"
                    }
                }
            ]
        },
        {
            "name": "VORD27",
            "fixes": {
                "CD27": "CD27 AT OR ABOVE 3900",
                "FD27": "FD27 3400 RNW 27",
                "VMF": "VMF TRK 268 VECTORS FAF FD27 MAP RNW 27"
            },
            "transitions": [
                {
                    "name": "D036L",
                    "fixes": {
                        "D036L": "D036L AT OR ABOVE 5100"
                    }
                },
                {
                    "name": "D111L",
                    "fixes": {
                        "D111L": "D111L AT OR ABOVE 5100"
                    }
                },
                {
                    "name": "VMF",
                    "fixes": {
                        "VMF": "VMF AT OR ABOVE 5100",
                        "D088F": "D088F",
                        "D067J": "OVERFLY D067J"
                    }
                }
            ]
        },
        {
            "name": "RNAV09",
            "fixes": {
                "IBTUN": "IBTUN AT OR ABOVE 4500",
                "XATBI": "XATBI 3500 RNW 09 TRK 087 UNTIL 3000",
                "MF106": "OVERFLY MF106 AT OR ABOVE 5400 HOLD AT MF106 LEFT TURN INBOUNDCOURSE 066 ALT 5400 SPEED 230 LEGDIST 6 FAF XATBI MAP RNW 09"
            },
            "transitions": [
                {
                    "name": "MF103",
                    "fixes": {
                        "MF103": "MF103 AT OR ABOVE 5500"
                    }
                },
                {
                    "name": "UVMEL",
                    "fixes": {
                        "UVMEL": "UVMEL AT OR ABOVE 5500"
                    }
                },
                {
                    "name": "XAKDA",
                    "fixes": {
                        "XAKDA": "XAKDA AT OR ABOVE 5500"
                    }
                }
            ]
        },
        {
            "name": "RNAV27",
            "fixes": {
                "IMDEX": "IMDEX AT OR ABOVE 4500",
                "EGNED": "EGNED 3500 RNW 27 TRK 267 UNTIL 3000",
                "MF206": "OVERFLY MF206 AT OR ABOVE 5400 HOLD AT MF206 LEFT TURN INBOUNDCOURSE 246 ALT 5400 SPEED 230 LEGDIST 6 FAF EGNED MAP RNW 27"
            },
            "transitions": [
                {
                    "name": "ANVOD",
                    "fixes": {
                        "ANVOD": "ANVOD AT OR ABOVE 5500"
                    }
                },
                {
                    "name": "DULRU",
                    "fixes": {
                        "DULRU": "DULRU AT OR ABOVE 5500"
                    }
                },
                {
                    "name": "OKPAV",
                    "fixes": {
                        "OKPAV": "OKPAV AT OR ABOVE 5500"
                    }
                }
            ]
        }
    ]
}