{
    "fixes": [
        {
            "name": "AMKIV",
            "lat": 0.44636943333333334,
            "lon": 25.560419433333333
        },
        {
            "name": "ARVOX",
            "lat": 0.01750556666666667,
            "lon": 25.281152783333333
        },
        {
            "name": "ATBAP",
            "lat": 0.7734666666666666,
            "lon": 25.314480566666667
        },
        {
            "name": "CD12",
            "lat": 0.5602305666666666,
            "lon": 25.226386116666667
        },
        {
            "name": "CD30",
            "lat": 0.40363888333333336,
            "lon": 25.448533333333334
        },
        {
            "name": "EKVAX",
            "lat": 0.13899721666666667,
            "lon": 24.973022216666667
        },
        {
            "name": "F12C2",
            "lat": 0.5882888833333334,
            "lon": 25.185175
        },
        {
            "name": "F12F2",
            "lat": 0.5404638833333333,
            "lon": 25.254019433333333
        },
        {
            "name": "F30C2",
            "lat": 0.3750611166666667,
            "lon": 25.490191666666668
        },
        {
            "name": "F30F2",
            "lat": 0.4228888833333333,
            "lon": 25.421905566666666
        },
        {
            "name": "FD12",
            "lat": 0.5410166666666666,
            "lon": 25.253644433333335
        },
        {
            "name": "FD30",
            "lat": 0.4228527833333333,
            "lon": 25.421275
        },
        {
            "name": "IBRUX",
            "lat": 0.18916111666666666,
            "lon": 25.362055566666665
        },
        {
            "name": "IBSOV",
            "lat": 0.9550944333333333,
            "lon": 25.170802783333333
        },
        {
            "name": "IDGEM",
            "lat": 0.43445,
            "lon": 25.834919433333333
        },
        {
            "name": "INILA",
            "lat": 0.3176694333333333,
            "lon": 25.572133333333333
        },
        {
            "name": "ISBAR",
            "lat": 0.6795138833333334,
            "lon": 25.227019433333332
        },
        {
            "name": "KGI",
            "lat": 0.4958666666666666,
            "lon": 25.3177
        },
        {
            "name": "LEVKO",
            "lat": 0.7224555666666667,
            "lon": 25.776102783333332
        },
        {
            "name": "NASEK",
            "lat": 0.28366111666666666,
            "lon": 25.448322216666668
        },
        {
            "name": "NAVOL",
            "lat": 0.6780333333333334,
            "lon": 24.878605566666668
        },
        {
            "name": "NIGTI",
            "lat": 0.36219443333333334,
            "lon": 24.853244433333334
        },
        {
            "name": "OGOSO",
            "lat": 0.5878666666666666,
            "lon": 25.18625
        },
        {
            "name": "OMITU",
            "lat": 0.9838027833333334,
            "lon": 25.356133333333332
        },
        {
            "name": "ONKEV",
            "lat": 0.5169805666666666,
            "lon": 25.114805566666668
        },
        {
            "name": "RW12",
            "lat": 0.4907166666666667,
            "lon": 25.325058333333335
        },
        {
            "name": "RW30",
            "lat": 0.4726388833333333,
            "lon": 25.350869433333333
        },
        {
            "name": "SONUK",
            "lat": 0.3747,
            "lon": 25.490402783333334
        },
        {
            "name": "TINOB",
            "lat": 0.45349721666666665,
            "lon": 25.378205566666665
        },
        {
            "name": "UMPET",
            "lat": 0.5079722166666667,
            "lon": 24.839608333333334
        },
        {
            "name": "UPUVA",
            "lat": 0.5602583333333333,
            "lon": 25.618747216666666
        },
        {
            "name": "UVSAN",
            "lat": 0.40229166666666666,
            "lon": 25.058013883333334
        },
        {
            "name": "UVTAP",
            "lat": 0.0005888833333333334,
            "lon": 25.482025
        },
        {
            "name": "VOMLI",
            "lat": 0.645675,
            "lon": 25.103780566666668
        }
    ],
    "rnws": [
        "RNW 12",
        "RNW 30"
    ],
    "sids": [
        {
            "name": "ATBA2B",
            "rnw": "30",
            "fixes": {
                "OGOSO": "OGOSO TURN RIGHT DIRECT",
                "ATBAP": "ATBAP"
            },
            "sub_fixes": [],
            "transitions": []
        },
        {
            "name": "IBRU2A",
            "rnw": "12",
            "fixes": {
                "SONUK": "SONUK TURN RIGHT DIRECT",
                "IBRUX": "IBRUX"
            },
            "sub_fixes": [],
            "transitions": []
        },
        {
            "name": "OGOS2B",
            "rnw": "30",
            "fixes": {
                "OGOSO": "OGOSO"
            },
            "sub_fixes": [],
            "transitions": []
        },
        {
            "name": "SONU2A",
            "rnw": "12",
            "fixes": {
                "SONUK": "SONUK"
            },
            "sub_fixes": [],
            "transitions": []
        },
        {
            "name": "UPUV2A",
            "rnw": "12",
            "fixes": {
                "SONUK": "SONUK TURN LEFT DIRECT",
                "UPUVA": "UPUVA"
            },
            "sub_fixes": [],
            "transitions": []
        },
        {
            "name": "UVSA2B",
            "rnw": "30",
            "fixes": {
                "OGOSO": "OGOSO TURN LEFT DIRECT",
                "UVSAN": "UVSAN"
            },
            "sub_fixes": [],
            "transitions": []
        }
    ],
    "stars": [
        {
            "name": "ARVO2C",
            "runway": "RNW 12",
            "fixes": {
                "ARVOX": "ARVOX",
                "ONKEV": "ONKEV"
            }
        },
        {
            "name": "EKVA2D",
            "runway": "RNW 30",
            "fixes": {
                "EKVAX": "EKVAX",
                "NASEK": "NASEK"
            }
        },
        {
            "name": "IBSO2C",
            "runway": "RNW 12",
            "fixes": {
                "IBSOV": "IBSOV",
                "ISBAR": "ISBAR"
            }
        },
        {
            "name": "IDGE2D",
            "runway": "RNW 30",
            "fixes": {
                "IDGEM": "IDGEM",
                "INILA": "INILA"
            }
        },
        {
            "name": "LEVK2C",
            "runway": "RNW 12",
            "fixes": {
                "LEVKO": "LEVKO",
                "ISBAR": "ISBAR"
            }
        },
        {
            "name": "NAVO2C",
            "runway": "RNW 12",
            "fixes": {
                "NAVOL": "NAVOL",
                "VOMLI": "VOMLI"
            }
        },
        {
            "name": "NIGT2C",
            "runway": "RNW 12",
            "fixes": {
                "NIGTI": "NIGTI",
                "ONKEV": "ONKEV"
            }
        },
        {
            "name": "OMIT2D",
            "runway": "RNW 30",
            "fixes": {
                "OMITU": "OMITU",
                "AMKIV": "AMKIV"
            }
        },
        {
            "name": "UMPE2D",
            "runway": "RNW 30",
            "fixes": {
                "UMPET": "UMPET",
                "NASEK": "NASEK"
            }
        },
        {
            "name": "UVTA2D",
            "runway": "RNW 30",
            "fixes": {
                "UVTAP": "UVTAP",
                "NASEK": "NASEK"
            }
        }
    ],
    "approaches": [
        {
            "name": "VORD12",
            "fixes": {
                "CD12": "CD12 AT OR ABOVE 3100",
                "FD12": "FD12 3100",
                "KGI": "KGI 1629 RNW 12 TRK 124 UNTIL 1820 TRK 090 UNTIL 3500 TURN RIGHT DIRECT KGI 4000 FAF FD12 MAP KGI"
            },
            "transitions": [
                {
                    "name": "KGI",
                    "fixes": {
                        "KGI": "KGI AT OR ABOVE 4000",
                        "FD12": "FD12 AT OR ABOVE 3100 TRK 349 UNTIL 4.4 FROM FD12"
                    }
                }
            ]
        },
        {
            "name": "VORD30",
            "fixes": {
                "CD30": "CD30 AT OR ABOVE 3100",
                "FD30": "FD30 3100 RNW 30",
                "KGI": "KGI TRK 345 UNTIL 3500 TURN LEFT DIRECT KGI 3500 FAF FD30 MAP RNW 30"
            },
            "transitions": [
                {
                    "name": "KGI",
                    "fixes": {
                        "KGI": "KGI AT OR ABOVE 4000",
                        "FD30": "FD30 AT OR ABOVE 3100 TRK 079 UNTIL 4.4 FROM FD30"
                    }
                }
            ]
        },
        {
            "name": "RNAV12",
            "fixes": {
                "F12C2": "F12C2 AT OR ABOVE 3100",
                "F12F2": "F12F2 3100 RNW 12 TRK 124 UNTIL 2500 TURN LEFT DIRECT",
                "ISBAR": "ISBAR 5000 HOLD AT ISBAR RIGHT TURN INBOUNDCOURSE 204 ALT 5000 LEGTIME 1 FAF F12F2 MAP RNW 12"
            },
            "transitions": [
                {
                    "name": "ISBAR",
                    "fixes": {
                        "ISBAR": "ISBAR"
                    }
                },
                {
                    "name": "ONKEV",
                    "fixes": {
                        "ONKEV": "ONKEV"
                    }
                },
                {
                    "name": "VOMLI",
                    "fixes": {
                        "VOMLI": "VOMLI"
                    }
                }
            ]
        },
        {
            "name": "RNAV30",
            "fixes": {
                "F30C2": "F30C2 AT OR ABOVE 3100",
                "F30F2": "F30F2 3100",
                "TINOB": "TINOB AT OR ABOVE 2110 RNW 30 TRK 304 UNTIL 2500 TURN RIGHT DIRECT",
                "AMKIV": "AMKIV 5000 HOLD AT AMKIV LEFT TURN INBOUNDCOURSE 224 ALT 5000 LEGTIME 1 FAF F30F2 MAP RNW 30"
            },
            "transitions": [
                {
                    "name": "AMKIV",
                    "fixes": {
                        "AMKIV": "AMKIV"
                    }
                },
                {
                    "name": "INILA",
                    "fixes": {
                        "INILA": "INILA"
                    }
                },
                {
                    "name": "NASEK",
                    "fixes": {
                        "NASEK": "NASEK"
                    }
                }
            ]
        }
    ]
}