{
    "fixes": [
        {
            "name": "AF001",
            "lat": 28.044141316666668,
            "lon": 16.40867971666667
        },
        {
            "name": "AF002",
            "lat": 27.990523783333334,
            "lon": 16.405105383333332
        },
        {
            "name": "AF003",
            "lat": 28.00433605,
            "lon": 16.404773283333334
        },
        {
            "name": "AF004",
            "lat": 27.912600133333335,
            "lon": 16.42379418333333
        },
        {
            "name": "AF005",
            "lat": 27.833389766666667,
            "lon": 16.4794837
        },
        {
            "name": "AF006",
            "lat": 28.044499866666666,
            "lon": 16.408748266666667
        },
        {
            "name": "AF007",
            "lat": 27.991250183333335,
            "lon": 16.405066366666667
        },
        {
            "name": "AF008",
            "lat": 27.938523066666665,
            "lon": 16.41426065
        },
        {
            "name": "AF009",
            "lat": 28.011606383333334,
            "lon": 16.404945833333333
        },
        {
            "name": "AF010",
            "lat": 27.926311833333333,
            "lon": 16.418311666666668
        },
        {
            "name": "AF011",
            "lat": 27.850072083333334,
            "lon": 16.463596083333332
        },
        {
            "name": "AF012",
            "lat": 27.791904066666667,
            "lon": 16.535384166666667
        },
        {
            "name": "AF013",
            "lat": 27.758675133333334,
            "lon": 16.625166416666666
        },
        {
            "name": "AF014",
            "lat": 28.052907083333334,
            "lon": 16.867864466666667
        },
        {
            "name": "AF015",
            "lat": 28.01200675,
            "lon": 16.876380066666666
        },
        {
            "name": "AF016",
            "lat": 28.0552125,
            "lon": 16.867015716666668
        },
        {
            "name": "AF017",
            "lat": 28.016842433333334,
            "lon": 16.875989533333332
        },
        {
            "name": "AF018",
            "lat": 27.977683516666666,
            "lon": 16.874566383333335
        },
        {
            "name": "ARACO",
            "lat": 28.432527783333335,
            "lon": 17.452333333333332
        },
        {
            "name": "BAMEL",
            "lat": 28.111333333333334,
            "lon": 16.87725
        },
        {
            "name": "BETAN",
            "lat": 28.41025,
            "lon": 14.251888883333333
        },
        {
            "name": "BIMBO",
            "lat": 31.421444433333335,
            "lon": 16.03288888333333
        },
        {
            "name": "BRICK",
            "lat": 29.59136111666667,
            "lon": 16.372888883333335
        },
        {
            "name": "CANIS",
            "lat": 27.999833333333335,
            "lon": 14.648166666666667
        },
        {
            "name": "CD07",
            "lat": 27.976669433333335,
            "lon": 16.763483333333333
        },
        {
            "name": "CD25",
            "lat": 28.108694433333334,
            "lon": 16.390472216666666
        },
        {
            "name": "CF07Y",
            "lat": 27.971925,
            "lon": 16.780375
        },
        {
            "name": "CF07Z",
            "lat": 27.978055566666665,
            "lon": 16.762888883333332
        },
        {
            "name": "CF25Y",
            "lat": 28.11975,
            "lon": 16.355527783333333
        },
        {
            "name": "CF25Z",
            "lat": 28.10955,
            "lon": 16.385258333333333
        },
        {
            "name": "D073J",
            "lat": 28.064936116666665,
            "lon": 16.513233333333332
        },
        {
            "name": "D073M",
            "lat": 28.083641666666665,
            "lon": 16.460791666666665
        },
        {
            "name": "D073N",
            "lat": 28.089872216666667,
            "lon": 16.443305566666666
        },
        {
            "name": "D073P",
            "lat": 28.102325,
            "lon": 16.408327783333334
        },
        {
            "name": "D110O",
            "lat": 27.937291666666667,
            "lon": 16.415266666666668
        },
        {
            "name": "D122O",
            "lat": 27.888405566666666,
            "lon": 16.436527783333332
        },
        {
            "name": "D159O",
            "lat": 27.777075,
            "lon": 16.564361116666667
        },
        {
            "name": "D165O",
            "lat": 28.300677783333335,
            "lon": 16.173705566666666
        },
        {
            "name": "D192O",
            "lat": 27.753622216666667,
            "lon": 16.722255566666668
        },
        {
            "name": "D250N",
            "lat": 27.958541666666665,
            "lon": 16.794594433333334
        },
        {
            "name": "D250O",
            "lat": 27.950030566666666,
            "lon": 16.815044433333334
        },
        {
            "name": "D253K",
            "lat": 27.939727783333332,
            "lon": 16.862394433333332
        },
        {
            "name": "D253O",
            "lat": 27.958433333333332,
            "lon": 16.818897216666667
        },
        {
            "name": "D264J",
            "lat": 27.970430566666668,
            "lon": 16.872691666666668
        },
        {
            "name": "FAYTA",
            "lat": 28.108583333333332,
            "lon": 14.138111116666666
        },
        {
            "name": "FD25",
            "lat": 28.077555566666668,
            "lon": 16.477916666666665
        },
        {
            "name": "FF07Y",
            "lat": 27.996444433333334,
            "lon": 16.710333333333335
        },
        {
            "name": "FF07Z",
            "lat": 28.008666666666667,
            "lon": 16.675277783333332
        },
        {
            "name": "FF25Y",
            "lat": 28.080222216666666,
            "lon": 16.46963888333333
        },
        {
            "name": "FF25Z",
            "lat": 28.098361116666666,
            "lon": 16.417333333333332
        },
        {
            "name": "FI07Y",
            "lat": 27.996611116666667,
            "lon": 16.709805566666667
        },
        {
            "name": "FI07Z",
            "lat": 28.004027783333335,
            "lon": 16.688611116666667
        },
        {
            "name": "FI25Y",
            "lat": 28.07997221666667,
            "lon": 16.470333333333333
        },
        {
            "name": "FI25Z",
            "lat": 28.097333333333335,
            "lon": 16.420305566666666
        },
        {
            "name": "FN07",
            "lat": 27.976591666666668,
            "lon": 16.715041666666668
        },
        {
            "name": "FN275",
            "lat": 28.054577783333333,
            "lon": 16.364977783333334
        },
        {
            "name": "FTV",
            "lat": 28.430777783333333,
            "lon": 13.8645
        },
        {
            "name": "GANTA",
            "lat": 28.274861116666667,
            "lon": 17.170527783333334
        },
        {
            "name": "GDV",
            "lat": 28.077083333333334,
            "lon": 15.429
        },
        {
            "name": "GURKA",
            "lat": 30.434,
            "lon": 15.85025
        },
        {
            "name": "HIENB",
            "lat": 27.816166666666668,
            "lon": 17.886388883333332
        },
        {
            "name": "KASAS",
            "lat": 29.986416666666667,
            "lon": 15.768722216666667
        },
        {
            "name": "KONBA",
            "lat": 31.300833333333333,
            "lon": 15.301666666666666
        },
        {
            "name": "KONDA",
            "lat": 27.74491666666667,
            "lon": 15.806861116666667
        },
        {
            "name": "KOPUD",
            "lat": 28.139722216666666,
            "lon": 14.507777783333333
        },
        {
            "name": "KORAL",
            "lat": 29.731416666666668,
            "lon": 12.578333333333333
        },
        {
            "name": "LARYS",
            "lat": 28.871833333333335,
            "lon": 14.834277783333333
        },
        {
            "name": "LINDE",
            "lat": 28.662166666666668,
            "lon": 13.357694433333334
        },
        {
            "name": "LORPO",
            "lat": 28.215833333333332,
            "lon": 14.651666666666667
        },
        {
            "name": "LPC",
            "lat": 27.82852778333333,
            "lon": 15.43225
        },
        {
            "name": "LZR",
            "lat": 29.166,
            "lon": 13.510694433333333
        },
        {
            "name": "MD07",
            "lat": 28.027611116666666,
            "lon": 16.617722216666667
        },
        {
            "name": "MD25",
            "lat": 28.058833333333332,
            "lon": 16.53036111666667
        },
        {
            "name": "MERAN",
            "lat": 27.8565,
            "lon": 16.185666666666666
        },
        {
            "name": "ML07",
            "lat": 28.036166666666666,
            "lon": 16.596416666666666
        },
        {
            "name": "ML25",
            "lat": 28.055861116666666,
            "lon": 16.539805566666665
        },
        {
            "name": "ODEGI",
            "lat": 26.894583333333333,
            "lon": 16.290111116666665
        },
        {
            "name": "ORTIS",
            "lat": 31.406944433333333,
            "lon": 16.556916666666666
        },
        {
            "name": "RASEP",
            "lat": 28.694166666666668,
            "lon": 14.446666666666667
        },
        {
            "name": "REMGI",
            "lat": 27.090194433333334,
            "lon": 15.269611116666667
        },
        {
            "name": "RUSIK",
            "lat": 28.906111116666665,
            "lon": 12.816388883333333
        },
        {
            "name": "RW07",
            "lat": 28.039205566666666,
            "lon": 16.587638883333334
        },
        {
            "name": "RW25",
            "lat": 28.04975,
            "lon": 16.557341666666666
        },
        {
            "name": "SAMAR",
            "lat": 30.899722216666667,
            "lon": 14.415555566666667
        },
        {
            "name": "SARAY",
            "lat": 29.758638883333333,
            "lon": 14.157416666666666
        },
        {
            "name": "TENAR",
            "lat": 28.048416666666668,
            "lon": 15.935888883333334
        },
        {
            "name": "TENDA",
            "lat": 28.533333333333335,
            "lon": 13.640666666666666
        },
        {
            "name": "TERFE",
            "lat": 28.190416666666668,
            "lon": 16.129472216666667
        },
        {
            "name": "TERTO",
            "lat": 30.104166666666668,
            "lon": 12.717222216666666
        },
        {
            "name": "TESNB",
            "lat": 28.054722216666665,
            "lon": 16.562777783333335
        },
        {
            "name": "TFN",
            "lat": 28.536833333333334,
            "lon": 16.268777783333334
        },
        {
            "name": "TFS",
            "lat": 28.002444433333334,
            "lon": 16.687916666666666
        },
        {
            "name": "TFS75",
            "lat": 27.270077783333335,
            "lon": 15.545669433333334
        },
        {
            "name": "TOMOS",
            "lat": 27.5475,
            "lon": 15.55325
        },
        {
            "name": "TUPIK",
            "lat": 27.890833333333333,
            "lon": 14.745555566666667
        },
        {
            "name": "URQUI",
            "lat": 26.894583333333333,
            "lon": 17.039916666666667
        },
        {
            "name": "VASTO",
            "lat": 30.509444433333332,
            "lon": 13.572777783333333
        }
    ],
    "rnws": [
        "RNW 07",
        "RNW 25"
    ],
    "sids": [
        {
            "name": "ARAC3F",
            "rnw": "25",
            "fixes": {
                "TFS": "TFS",
                "GANTA": "GANTA",
                "ARACO": "ARACO"
            },
            "sub_fixes": [],
            "transitions": []
        },
        {
            "name": "ARAC4E",
            "rnw": "07",
            "fixes": {
                "D073J": "OVERFLY D073J TURN RIGHT DIRECT",
                "TFS": "TFS",
                "GANTA": "GANTA",
                "ARACO": "ARACO"
            },
            "sub_fixes": [],
            "transitions": []
        },
        {
            "name": "BIMB6F",
            "rnw": "25",
            "fixes": {
                "TFS": "TFS",
                "GANTA": "GANTA AT OR ABOVE 9000 TURN RIGHT HDG 053 INTERCEPT RADIAL 083 TO",
                "TFN": "TFN",
                "KASAS": "KASAS",
                "BIMBO": "BIMBO AT OR ABOVE 10000"
            },
            "sub_fixes": [],
            "transitions": []
        },
        {
            "name": "BIMB9E",
            "rnw": "07",
            "fixes": {
                "D073J": "D073J",
                "TERFE": "TERFE AT OR ABOVE 9000",
                "D165O": "D165O AT OR ABOVE 11000",
                "TFN": "TFN",
                "KASAS": "KASAS",
                "BIMBO": "BIMBO"
            },
            "sub_fixes": [],
            "transitions": []
        },
        {
            "name": "HIE5F",
            "rnw": "25",
            "fixes": {
                "TFS": "TFS",
                "HIENB": "HIENB"
            },
            "sub_fixes": [],
            "transitions": []
        },
        {
            "name": "HIE6E",
            "rnw": "07",
            "fixes": {
                "D073J": "OVERFLY D073J TURN RIGHT DIRECT",
                "TFS": "TFS",
                "HIENB": "HIENB"
            },
            "sub_fixes": [],
            "transitions": []
        },
        {
            "name": "KONB5F",
            "rnw": "25",
            "fixes": {
                "TFS": "TFS",
                "GANTA": "GANTA AT OR ABOVE 9000 TURN RIGHT HDG 053 INTERCEPT RADIAL 083 TO",
                "TFN": "TFN",
                "KASAS": "KASAS",
                "KONBA": "KONBA"
            },
            "sub_fixes": [],
            "transitions": []
        },
        {
            "name": "KONB9E",
            "rnw": "07",
            "fixes": {
                "D073J": "D073J",
                "TERFE": "TERFE AT OR ABOVE 9000",
                "D165O": "D165O AT OR ABOVE 11000",
                "TFN": "TFN",
                "KASAS": "KASAS",
                "KONBA": "KONBA"
            },
            "sub_fixes": [],
            "transitions": []
        },
        {
            "name": "KOPU1F",
            "rnw": "25",
            "fixes": {
                "TFS": "TFS TURN LEFT DIRECT",
                "MERAN": "MERAN AT OR ABOVE 9000",
                "LPC": "OVERFLY LPC AT OR ABOVE 22000",
                "TUPIK": "TUPIK",
                "KOPUD": "KOPUD"
            },
            "sub_fixes": [],
            "transitions": []
        },
        {
            "name": "KOPU3E",
            "rnw": "07",
            "fixes": {
                "D073J": "D073J HDG 120 INTERCEPT RADIAL 090 TO",
                "TENAR": "TENAR AT OR ABOVE 10000",
                "GDV": "OVERFLY GDV AT OR ABOVE 15000",
                "KOPUD": "KOPUD"
            },
            "sub_fixes": [],
            "transitions": []
        },
        {
            "name": "KORA2E",
            "rnw": "07",
            "fixes": {
                "D073J": "D073J HDG 120 INTERCEPT RADIAL 090 TO",
                "TENAR": "TENAR AT OR ABOVE 10000",
                "GDV": "OVERFLY GDV AT OR ABOVE 15000",
                "LZR": "LZR",
                "KORAL": "KORAL"
            },
            "sub_fixes": [],
            "transitions": []
        },
        {
            "name": "KORA6F",
            "rnw": "25",
            "fixes": {
                "TFS": "TFS TURN LEFT DIRECT",
                "MERAN": "MERAN AT OR ABOVE 9000",
                "LPC": "OVERFLY LPC AT OR ABOVE 22000",
                "FTV": "FTV",
                "KORAL": "KORAL"
            },
            "sub_fixes": [],
            "transitions": []
        },
        {
            "name": "LPC5F",
            "rnw": "25",
            "fixes": {
                "TFS": "TFS TURN LEFT DIRECT",
                "TOMOS": "TOMOS TURN LEFT DIRECT",
                "LPC": "LPC"
            },
            "sub_fixes": [],
            "transitions": []
        },
        {
            "name": "LPC6E",
            "rnw": "07",
            "fixes": {
                "D073M": "D073M",
                "AF001": "AF001",
                "AF002": "AF002",
                "D110O": "D110O",
                "TOMOS": "TOMOS TURN LEFT DIRECT",
                "LPC": "LPC"
            },
            "sub_fixes": [],
            "transitions": []
        },
        {
            "name": "ODEG2E",
            "rnw": "07",
            "fixes": {
                "D073M": "D073M",
                "AF003": "AF003",
                "AF004": "AF004",
                "AF005": "AF005",
                "D159O": "D159O",
                "ODEGI": "ODEGI AT OR ABOVE 11000"
            },
            "sub_fixes": [],
            "transitions": []
        },
        {
            "name": "ODEG2F",
            "rnw": "25",
            "fixes": {
                "TFS": "TFS HDG 197 INTERCEPT RADIAL 167 TO",
                "ODEGI": "ODEGI AT OR ABOVE 11000"
            },
            "sub_fixes": [],
            "transitions": []
        },
        {
            "name": "RASE1F",
            "rnw": "25",
            "fixes": {
                "TFS": "TFS TURN LEFT DIRECT",
                "MERAN": "MERAN AT OR ABOVE 9000",
                "LPC": "OVERFLY LPC AT OR ABOVE 22000",
                "RASEP": "RASEP"
            },
            "sub_fixes": [],
            "transitions": []
        },
        {
            "name": "RASE3E",
            "rnw": "07",
            "fixes": {
                "D073J": "D073J HDG 120 INTERCEPT RADIAL 090 TO",
                "TENAR": "TENAR AT OR ABOVE 10000",
                "GDV": "OVERFLY GDV AT OR ABOVE 15000",
                "RASEP": "RASEP"
            },
            "sub_fixes": [],
            "transitions": []
        },
        {
            "name": "REMG2E",
            "rnw": "07",
            "fixes": {
                "D073M": "D073M",
                "AF006": "AF006",
                "AF007": "AF007",
                "AF008": "AF008",
                "D122O": "D122O TRK 160 INTERCEPT RADIAL 130 TO",
                "REMGI": "REMGI AT OR ABOVE 10000"
            },
            "sub_fixes": [],
            "transitions": []
        },
        {
            "name": "REMG2F",
            "rnw": "25",
            "fixes": {
                "TFS": "TFS TURN LEFT DIRECT",
                "REMGI": "REMGI AT OR ABOVE 10000"
            },
            "sub_fixes": [],
            "transitions": []
        },
        {
            "name": "SAMA9E",
            "rnw": "07",
            "fixes": {
                "D073J": "D073J",
                "TERFE": "TERFE AT OR ABOVE 9000",
                "D165O": "D165O AT OR ABOVE 11000",
                "TFN": "TFN",
                "KASAS": "KASAS",
                "SAMAR": "SAMAR"
            },
            "sub_fixes": [],
            "transitions": []
        },
        {
            "name": "SAMA9F",
            "rnw": "25",
            "fixes": {
                "TFS": "TFS TURN LEFT DIRECT",
                "MERAN": "MERAN AT OR ABOVE 9000",
                "LPC": "OVERFLY LPC AT OR ABOVE 22000",
                "LARYS": "LARYS",
                "SARAY": "SARAY",
                "SAMAR": "SAMAR"
            },
            "sub_fixes": [],
            "transitions": []
        },
        {
            "name": "SARA1E",
            "rnw": "07",
            "fixes": {
                "D073J": "D073J HDG 120 INTERCEPT RADIAL 090 TO",
                "TENAR": "TENAR AT OR ABOVE 10000",
                "GDV": "OVERFLY GDV AT OR ABOVE 15000",
                "LARYS": "LARYS",
                "SARAY": "SARAY"
            },
            "sub_fixes": [],
            "transitions": []
        },
        {
            "name": "SARA1F",
            "rnw": "25",
            "fixes": {
                "TFS": "TFS TURN LEFT DIRECT",
                "MERAN": "MERAN AT OR ABOVE 9000",
                "LPC": "OVERFLY LPC AT OR ABOVE 22000",
                "LARYS": "LARYS",
                "SARAY": "SARAY"
            },
            "sub_fixes": [],
            "transitions": []
        },
        {
            "name": "URQU1E",
            "rnw": "07",
            "fixes": {
                "D073M": "D073M",
                "AF009": "AF009",
                "AF010": "AF010",
                "AF011": "AF011",
                "AF012": "AF012",
                "AF013": "AF013",
                "D192O": "D192O",
                "URQUI": "URQUI AT OR ABOVE 10000"
            },
            "sub_fixes": [],
            "transitions": []
        },
        {
            "name": "URQU1F",
            "rnw": "25",
            "fixes": {
                "TFS": "TFS",
                "URQUI": "URQUI AT OR ABOVE 10000"
            },
            "sub_fixes": [],
            "transitions": []
        },
        {
            "name": "VAST7E",
            "rnw": "07",
            "fixes": {
                "D073J": "D073J HDG 120 INTERCEPT RADIAL 090 TO",
                "TENAR": "TENAR AT OR ABOVE 10000",
                "GDV": "OVERFLY GDV AT OR ABOVE 15000",
                "LARYS": "LARYS",
                "SARAY": "SARAY",
                "VASTO": "VASTO"
            },
            "sub_fixes": [],
            "transitions": []
        },
        {
            "name": "VAST8F",
            "rnw": "25",
            "fixes": {
                "TFS": "TFS TURN LEFT DIRECT",
                "MERAN": "MERAN AT OR ABOVE 9000",
                "LPC": "OVERFLY LPC AT OR ABOVE 22000",
                "LARYS": "LARYS",
                "SARAY": "SARAY",
                "VASTO": "VASTO"
            },
            "sub_fixes": [],
            "transitions": []
        }
    ],
    "stars": [
        {
            "name": "HIE2G",
            "runway": "RNW 07 RNW 25",
            "fixes": {
                "HIENB": "HIENB AT OR ABOVE 15000",
                "TFS": "TFS"
            }
        },
        {
            "name": "KONB4G",
            "runway": "RNW 07",
            "fixes": {
                "KONBA": "KONBA",
                "GURKA": "GURKA",
                "BRICK": "BRICK",
                "ARACO": "ARACO",
                "GANTA": "GANTA",
                "BAMEL": "BAMEL",
                "TFS": "TFS"
            }
        },
        {
            "name": "KONB5H",
            "runway": "RNW 25",
            "fixes": {
                "KONBA": "KONBA",
                "GURKA": "GURKA",
                "BRICK": "BRICK",
                "TFN": "TFN",
                "TERFE": "TERFE",
                "TFS": "TFS"
            }
        },
        {
            "name": "LORP1G",
            "runway": "RNW 07",
            "fixes": {
                "LORPO": "LORPO",
                "LPC": "LPC",
                "KONDA": "KONDA",
                "MERAN": "MERAN",
                "TFS": "TFS"
            }
        },
        {
            "name": "LORP2H",
            "runway": "RNW 25",
            "fixes": {
                "LORPO": "LORPO",
                "GDV": "OVERFLY GDV",
                "TERFE": "TERFE",
                "TFS": "TFS"
            }
        },
        {
            "name": "ODEG2G",
            "runway": "RNW 07 RNW 25",
            "fixes": {
                "ODEGI": "ODEGI AT OR ABOVE 11000",
                "TFS": "TFS"
            }
        },
        {
            "name": "ORTI4G",
            "runway": "RNW 07",
            "fixes": {
                "ORTIS": "ORTIS",
                "BRICK": "BRICK",
                "ARACO": "ARACO",
                "GANTA": "GANTA",
                "BAMEL": "BAMEL",
                "TFS": "TFS"
            }
        },
        {
            "name": "ORTI5H",
            "runway": "RNW 25",
            "fixes": {
                "ORTIS": "ORTIS",
                "BRICK": "BRICK",
                "TFN": "TFN",
                "TERFE": "TERFE",
                "TFS": "TFS"
            }
        },
        {
            "name": "REMG2G",
            "runway": "RNW 07 RNW 25",
            "fixes": {
                "REMGI": "REMGI AT OR ABOVE 10000",
                "TFS75": "TFS75",
                "TFS": "TFS"
            }
        },
        {
            "name": "RUSI7G",
            "runway": "RNW 07",
            "fixes": {
                "RUSIK": "RUSIK",
                "LINDE": "LINDE",
                "TENDA": "TENDA",
                "FTV": "FTV",
                "FAYTA": "FAYTA",
                "CANIS": "CANIS",
                "LPC": "LPC",
                "KONDA": "KONDA",
                "MERAN": "MERAN",
                "TFS": "TFS"
            }
        },
        {
            "name": "RUSI9H",
            "runway": "RNW 25",
            "fixes": {
                "RUSIK": "RUSIK",
                "LINDE": "LINDE",
                "TENDA": "TENDA",
                "FTV": "FTV",
                "BETAN": "BETAN",
                "GDV": "OVERFLY GDV",
                "TERFE": "TERFE",
                "TFS": "TFS"
            }
        },
        {
            "name": "TERT7G",
            "runway": "RNW 07",
            "fixes": {
                "TERTO": "TERTO AT OR ABOVE 10000",
                "LZR": "LZR",
                "BETAN": "BETAN",
                "CANIS": "CANIS",
                "LPC": "LPC",
                "KONDA": "KONDA",
                "MERAN": "MERAN",
                "TFS": "TFS"
            }
        },
        {
            "name": "TERT9H",
            "runway": "RNW 25",
            "fixes": {
                "TERTO": "TERTO AT OR ABOVE 10000",
                "LZR": "LZR",
                "BETAN": "BETAN",
                "GDV": "OVERFLY GDV",
                "TERFE": "TERFE",
                "TFS": "TFS"
            }
        },
        {
            "name": "URQU1G",
            "runway": "RNW 07 RNW 25",
            "fixes": {
                "URQUI": "URQUI AT OR ABOVE 10000",
                "TFS": "TFS"
            }
        }
    ],
    "approaches": [
        {
            "name": "VORD07",
            "fixes": {
                "CD07": "CD07 AT OR ABOVE 2600",
                "TFS": "TFS 2100 TFS 7000 SPEED 220 HOLD AT TFS RIGHT TURN INBOUNDCOURSE 074 ALT 7000 SPEED 230 LEGTIME 1 FAF TFS MAP MD07",
                "MD07": "MD07 817 RNW 07 TRK 073 UNTIL 5000 TURN RIGHT DIRECT"
            },
            "transitions": [
                {
                    "name": "BAMEL",
                    "fixes": {
                        "BAMEL": "BAMEL AT OR ABOVE 6000",
                        "AF014": "AF014",
                        "AF015": "AF015",
                        "D264J": "D264J AT OR ABOVE 2600"
                    }
                },
                {
                    "name": "TFS",
                    "fixes": {
                        "TFS": "TFS RIGHT TURN INBOUNDCOURSE 074 ALT 4700 LEGDIST 10"
                    }
                }
            ]
        },
        {
            "name": "VORD25",
            "fixes": {
                "CD25": "CD25 AT OR ABOVE 2600",
                "FD25": "FD25 1600",
                "MD25": "MD25 730 RNW 25",
                "TFS": "TFS TRK 253 UNTIL 5000 TURN LEFT DIRECT TFS AT OR ABOVE 7000 HOLD AT TFS RIGHT TURN INBOUNDCOURSE 073 ALT 7000 SPEED 230 LEGTIME 1 FAF FD25 MAP MD25"
            },
            "transitions": [
                {
                    "name": "TFS1",
                    "fixes": {
                        "TFS": "TFS AT OR ABOVE 7000 TFS SPEED 210",
                        "FD25": "FD25 AT OR ABOVE 3500 TRK 118 UNTIL 15.0 FROM"
                    }
                },
                {
                    "name": "TFS2",
                    "fixes": {
                        "TFS": "TFS AT OR ABOVE 7000 TFS SPEED 210",
                        "FD25": "FD25 AT OR ABOVE 3500",
                        "D073N": "D073N TRK 118 UNTIL 16.0 FROM"
                    }
                }
            ]
        },
        {
            "name": "ILSY07",
            "fixes": {
                "CF07Y": "CF07Y AT OR ABOVE 2500",
                "FI07Y": "FI07Y 2500 RNW 07 TRK 073 UNTIL 5500 TURN RIGHT DIRECT",
                "TESNB": "TESNB 10000 SPEED 220 HOLD AT TESNB LEFT TURN INBOUNDCOURSE 275 ALT 10000 SPEED 210 LEGTIME 1 FAF FI07Y MAP RNW 07"
            },
            "transitions": [
                {
                    "name": "TES1",
                    "fixes": {
                        "TESNB": "TESNB AT OR ABOVE 10000",
                        "D250N": "D250N AT OR ABOVE 3800 TRK 205 UNTIL 4.4 FROM D250N TURN RIGHT DIRECT",
                        "D253O": "D253O AT OR ABOVE 3800"
                    }
                },
                {
                    "name": "TES2",
                    "fixes": {
                        "TESNB": "TESNB AT OR ABOVE 10000",
                        "D250O": "D250O AT OR ABOVE 3800 TRK 205 UNTIL 1.8 FROM D250O TURN RIGHT DIRECT",
                        "D253O": "D253O AT OR ABOVE 3800"
                    }
                }
            ]
        },
        {
            "name": "ILSZ07",
            "fixes": {
                "CF07Z": "CF07Z AT OR ABOVE 2600",
                "FI07Z": "FI07Z 2100 RNW 07 TRK 073 UNTIL 5000 TURN RIGHT DIRECT",
                "TFS": "TFS 7000 SPEED 220 HOLD AT TFS RIGHT TURN INBOUNDCOURSE 073 ALT 7000 SPEED 230 LEGTIME 1 FAF FI07Z MAP RNW 07"
            },
            "transitions": [
                {
                    "name": "BAMEL",
                    "fixes": {
                        "BAMEL": "BAMEL AT OR ABOVE 6000",
                        "AF014": "AF014",
                        "AF015": "AF015",
                        "D264J": "D264J AT OR ABOVE 2600"
                    }
                }
            ]
        },
        {
            "name": "ILSY25",
            "fixes": {
                "CF25Y": "CF25Y AT OR ABOVE 2600",
                "FI25Y": "FI25Y 1860 RNW 25 TRK 253 UNTIL 610",
                "TFS": "TFS TRK 253 UNTIL 5000 TURN LEFT DIRECT TFS 7000 HOLD AT TFS RIGHT TURN INBOUNDCOURSE 073 ALT 7000 SPEED 230 LEGTIME 1 FAF FI25Y MAP RNW 25"
            },
            "transitions": [
                {
                    "name": "TFS1",
                    "fixes": {
                        "TFS": "TFS AT OR ABOVE 7000 TFS SPEED 210",
                        "D073M": "D073M AT OR ABOVE 3300 TRK 118 UNTIL 18.0 FROM"
                    }
                },
                {
                    "name": "TFS2",
                    "fixes": {
                        "TFS": "TFS AT OR ABOVE 7000 TFS SPEED 210",
                        "D073M": "D073M AT OR ABOVE 3300",
                        "D073P": "D073P TRK 118 UNTIL 19.0 FROM"
                    }
                }
            ]
        },
        {
            "name": "ILSZ25",
            "fixes": {
                "CF25Z": "CF25Z AT OR ABOVE 2800",
                "FI25Z": "FI25Z 2800 RNW 25 TRK 253 UNTIL 4000 TURN LEFT DIRECT",
                "TESNB": "TESNB 6100 HOLD AT TESNB RIGHT TURN INBOUNDCOURSE 076 ALT 6100 SPEED 210 LEGTIME 1 FAF FI25Z MAP RNW 25"
            },
            "transitions": [
                {
                    "name": "TES1",
                    "fixes": {
                        "TESNB": "TESNB AT OR ABOVE 6100 SPEED 210 TRK 090 UNTIL 10.5 FROM TESNB"
                    }
                },
                {
                    "name": "TES2",
                    "fixes": {
                        "TESNB": "TESNB AT OR ABOVE 6100 SPEED 140 TRK 082 UNTIL 9.3 FROM TESNB"
                    }
                }
            ]
        },
        {
            "name": "LOCY07",
            "fixes": {
                "CF07Y": "CF07Y AT OR ABOVE 2500",
                "FF07Y": "FF07Y 2500",
                "ML07": "ML07 404 RNW 07 TRK 073 UNTIL 5500 TURN RIGHT DIRECT",
                "TESNB": "TESNB 10000 SPEED 220 HOLD AT TESNB LEFT TURN INBOUNDCOURSE 275 ALT 10000 SPEED 210 LEGTIME 1 FAF FF07Y MAP ML07"
            },
            "transitions": [
                {
                    "name": "TES1",
                    "fixes": {
                        "TESNB": "TESNB AT OR ABOVE 10000",
                        "D250N": "D250N AT OR ABOVE 3800 TRK 205 UNTIL 4.4 FROM D250N TURN RIGHT DIRECT",
                        "D253O": "D253O AT OR ABOVE 3800"
                    }
                },
                {
                    "name": "TES2",
                    "fixes": {
                        "TESNB": "TESNB AT OR ABOVE 10000",
                        "D250O": "D250O AT OR ABOVE 3800 TRK 205 UNTIL 1.8 FROM D250O TURN RIGHT DIRECT",
                        "D253O": "D253O AT OR ABOVE 3800"
                    }
                }
            ]
        },
        {
            "name": "LOCZ07",
            "fixes": {
                "CF07Z": "CF07Z AT OR ABOVE 2600",
                "FF07Z": "FF07Z 1800",
                "ML07": "ML07 400 RNW 07 TRK 073 UNTIL 5000 TURN RIGHT DIRECT",
                "TFS": "TFS 7000 SPEED 220 HOLD AT TFS RIGHT TURN INBOUNDCOURSE 073 ALT 7000 SPEED 230 LEGTIME 1 FAF FF07Z MAP ML07"
            },
            "transitions": [
                {
                    "name": "BAMEL",
                    "fixes": {
                        "BAMEL": "BAMEL AT OR ABOVE 6000",
                        "AF016": "AF016",
                        "AF017": "AF017",
                        "AF018": "AF018",
                        "D253K": "D253K AT OR ABOVE 2600"
                    }
                }
            ]
        },
        {
            "name": "LOCY25",
            "fixes": {
                "CF25Y": "CF25Y AT OR ABOVE 2600",
                "FF25Y": "FF25Y 1860",
                "ML25": "ML25 591 RNW 25 TRK 253 UNTIL 610",
                "TFS": "TFS TRK 253 UNTIL 5000 TURN LEFT DIRECT TFS 7000 HOLD AT TFS RIGHT TURN INBOUNDCOURSE 073 ALT 7000 SPEED 230 LEGTIME 1 FAF FF25Y MAP ML25"
            },
            "transitions": [
                {
                    "name": "TFS1",
                    "fixes": {
                        "TFS": "TFS AT OR ABOVE 7000 TFS SPEED 210",
                        "D073M": "D073M AT OR ABOVE 3300 TRK 118 UNTIL 18.0 FROM"
                    }
                },
                {
                    "name": "TFS2",
                    "fixes": {
                        "TFS": "TFS AT OR ABOVE 7000 TFS SPEED 210",
                        "D073M": "D073M AT OR ABOVE 3300",
                        "D073P": "D073P TRK 118 UNTIL 19.0 FROM"
                    }
                }
            ]
        },
        {
            "name": "LOCZ25",
            "fixes": {
                "CF25Z": "CF25Z AT OR ABOVE 2800",
                "FF25Z": "FF25Z 2800",
                "ML25": "ML25 585 RNW 25 TRK 253 UNTIL 4000 TURN LEFT DIRECT",
                "TESNB": "TESNB 6100 HOLD AT TESNB RIGHT TURN INBOUNDCOURSE 076 ALT 6100 SPEED 210 LEGTIME 1 FAF FF25Z MAP ML25"
            },
            "transitions": [
                {
                    "name": "TES1",
                    "fixes": {
                        "TESNB": "TESNB AT OR ABOVE 6100 SPEED 210 TRK 090 UNTIL 10.5 FROM TESNB"
                    }
                },
                {
                    "name": "TES2",
                    "fixes": {
                        "TESNB": "TESNB AT OR ABOVE 6100 SPEED 140 TRK 082 UNTIL 9.3 FROM TESNB"
                    }
                }
            ]
        },
        {
            "name": "NDB07",
            "fixes": {
                "FN07": "FN07 2700 RNW 07",
                "TESNB": "TESNB AT OR ABOVE 610 TRK 065 UNTIL 4000 TURN RIGHT DIRECT TESNB 6000 HOLD AT TESNB LEFT TURN INBOUNDCOURSE 275 ALT 6000 SPEED 210 LEGTIME 1 FAF FN07 MAP RNW 07"
            },
            "transitions": [
                {
                    "name": "TES1",
                    "fixes": {
                        "TESNB": "TESNB AT OR ABOVE 6000 SPEED 210 TRK 228 UNTIL 10.5 FROM TESNB"
                    }
                },
                {
                    "name": "TES2",
                    "fixes": {
                        "TESNB": "TESNB AT OR ABOVE 6000 SPEED 140 TRK 237 UNTIL 10.5 FROM TESNB"
                    }
                }
            ]
        },
        {
            "name": "NDBDB07",
            "fixes": {
                "FN275": "FN275 3300",
                "TESNB": "TESNB 1880 RNW 07 HDG 200 INTERCEPT RADIAL 230 TO TESNB SPEED 185 TRK 230 UNTIL 6000 TURN RIGHT DIRECT TESNB AT OR ABOVE 6000 SPEED 185 HOLD AT TESNB RIGHT TURN INBOUNDCOURSE 065 ALT 6000 SPEED 210 LEGTIME 1 FAF FN275 MAP TES"
            },
            "transitions": [
                {
                    "name": "TES",
                    "fixes": {
                        "TESNB": "TESNB AT OR ABOVE 6000",
                        "FN275": "FN275 AT OR ABOVE 3300 TRK 140 UNTIL 4.4 FROM FN275"
                    }
                }
            ]
        },
        {
            "name": "NDBDB25",
            "fixes": {
                "FN275": "FN275 3300",
                "TESNB": "TESNB 1880 RNW 25 HDG 200 INTERCEPT RADIAL 230 TO TESNB SPEED 185 TRK 230 UNTIL 6000 TURN RIGHT DIRECT TESNB AT OR ABOVE 6000 SPEED 185 HOLD AT TESNB RIGHT TURN INBOUNDCOURSE 065 ALT 6000 SPEED 210 LEGTIME 1 FAF FN275 MAP TES"
            },
            "transitions": [
                {
                    "name": "TES",
                    "fixes": {
                        "TESNB": "TESNB AT OR ABOVE 6000",
                        "FN275": "FN275 AT OR ABOVE 3300 TRK 140 UNTIL 4.4 FROM FN275"
                    }
                }
            ]
        }
    ]
}