{
    "fixes": [
        {
            "name": "AF001",
            "lat": 28.462260483333335,
            "lon": 16.01124748333333
        },
        {
            "name": "AF002",
            "lat": 28.564691816666667,
            "lon": 16.0224007
        },
        {
            "name": "AF003",
            "lat": 28.657775016666665,
            "lon": 16.072361983333334
        },
        {
            "name": "AF004",
            "lat": 28.425552466666666,
            "lon": 16.017079433333333
        },
        {
            "name": "AF005",
            "lat": 28.491471366666666,
            "lon": 16.01030715
        },
        {
            "name": "AF006",
            "lat": 28.466177683333335,
            "lon": 16.010932983333333
        },
        {
            "name": "AF007",
            "lat": 28.551996833333334,
            "lon": 16.018772383333335
        },
        {
            "name": "AF008",
            "lat": 28.632319933333335,
            "lon": 16.054070233333334
        },
        {
            "name": "AF009",
            "lat": 28.754087866666666,
            "lon": 16.200653516666666
        },
        {
            "name": "AF010",
            "lat": 28.781740166666665,
            "lon": 16.301947633333334
        },
        {
            "name": "AF011",
            "lat": 28.780790666666668,
            "lon": 16.40804826666667
        },
        {
            "name": "AF012",
            "lat": 28.751331416666666,
            "lon": 16.508675483333334
        },
        {
            "name": "AF013",
            "lat": 28.6962155,
            "lon": 16.5940923
        },
        {
            "name": "AF014",
            "lat": 28.711718066666666,
            "lon": 16.575212516666667
        },
        {
            "name": "AF015",
            "lat": 28.778701333333334,
            "lon": 16.420769483333334
        },
        {
            "name": "AF016",
            "lat": 28.770993,
            "lon": 16.248639216666668
        },
        {
            "name": "AF017",
            "lat": 28.69056275,
            "lon": 16.102803283333333
        },
        {
            "name": "AF018",
            "lat": 28.557938433333334,
            "lon": 16.020387
        },
        {
            "name": "ARACO",
            "lat": 28.432527783333335,
            "lon": 17.452333333333332
        },
        {
            "name": "ARTEM",
            "lat": 28.409027783333332,
            "lon": 16.034138883333334
        },
        {
            "name": "BASUX",
            "lat": 28.621277783333333,
            "lon": 16.758527783333335
        },
        {
            "name": "BETAN",
            "lat": 28.41025,
            "lon": 14.251888883333333
        },
        {
            "name": "BIMBO",
            "lat": 31.421444433333335,
            "lon": 16.03288888333333
        },
        {
            "name": "BRICK",
            "lat": 29.59136111666667,
            "lon": 16.372888883333335
        },
        {
            "name": "CANDE",
            "lat": 28.323583333333332,
            "lon": 15.88475
        },
        {
            "name": "CD116",
            "lat": 28.546583333333334,
            "lon": 16.533861116666667
        },
        {
            "name": "CF12",
            "lat": 28.552222216666667,
            "lon": 16.551805566666665
        },
        {
            "name": "CF30",
            "lat": 28.402277783333332,
            "lon": 16.100138883333333
        },
        {
            "name": "D040R",
            "lat": 28.731166666666667,
            "lon": 16.155825
        },
        {
            "name": "D049R",
            "lat": 28.70108056666667,
            "lon": 16.114572216666666
        },
        {
            "name": "D081R",
            "lat": 28.557283333333334,
            "lon": 16.020988883333334
        },
        {
            "name": "D110R",
            "lat": 28.406666666666666,
            "lon": 16.022944433333333
        },
        {
            "name": "D115L",
            "lat": 28.468080566666668,
            "lon": 16.05553056666667
        },
        {
            "name": "D115N",
            "lat": 28.402083333333334,
            "lon": 16.099972216666668
        },
        {
            "name": "D115P",
            "lat": 28.393169433333334,
            "lon": 16.067425
        },
        {
            "name": "D116S",
            "lat": 28.370716666666667,
            "lon": 16.016416666666668
        },
        {
            "name": "D127L",
            "lat": 28.430430566666665,
            "lon": 16.076394433333334
        },
        {
            "name": "D127V",
            "lat": 28.339302783333334,
            "lon": 15.912322216666666
        },
        {
            "name": "D292E",
            "lat": 28.561230566666666,
            "lon": 16.359277783333333
        },
        {
            "name": "D295N",
            "lat": 28.616619433333334,
            "lon": 16.517913883333332
        },
        {
            "name": "D295P",
            "lat": 28.576063883333333,
            "lon": 16.636172216666665
        },
        {
            "name": "D302R",
            "lat": 28.621133333333333,
            "lon": 16.655288883333334
        },
        {
            "name": "D320F",
            "lat": 28.151361116666667,
            "lon": 15.512833333333333
        },
        {
            "name": "FD116",
            "lat": 28.51575,
            "lon": 16.442638883333334
        },
        {
            "name": "FD30",
            "lat": 28.444138883333334,
            "lon": 16.227472216666666
        },
        {
            "name": "FF12",
            "lat": 28.522472216666667,
            "lon": 16.461777783333332
        },
        {
            "name": "FF30",
            "lat": 28.451805566666668,
            "lon": 16.248694433333334
        },
        {
            "name": "FI12",
            "lat": 28.521944433333335,
            "lon": 16.460166666666666
        },
        {
            "name": "FI30",
            "lat": 28.437083333333334,
            "lon": 16.204472216666666
        },
        {
            "name": "FPNB",
            "lat": 28.491888883333335,
            "lon": 16.369333333333334
        },
        {
            "name": "FTV",
            "lat": 28.430777783333333,
            "lon": 13.8645
        },
        {
            "name": "GANTA",
            "lat": 28.274861116666667,
            "lon": 17.170527783333334
        },
        {
            "name": "GDV",
            "lat": 28.077083333333334,
            "lon": 15.429
        },
        {
            "name": "GURKA",
            "lat": 30.434,
            "lon": 15.85025
        },
        {
            "name": "HIENB",
            "lat": 27.816166666666668,
            "lon": 17.886388883333332
        },
        {
            "name": "KASAS",
            "lat": 29.986416666666667,
            "lon": 15.768722216666667
        },
        {
            "name": "KONBA",
            "lat": 31.300833333333333,
            "lon": 15.301666666666666
        },
        {
            "name": "KORAL",
            "lat": 29.731416666666668,
            "lon": 12.578333333333333
        },
        {
            "name": "LARYS",
            "lat": 28.871833333333335,
            "lon": 14.834277783333333
        },
        {
            "name": "LPC",
            "lat": 27.82852778333333,
            "lon": 15.43225
        },
        {
            "name": "LRO",
            "lat": 28.484916666666667,
            "lon": 16.351555566666665
        },
        {
            "name": "LZR",
            "lat": 29.166,
            "lon": 13.510694433333333
        },
        {
            "name": "MD116",
            "lat": 28.490888883333334,
            "lon": 16.369194433333334
        },
        {
            "name": "MD30",
            "lat": 28.470361116666666,
            "lon": 16.307222216666666
        },
        {
            "name": "ML30",
            "lat": 28.471833333333333,
            "lon": 16.308888883333335
        },
        {
            "name": "MOROD",
            "lat": 28.454611116666666,
            "lon": 17.210972216666665
        },
        {
            "name": "NERVO",
            "lat": 29.338583333333332,
            "lon": 15.652
        },
        {
            "name": "ORTIS",
            "lat": 31.406944433333333,
            "lon": 16.556916666666666
        },
        {
            "name": "RUSIK",
            "lat": 28.906111116666665,
            "lon": 12.816388883333333
        },
        {
            "name": "RW12",
            "lat": 28.487755566666667,
            "lon": 16.356908333333333
        },
        {
            "name": "SAMAR",
            "lat": 30.899722216666667,
            "lon": 14.415555566666667
        },
        {
            "name": "SARAY",
            "lat": 29.758638883333333,
            "lon": 14.157416666666666
        },
        {
            "name": "TERFE",
            "lat": 28.190416666666668,
            "lon": 16.129472216666667
        },
        {
            "name": "TERTO",
            "lat": 30.104166666666668,
            "lon": 12.717222216666666
        },
        {
            "name": "TESEL",
            "lat": 28.488277783333334,
            "lon": 16.83325
        },
        {
            "name": "TFN",
            "lat": 28.536833333333334,
            "lon": 16.268777783333334
        },
        {
            "name": "TFS",
            "lat": 28.002444433333334,
            "lon": 16.687916666666666
        },
        {
            "name": "VASTO",
            "lat": 30.509444433333332,
            "lon": 13.572777783333333
        }
    ],
    "rnws": [
        "RNW 12",
        "RNW 30"
    ],
    "sids": [
        {
            "name": "ARAC1J",
            "rnw": "30",
            "fixes": {
                "TFN": "TFN",
                "TESEL": "TESEL 7000",
                "ARACO": "ARACO"
            },
            "sub_fixes": [],
            "transitions": []
        },
        {
            "name": "ARAC3K",
            "rnw": "12",
            "fixes": {
                "LRO": "LRO TURN LEFT HDG 008 INTERCEPT RADIAL 278 TO",
                "TFN": "TFN",
                "TESEL": "TESEL 7000",
                "ARACO": "ARACO"
            },
            "sub_fixes": [],
            "transitions": []
        },
        {
            "name": "BIMB5J",
            "rnw": "30",
            "fixes": {
                "TFN": "TFN TURN LEFT DIRECT",
                "KASAS": "KASAS",
                "BIMBO": "BIMBO AT OR ABOVE 10000"
            },
            "sub_fixes": [],
            "transitions": []
        },
        {
            "name": "BIMB6K",
            "rnw": "12",
            "fixes": {
                "LRO": "LRO",
                "AF001": "AF001",
                "AF002": "AF002",
                "AF003": "AF003",
                "D040R": "D040R",
                "KASAS": "KASAS",
                "BIMBO": "BIMBO AT OR ABOVE 10000"
            },
            "sub_fixes": [],
            "transitions": []
        },
        {
            "name": "GDV3J",
            "rnw": "30",
            "fixes": {
                "TFN": "TFN",
                "ARTEM": "ARTEM",
                "GDV": "OVERFLY GDV"
            },
            "sub_fixes": [],
            "transitions": []
        },
        {
            "name": "GDV3K",
            "rnw": "12",
            "fixes": {
                "D320F": "D320F",
                "GDV": "OVERFLY GDV"
            },
            "sub_fixes": [],
            "transitions": []
        },
        {
            "name": "HIE3J",
            "rnw": "30",
            "fixes": {
                "TFN": "TFN",
                "TESEL": "TESEL 7000",
                "GANTA": "GANTA",
                "HIENB": "HIENB"
            },
            "sub_fixes": [],
            "transitions": []
        },
        {
            "name": "HIE5K",
            "rnw": "12",
            "fixes": {
                "LRO": "LRO TURN LEFT HDG 008 INTERCEPT RADIAL 278 TO",
                "TFN": "TFN",
                "TESEL": "TESEL 7000",
                "GANTA": "GANTA",
                "HIENB": "HIENB"
            },
            "sub_fixes": [],
            "transitions": []
        },
        {
            "name": "KONB4J",
            "rnw": "30",
            "fixes": {
                "TFN": "TFN TURN LEFT DIRECT",
                "KASAS": "KASAS",
                "KONBA": "KONBA"
            },
            "sub_fixes": [],
            "transitions": []
        },
        {
            "name": "KONB5K",
            "rnw": "12",
            "fixes": {
                "LRO": "LRO",
                "AF001": "AF001",
                "AF002": "AF002",
                "AF003": "AF003",
                "D040R": "D040R",
                "KASAS": "KASAS",
                "KONBA": "KONBA"
            },
            "sub_fixes": [],
            "transitions": []
        },
        {
            "name": "KORA6J",
            "rnw": "30",
            "fixes": {
                "TFN": "TFN",
                "LARYS": "LARYS AT OR ABOVE 17000",
                "LZR": "LZR",
                "KORAL": "KORAL"
            },
            "sub_fixes": [],
            "transitions": []
        },
        {
            "name": "KORA7K",
            "rnw": "12",
            "fixes": {
                "LRO": "LRO",
                "AF004": "AF004",
                "AF005": "AF005",
                "D081R": "D081R",
                "LARYS": "LARYS AT OR ABOVE 17000",
                "LZR": "LZR",
                "KORAL": "KORAL"
            },
            "sub_fixes": [],
            "transitions": []
        },
        {
            "name": "LARY1J",
            "rnw": "30",
            "fixes": {
                "TFN": "TFN",
                "LARYS": "LARYS AT OR ABOVE 13000"
            },
            "sub_fixes": [],
            "transitions": []
        },
        {
            "name": "LARY1K",
            "rnw": "12",
            "fixes": {
                "LRO": "LRO",
                "AF004": "AF004",
                "AF005": "AF005",
                "D081R": "D081R",
                "LARYS": "LARYS AT OR ABOVE 13000"
            },
            "sub_fixes": [],
            "transitions": []
        },
        {
            "name": "LPC5J",
            "rnw": "30",
            "fixes": {
                "TFN": "TFN",
                "ARTEM": "ARTEM",
                "GDV": "OVERFLY GDV",
                "LPC": "LPC"
            },
            "sub_fixes": [],
            "transitions": []
        },
        {
            "name": "LPC6K",
            "rnw": "12",
            "fixes": {
                "D320F": "D320F",
                "GDV": "OVERFLY GDV",
                "LPC": "LPC"
            },
            "sub_fixes": [],
            "transitions": []
        },
        {
            "name": "SAMA5J",
            "rnw": "30",
            "fixes": {
                "TFN": "TFN TURN LEFT DIRECT",
                "KASAS": "KASAS",
                "SAMAR": "SAMAR"
            },
            "sub_fixes": [],
            "transitions": []
        },
        {
            "name": "SAMA6K",
            "rnw": "12",
            "fixes": {
                "LRO": "LRO",
                "AF001": "AF001",
                "AF002": "AF002",
                "AF003": "AF003",
                "D040R": "D040R",
                "KASAS": "KASAS",
                "SAMAR": "SAMAR"
            },
            "sub_fixes": [],
            "transitions": []
        },
        {
            "name": "SARA1J",
            "rnw": "30",
            "fixes": {
                "TFN": "TFN",
                "LARYS": "LARYS AT OR ABOVE 13000",
                "SARAY": "SARAY"
            },
            "sub_fixes": [],
            "transitions": []
        },
        {
            "name": "SARA1K",
            "rnw": "12",
            "fixes": {
                "LRO": "LRO",
                "AF004": "AF004",
                "AF005": "AF005",
                "D081R": "D081R",
                "LARYS": "LARYS AT OR ABOVE 13000",
                "SARAY": "SARAY"
            },
            "sub_fixes": [],
            "transitions": []
        },
        {
            "name": "TFS2C",
            "rnw": "12",
            "fixes": {
                "LRO": "LRO HDG 194 INTERCEPT RADIAL 253 TO",
                "TERFE": "TERFE",
                "TFS": "TFS"
            },
            "sub_fixes": [],
            "transitions": []
        },
        {
            "name": "TFS2D",
            "rnw": "30",
            "fixes": {
                "TFN": "TFN",
                "ARTEM": "ARTEM HDG 194 INTERCEPT RADIAL 253 TO",
                "TERFE": "TERFE",
                "TFS": "TFS"
            },
            "sub_fixes": [],
            "transitions": []
        },
        {
            "name": "TFS2J",
            "rnw": "30",
            "fixes": {
                "TFN": "TFN",
                "TESEL": "TESEL",
                "GANTA": "GANTA",
                "TFS": "TFS AT OR ABOVE 10000"
            },
            "sub_fixes": [],
            "transitions": []
        },
        {
            "name": "TFS2K",
            "rnw": "12",
            "fixes": {
                "LRO": "LRO TURN LEFT HDG 008 INTERCEPT RADIAL 278 TO",
                "TFN": "TFN",
                "TESEL": "TESEL 7000",
                "GANTA": "GANTA",
                "TFS": "TFS AT OR ABOVE 10000"
            },
            "sub_fixes": [],
            "transitions": []
        },
        {
            "name": "VAST4J",
            "rnw": "30",
            "fixes": {
                "TFN": "TFN",
                "LARYS": "LARYS AT OR ABOVE 13000",
                "SARAY": "SARAY",
                "VASTO": "VASTO"
            },
            "sub_fixes": [],
            "transitions": []
        },
        {
            "name": "VAST5K",
            "rnw": "12",
            "fixes": {
                "LRO": "LRO",
                "AF004": "AF004",
                "AF005": "AF005",
                "D081R": "D081R",
                "LARYS": "LARYS AT OR ABOVE 13000",
                "SARAY": "SARAY",
                "VASTO": "VASTO"
            },
            "sub_fixes": [],
            "transitions": []
        }
    ],
    "stars": [
        {
            "name": "HIE2L",
            "runway": "RNW 12 RNW 30",
            "fixes": {
                "HIENB": "HIENB AT OR ABOVE 15000",
                "MOROD": "MOROD",
                "TESEL": "TESEL",
                "TFN": "TFN"
            }
        },
        {
            "name": "KONB1L",
            "runway": "RNW 12 RNW 30",
            "fixes": {
                "KONBA": "KONBA",
                "GURKA": "GURKA",
                "BRICK": "BRICK",
                "TFN": "TFN"
            }
        },
        {
            "name": "LARY1L",
            "runway": "RNW 12 RNW 30",
            "fixes": {
                "LARYS": "LARYS",
                "TFN": "TFN"
            }
        },
        {
            "name": "ORTI1L",
            "runway": "RNW 12 RNW 30",
            "fixes": {
                "ORTIS": "ORTIS",
                "BRICK": "BRICK",
                "TFN": "TFN"
            }
        },
        {
            "name": "RUSI1M",
            "runway": "RNW 12 RNW 30",
            "fixes": {
                "RUSIK": "RUSIK",
                "LARYS": "LARYS",
                "TFN": "TFN"
            }
        },
        {
            "name": "RUSI3L",
            "runway": "RNW 12 RNW 30",
            "fixes": {
                "RUSIK": "RUSIK",
                "FTV": "FTV",
                "BETAN": "BETAN",
                "GDV": "OVERFLY GDV SPEED 240",
                "CANDE": "CANDE",
                "TFN": "TFN"
            }
        },
        {
            "name": "SAMA1L",
            "runway": "RNW 12 RNW 30",
            "fixes": {
                "SAMAR": "SAMAR",
                "NERVO": "NERVO",
                "TFN": "TFN"
            }
        },
        {
            "name": "TERT4L",
            "runway": "RNW 12 RNW 30",
            "fixes": {
                "TERTO": "TERTO AT OR ABOVE 10000",
                "LZR": "LZR",
                "LARYS": "LARYS",
                "TFN": "TFN"
            }
        }
    ],
    "approaches": [
        {
            "name": "VORD30",
            "fixes": {
                "FD30": "FD30 3800",
                "MD30": "MD30 2418 RNW 30",
                "LRO": "LRO TRK 295 UNTIL 4500 TURN RIGHT DIRECT",
                "TFN": "TFN 6000 HOLD AT TFN LEFT TURN INBOUNDCOURSE 176 ALT 6000 SPEED 210 LEGTIME 1 FAF FD30 MAP MD30"
            },
            "transitions": [
                {
                    "name": "CANDE",
                    "fixes": {
                        "CANDE": "CANDE AT OR ABOVE 7000 TRK 307 INTERCEPT RADIAL 295 TO",
                        "D115N": "D115N D115N AT OR ABOVE 4600 SPEED 185"
                    }
                },
                {
                    "name": "TFN",
                    "fixes": {
                        "TFN": "TFN AT OR ABOVE 6000",
                        "D115L": "D115L AT OR ABOVE 4600 SPEED 250",
                        "D127L": "D127L SPEED 185",
                        "D115N": "D115N AT OR ABOVE 4600"
                    }
                }
            ]
        },
        {
            "name": "ILSY12",
            "fixes": {
                "CF12": "CF12 AT OR ABOVE 4000",
                "FI12": "FI12 4000 RNW 12 TRK 115 UNTIL 2480",
                "D115P": "OVERFLY D115P",
                "AF006": "AF006",
                "AF007": "AF007",
                "AF008": "AF008",
                "D049R": "D049R AT OR ABOVE 6000",
                "AF009": "AF009",
                "AF010": "AF010",
                "AF011": "AF011",
                "AF012": "AF012",
                "AF013": "AF013",
                "D302R": "D302R",
                "BASUX": "BASUX 6000 HOLD AT BASUX LEFT TURN INBOUNDCOURSE 115 ALT 6000 LEGTIME 1 FAF FI12 MAP RNW 12"
            },
            "transitions": [
                {
                    "name": "BASUX",
                    "fixes": {
                        "BASUX": "BASUX AT OR ABOVE 6000 TRK 115 UNTIL 7.7 FROM BASUX"
                    }
                }
            ]
        },
        {
            "name": "ILSZ12",
            "fixes": {
                "CF12": "CF12 AT OR ABOVE 4000",
                "FI12": "FI12 4000 RNW 12 TRK 115 UNTIL 6000 TURN LEFT DIRECT",
                "TFN": "TFN 6000 HOLD AT TFN LEFT TURN INBOUNDCOURSE 176 ALT 6000 SPEED 210 LEGTIME 1 FAF FI12 MAP RNW 12"
            },
            "transitions": [
                {
                    "name": "BASUX",
                    "fixes": {
                        "BASUX": "BASUX AT OR ABOVE 6000 TRK 115 UNTIL 7.7 FROM BASUX"
                    }
                },
                {
                    "name": "TFN",
                    "fixes": {
                        "TFN": "TFN AT OR ABOVE 6000 TFN",
                        "D292E": "D292E AT OR ABOVE 5200 TRK 292 UNTIL 16.0 FROM"
                    }
                }
            ]
        },
        {
            "name": "ILSY30",
            "fixes": {
                "CF30": "CF30 AT OR ABOVE 5000",
                "FI30": "FI30 4300 RNW 30 TRK 295 UNTIL 2480",
                "D295P": "D295P",
                "AF014": "AF014",
                "AF015": "AF015",
                "AF016": "AF016",
                "AF017": "AF017",
                "AF018": "AF018",
                "D110R": "D110R",
                "CANDE": "CANDE 7000 HOLD AT CANDE RIGHT TURN INBOUNDCOURSE 296 ALT 7000 LEGDIST 4 FAF FI30 MAP RNW 30"
            },
            "transitions": [
                {
                    "name": "CANDE",
                    "fixes": {
                        "CANDE": "CANDE AT OR ABOVE 7000",
                        "D116S": "D116S AT OR ABOVE 5000"
                    }
                }
            ]
        },
        {
            "name": "ILSZ30",
            "fixes": {
                "CF30": "CF30 AT OR ABOVE 5000",
                "FI30": "FI30 4300 RNW 30",
                "FPNB": "FPNB TRK 295 UNTIL 5500 TURN RIGHT DIRECT",
                "TFN": "TFN 6000 HOLD AT TFN LEFT TURN INBOUNDCOURSE 176 ALT 6000 SPEED 210 LEGTIME 1 FAF FI30 MAP RNW 30"
            },
            "transitions": [
                {
                    "name": "CANDE",
                    "fixes": {
                        "CANDE": "CANDE AT OR ABOVE 7000",
                        "D127V": "D127V TRK 295 UNTIL 6.6 FROM D127V"
                    }
                },
                {
                    "name": "TFN",
                    "fixes": {
                        "TFN": "TFN AT OR ABOVE 6000",
                        "D115L": "D115L AT OR ABOVE 5000 SPEED 230",
                        "D127L": "D127L AT OR ABOVE 5000 SPEED 185"
                    }
                }
            ]
        },
        {
            "name": "LOC12",
            "fixes": {
                "CF12": "CF12 AT OR ABOVE 4000",
                "FF12": "FF12 4000",
                "FPNB": "FPNB 2344 RNW 12 TRK 115 UNTIL 6000 TURN LEFT DIRECT",
                "TFN": "TFN 6000 HOLD AT TFN LEFT TURN INBOUNDCOURSE 176 ALT 6000 SPEED 210 LEGTIME 1 FAF FF12 MAP FP"
            },
            "transitions": [
                {
                    "name": "BASUX",
                    "fixes": {
                        "BASUX": "BASUX AT OR ABOVE 6000 TRK 115 UNTIL 7.7 FROM BASUX"
                    }
                },
                {
                    "name": "TFN",
                    "fixes": {
                        "TFN": "TFN AT OR ABOVE 6000 TFN",
                        "D292E": "D292E AT OR ABOVE 5200 TRK 292 UNTIL 16.0 FROM"
                    }
                }
            ]
        },
        {
            "name": "LOC30",
            "fixes": {
                "CF30": "CF30 AT OR ABOVE 5000",
                "FF30": "FF30 3400",
                "ML30": "ML30 2379 RNW 30",
                "FPNB": "FPNB TRK 295 UNTIL 5500 TURN RIGHT DIRECT",
                "TFN": "TFN 6000 HOLD AT TFN LEFT TURN INBOUNDCOURSE 176 ALT 6000 SPEED 210 LEGTIME 1 FAF FF30 MAP ML30"
            },
            "transitions": [
                {
                    "name": "CANDE",
                    "fixes": {
                        "CANDE": "CANDE AT OR ABOVE 7000",
                        "D127V": "D127V TRK 295 UNTIL 6.6 FROM D127V"
                    }
                },
                {
                    "name": "TFN",
                    "fixes": {
                        "TFN": "TFN AT OR ABOVE 6000",
                        "D115L": "D115L AT OR ABOVE 5000 SPEED 230",
                        "D127L": "D127L AT OR ABOVE 5000 SPEED 185"
                    }
                }
            ]
        },
        {
            "name": "RNAVR12",
            "fixes": {
                "CD116": "CD116 AT OR ABOVE 5200",
                "FD116": "FD116 4300",
                "MD116": "MD116 3850 RNW 12 TRK 116 UNTIL 6000 TURN LEFT DIRECT",
                "TFN": "TFN 6000 HOLD AT TFN LEFT TURN INBOUNDCOURSE 176 ALT 6000 SPEED 210 LEGTIME 1 FAF FD116 MAP MD116"
            },
            "transitions": [
                {
                    "name": "TFN",
                    "fixes": {
                        "TFN": "TFN AT OR ABOVE 6000",
                        "D295N": "OVERFLY D295N AT OR ABOVE 5200 SPEED 230"
                    }
                }
            ]
        },
        {
            "name": "RNAVR30",
            "fixes": {
                "CD116": "CD116 AT OR ABOVE 5200",
                "FD116": "FD116 4300",
                "MD116": "MD116 3850 RNW 30 TRK 116 UNTIL 6000 TURN LEFT DIRECT",
                "TFN": "TFN 6000 HOLD AT TFN LEFT TURN INBOUNDCOURSE 176 ALT 6000 SPEED 210 LEGTIME 1 FAF FD116 MAP MD116"
            },
            "transitions": [
                {
                    "name": "TFN",
                    "fixes": {
                        "TFN": "TFN AT OR ABOVE 6000",
                        "D295N": "OVERFLY D295N AT OR ABOVE 5200 SPEED 230"
                    }
                }
            ]
        }
    ]
}