{
    "fixes": [
        {
            "name": "CIMTA",
            "lat": 35.13465,
            "lon": 83.36866111666667
        },
        {
            "name": "DILLA",
            "lat": 34.980755566666666,
            "lon": 83.17165278333333
        },
        {
            "name": "FAXIV",
            "lat": 35.08125833333333,
            "lon": 83.29058888333333
        },
        {
            "name": "HAKIV",
            "lat": 35.00170833333333,
            "lon": 83.37109443333334
        },
        {
            "name": "HRS",
            "lat": 34.94299721666667,
            "lon": 83.915675
        },
        {
            "name": "JAGEV",
            "lat": 35.031225,
            "lon": 83.34124721666667
        },
        {
            "name": "LENPY",
            "lat": 35.027816666666666,
            "lon": 83.21261943333333
        },
        {
            "name": "ODF",
            "lat": 34.695872216666665,
            "lon": 83.29766111666666
        }
    ],
    "rnws": [
        "RNW 05",
        "RNW 23"
    ],
    "sids": [],
    "stars": [],
    "approaches": [
        {
            "name": "RNAV23",
            "fixes": {
                "FAXIV": "FAXIV AT OR ABOVE 7000",
                "JAGEV": "JAGEV AT OR ABOVE 5800",
                "HAKIV": "HAKIV 5100 RNW 23 TRK 225 UNTIL 3124 TURN LEFT DIRECT",
                "DILLA": "OVERFLY DILLA AT OR ABOVE 8000 HOLD AT DILLA RIGHT TURN INBOUNDCOURSE 272 LEGDIST 7 FAF HAKIV MAP RNW 23"
            },
            "transitions": [
                {
                    "name": "DILLA",
                    "fixes": {
                        "DILLA": "DILLA",
                        "LENPY": "LENPY AT OR ABOVE 7000"
                    }
                },
                {
                    "name": "HRS",
                    "fixes": {
                        "HRS": "HRS",
                        "CIMTA": "CIMTA AT OR ABOVE 7700"
                    }
                },
                {
                    "name": "ODF",
                    "fixes": {
                        "ODF": "ODF",
                        "FAXIV": "OVERFLY FAXIV AT OR ABOVE 7100 HOLD AT FAXIV RIGHT TURN INBOUNDCOURSE 225 ALT 7000 LEGDIST 7"
                    }
                }
            ]
        }
    ]
}