{
    "fixes": [
        {
            "name": "AWSUM",
            "lat": 41.52215,
            "lon": 86.57315278333333
        },
        {
            "name": "BAGEL",
            "lat": 41.515975,
            "lon": 85.61368888333334
        },
        {
            "name": "BOONE",
            "lat": 41.36375833333334,
            "lon": 87.19214721666667
        },
        {
            "name": "CGT",
            "lat": 41.51000556666666,
            "lon": 87.57154721666667
        },
        {
            "name": "COOKS",
            "lat": 40.54523056666667,
            "lon": 88.76515833333333
        },
        {
            "name": "DABOZ",
            "lat": 40.66384166666667,
            "lon": 88.50209721666667
        },
        {
            "name": "EDENS",
            "lat": 41.116391666666665,
            "lon": 90.04852778333333
        },
        {
            "name": "FIPEX",
            "lat": 41.48658056666667,
            "lon": 87.64922778333333
        },
        {
            "name": "FWA",
            "lat": 40.97906388333333,
            "lon": 85.18805833333333
        },
        {
            "name": "GRIDZ",
            "lat": 40.96643888333333,
            "lon": 87.28223611666667
        },
        {
            "name": "GSH",
            "lat": 41.52515556666667,
            "lon": 86.02795278333333
        },
        {
            "name": "HAAYQ",
            "lat": 40.286594433333335,
            "lon": 89.21411943333334
        },
        {
            "name": "HALIE",
            "lat": 41.516069433333335,
            "lon": 87.158875
        },
        {
            "name": "HERWK",
            "lat": 41.188463883333334,
            "lon": 88.49844721666666
        },
        {
            "name": "HIVAX",
            "lat": 41.51695556666667,
            "lon": 87.44105
        },
        {
            "name": "HLMIT",
            "lat": 40.64795556666667,
            "lon": 87.11089443333333
        },
        {
            "name": "IROCK",
            "lat": 41.51909166666667,
            "lon": 86.90519721666666
        },
        {
            "name": "JASOL",
            "lat": 41.529744433333335,
            "lon": 87.32428611666667
        },
        {
            "name": "KKOPA",
            "lat": 40.180458333333334,
            "lon": 86.83310833333333
        },
        {
            "name": "LUCIT",
            "lat": 41.23234166666667,
            "lon": 87.42372221666666
        },
        {
            "name": "MACES",
            "lat": 40.00368056666667,
            "lon": 86.72295
        },
        {
            "name": "MEGGZ",
            "lat": 41.523411116666665,
            "lon": 86.39573611666667
        },
        {
            "name": "PI001",
            "lat": 41.500854583333336,
            "lon": 87.64847556666666
        },
        {
            "name": "PI002",
            "lat": 41.44286135,
            "lon": 87.70467046666667
        },
        {
            "name": "PI003",
            "lat": 41.483723983333334,
            "lon": 87.79128456666666
        },
        {
            "name": "POSOC",
            "lat": 40.808152783333334,
            "lon": 87.19979721666667
        },
        {
            "name": "REJMO",
            "lat": 41.54689166666667,
            "lon": 87.19311943333334
        },
        {
            "name": "ROEPR",
            "lat": 40.91436388333333,
            "lon": 87.95743056666667
        },
        {
            "name": "SOCOS",
            "lat": 41.50410556666667,
            "lon": 87.51820556666667
        },
        {
            "name": "SOHOW",
            "lat": 39.84038056666667,
            "lon": 89.67706388333333
        },
        {
            "name": "UJEAN",
            "lat": 41.20726388333333,
            "lon": 88.08715278333334
        },
        {
            "name": "USTIS",
            "lat": 40.762225,
            "lon": 88.29654721666667
        },
        {
            "name": "WUNTZ",
            "lat": 40.42585278333333,
            "lon": 89.07195556666667
        },
        {
            "name": "WYDIK",
            "lat": 41.003588883333336,
            "lon": 87.75676943333333
        },
        {
            "name": "YOGRT",
            "lat": 41.40030556666667,
            "lon": 87.41895
        }
    ],
    "rnws": [
        "RNW 08",
        "RNW 26"
    ],
    "sids": [],
    "stars": [
        {
            "name": "GSH8",
            "runway": "RNW 08 RNW 26",
            "fixes": {
                "GSH": "GSH",
                "MEGGZ": "MEGGZ",
                "AWSUM": "AWSUM",
                "IROCK": "IROCK",
                "HALIE": "HALIE",
                "CGT": "CGT"
            }
        },
        {
            "name": "LUCIT2",
            "runway": "RNW 08 RNW 26",
            "fixes": {
                "LUCIT": "LUCIT 4000",
                "YOGRT": "OVERFLY YOGRT 4000 TRK 009 VECTORS"
            }
        }
    ],
    "approaches": [
        {
            "name": "RNAV08",
            "fixes": {
                "FIPEX": "FIPEX AT OR ABOVE 2300 OVERFLY FIPEX AT OR ABOVE 2300 HOLD AT FIPEX RIGHT TURN INBOUNDCOURSE 083 LEGDIST 5 FAF SOCOS MAP RNW 08",
                "SOCOS": "SOCOS 2300 RNW 08 TRK 083 UNTIL 1034 TURN RIGHT DIRECT"
            },
            "transitions": [
                {
                    "name": "BOONE",
                    "fixes": {
                        "BOONE": "BOONE",
                        "FIPEX": "FIPEX AT OR ABOVE 2300 HOLD AT FIPEX RIGHT TURN INBOUNDCOURSE 083 ALT 2300 LEGDIST 5"
                    }
                }
            ]
        },
        {
            "name": "RNAV26",
            "fixes": {
                "REJMO": "REJMO AT OR ABOVE 2400 OVERFLY REJMO AT OR ABOVE 2400 HOLD AT REJMO LEFT TURN INBOUNDCOURSE 263 LEGDIST 5 FAF JASOL MAP RNW 26",
                "JASOL": "JASOL 1700 RNW 26 TRK 263 UNTIL 1034 TURN LEFT DIRECT"
            },
            "transitions": [
                {
                    "name": "BOONE",
                    "fixes": {
                        "BOONE": "BOONE"
                    }
                },
                {
                    "name": "CGT",
                    "fixes": {
                        "CGT": "CGT",
                        "REJMO": "REJMO AT OR ABOVE 2400 HOLD AT REJMO LEFT TURN INBOUNDCOURSE 263 ALT 2400 LEGDIST 5"
                    }
                }
            ]
        },
        {
            "name": "VOR08",
            "fixes": {
                "CGT": "CGT 2300 CGT AT OR ABOVE 2300 HOLD AT CGT RIGHT TURN INBOUNDCOURSE 084 LEGTIME 1 FAF CGT MAP RNW 08",
                "HIVAX": "HIVAX AT OR ABOVE 1160 RNW 08 TRK 084 UNTIL 1034 TURN RIGHT DIRECT"
            },
            "transitions": [
                {
                    "name": "CGT",
                    "fixes": {
                        "PI001": "PI001 AT OR ABOVE 2300 SPEED 210",
                        "PI002": "OVERFLY PI002 AT OR ABOVE 2300 SPEED 210",
                        "PI003": "PI003 AT OR ABOVE 2300 SPEED 210"
                    }
                }
            ]
        }
    ]
}