{
    "fixes": [
        {
            "name": "ATLES",
            "lat": 42.37883333333333,
            "lon": 96.88376388333333
        },
        {
            "name": "DECKA",
            "lat": 41.93623611666666,
            "lon": 96.26615833333334
        },
        {
            "name": "GUGPE",
            "lat": 42.07565278333333,
            "lon": 96.704325
        },
        {
            "name": "HUKEG",
            "lat": 42.27494721666667,
            "lon": 96.8286
        },
        {
            "name": "IBHEN",
            "lat": 41.63003056666667,
            "lon": 96.68230833333334
        },
        {
            "name": "UPXUY",
            "lat": 42.199336116666665,
            "lon": 96.78135556666666
        },
        {
            "name": "WIRPI",
            "lat": 41.94814443333333,
            "lon": 96.62524443333334
        },
        {
            "name": "YEGUB",
            "lat": 42.14966666666667,
            "lon": 96.75038333333333
        },
        {
            "name": "ZOVKU",
            "lat": 42.02684166666667,
            "lon": 96.67401666666666
        }
    ],
    "rnws": [
        "RNW 15",
        "RNW 33"
    ],
    "sids": [],
    "stars": [],
    "approaches": [
        {
            "name": "RNAV15",
            "fixes": {
                "HUKEG": "HUKEG AT OR ABOVE 3100",
                "UPXUY": "UPXUY 3100",
                "YEGUB": "YEGUB AT OR ABOVE 2040 RNW 15 TRK 151 UNTIL 1678",
                "WIRPI": "OVERFLY WIRPI AT OR ABOVE 3100 HOLD AT WIRPI RIGHT TURN INBOUNDCOURSE 331 LEGDIST 4 FAF UPXUY MAP RNW 15"
            },
            "transitions": [
                {
                    "name": "ATLES",
                    "fixes": {
                        "ATLES": "ATLES"
                    }
                },
                {
                    "name": "HUKEG",
                    "fixes": {
                        "HUKEG": "HUKEG RIGHT TURN INBOUNDCOURSE 151 ALT 3200 LEGDIST 4"
                    }
                }
            ]
        },
        {
            "name": "RNAV33",
            "fixes": {
                "WIRPI": "WIRPI AT OR ABOVE 3100",
                "ZOVKU": "ZOVKU 3100",
                "GUGPE": "GUGPE AT OR ABOVE 2060 RNW 33 TRK 331 UNTIL 1626",
                "HUKEG": "OVERFLY HUKEG AT OR ABOVE 3200 HOLD AT HUKEG RIGHT TURN INBOUNDCOURSE 151 LEGDIST 4 FAF ZOVKU MAP RNW 33"
            },
            "transitions": [
                {
                    "name": "DECKA",
                    "fixes": {
                        "DECKA": "DECKA"
                    }
                },
                {
                    "name": "IBHEN",
                    "fixes": {
                        "IBHEN": "IBHEN"
                    }
                },
                {
                    "name": "WIRPI",
                    "fixes": {
                        "WIRPI": "WIRPI RIGHT TURN INBOUNDCOURSE 331 ALT 3100 LEGDIST 4"
                    }
                }
            ]
        }
    ]
}