{
    "fixes": [
        {
            "name": "CAMOE",
            "lat": 33.16635,
            "lon": 90.05619721666666
        },
        {
            "name": "LXTON",
            "lat": 33.237236116666665,
            "lon": 90.10872221666666
        },
        {
            "name": "MAFHE",
            "lat": 33.125258333333335,
            "lon": 90.02579443333333
        },
        {
            "name": "NELMY",
            "lat": 33.46811388333333,
            "lon": 89.95860556666666
        },
        {
            "name": "NELYE",
            "lat": 33.19814721666667,
            "lon": 90.24411388333333
        },
        {
            "name": "SQS",
            "lat": 33.46385,
            "lon": 90.27735
        }
    ],
    "rnws": [
        "RNW 01",
        "RNW 19"
    ],
    "sids": [],
    "stars": [],
    "approaches": [
        {
            "name": "VORDA01",
            "fixes": {
                "LXTON": "LXTON AT OR ABOVE 2000 LXTON AT OR ABOVE 2000 HOLD AT LXTON LEFT TURN INBOUNDCOURSE 145 LEGTIME 1 FAF CAMOE MAP MAFHE",
                "CAMOE": "CAMOE 1400",
                "MAFHE": "MAFHE 1020 RNW 01 TRK 145 UNTIL 1020 TURN LEFT DIRECT"
            },
            "transitions": [
                {
                    "name": "NELMY",
                    "fixes": {
                        "NELMY": "NELMY"
                    }
                },
                {
                    "name": "NELYE",
                    "fixes": {
                        "NELYE": "NELYE"
                    }
                },
                {
                    "name": "SQS",
                    "fixes": {
                        "SQS": "SQS"
                    }
                }
            ]
        },
        {
            "name": "VORDA19",
            "fixes": {
                "LXTON": "LXTON AT OR ABOVE 2000 LXTON AT OR ABOVE 2000 HOLD AT LXTON LEFT TURN INBOUNDCOURSE 145 LEGTIME 1 FAF CAMOE MAP MAFHE",
                "CAMOE": "CAMOE 1400",
                "MAFHE": "MAFHE 1020 RNW 19 TRK 145 UNTIL 1020 TURN LEFT DIRECT"
            },
            "transitions": [
                {
                    "name": "NELMY",
                    "fixes": {
                        "NELMY": "NELMY"
                    }
                },
                {
                    "name": "NELYE",
                    "fixes": {
                        "NELYE": "NELYE"
                    }
                },
                {
                    "name": "SQS",
                    "fixes": {
                        "SQS": "SQS"
                    }
                }
            ]
        }
    ]
}