{
    "fixes": [
        {
            "name": "BBONE",
            "lat": 38.625033333333334,
            "lon": 78.82383611666667
        },
        {
            "name": "BYULA",
            "lat": 38.565325,
            "lon": 77.07574443333333
        },
        {
            "name": "ESL",
            "lat": 39.22549166666667,
            "lon": 78.9895
        },
        {
            "name": "GILBT",
            "lat": 38.50817778333333,
            "lon": 77.08165833333334
        },
        {
            "name": "GILFF",
            "lat": 38.362461116666665,
            "lon": 77.43482778333333
        },
        {
            "name": "HIGPO",
            "lat": 38.37113611666667,
            "lon": 77.37221388333333
        },
        {
            "name": "JAAAK",
            "lat": 38.455097216666665,
            "lon": 77.11263611666666
        },
        {
            "name": "K2W5",
            "lat": 38.59705,
            "lon": 77.07245833333333
        },
        {
            "name": "LLBEE",
            "lat": 38.58534721666667,
            "lon": 78.42651111666666
        },
        {
            "name": "LURAY",
            "lat": 38.59859443333333,
            "lon": 78.56673056666666
        },
        {
            "name": "SABBI",
            "lat": 38.381886116666664,
            "lon": 77.13754166666666
        },
        {
            "name": "SEALZ",
            "lat": 38.423211116666664,
            "lon": 79.2906
        },
        {
            "name": "TIKEE",
            "lat": 38.618436116666665,
            "lon": 78.24879721666667
        }
    ],
    "rnws": [
        "RNW 02",
        "RNW 20"
    ],
    "sids": [],
    "stars": [
        {
            "name": "TIKEE4",
            "runway": "RNW 02 RNW 20",
            "fixes": {
                "TIKEE": "TIKEE",
                "GILFF": "GILFF",
                "HIGPO": "OVERFLY HIGPO HDG 090 VECTORS"
            }
        }
    ],
    "approaches": [
        {
            "name": "RNAV02",
            "fixes": {
                "JAAAK": "JAAAK AT OR ABOVE 2000 OVERFLY JAAAK AT OR ABOVE 2000 HOLD AT JAAAK LEFT TURN INBOUNDCOURSE 034 LEGDIST 4 FAF GILBT MAP RNW 02",
                "GILBT": "GILBT 1800",
                "BYULA": "BYULA AT OR ABOVE 700 RNW 02 TRK 014 UNTIL 575 TURN RIGHT DIRECT"
            },
            "transitions": [
                {
                    "name": "JAAAK",
                    "fixes": {
                        "JAAAK": "JAAAK LEFT TURN INBOUNDCOURSE 034 ALT 2000 LEGDIST 4"
                    }
                },
                {
                    "name": "SABBI",
                    "fixes": {
                        "SABBI": "SABBI"
                    }
                }
            ]
        }
    ]
}