{
    "fixes": [
        {
            "name": "ATTAD",
            "lat": 37.30598333333333,
            "lon": 99.34059166666667
        },
        {
            "name": "BOGVE",
            "lat": 37.13910833333333,
            "lon": 99.32343333333333
        },
        {
            "name": "CAGIM",
            "lat": 37.26893056666667,
            "lon": 99.33677778333333
        },
        {
            "name": "DUKRE",
            "lat": 37.43703333333333,
            "lon": 99.35411943333334
        },
        {
            "name": "EGANE",
            "lat": 37.48686111666667,
            "lon": 99.48665278333333
        },
        {
            "name": "FAXUL",
            "lat": 37.503486116666664,
            "lon": 99.23359443333334
        },
        {
            "name": "GECKS",
            "lat": 37.00864721666667,
            "lon": 99.31007778333333
        },
        {
            "name": "HAGMI",
            "lat": 37.17678333333333,
            "lon": 99.3273
        },
        {
            "name": "IDICU",
            "lat": 36.94210278333333,
            "lon": 99.42974166666667
        },
        {
            "name": "JANAX",
            "lat": 36.95863333333333,
            "lon": 99.17848611666666
        }
    ],
    "rnws": [
        "RNW 17",
        "RNW 35"
    ],
    "sids": [],
    "stars": [],
    "approaches": [
        {
            "name": "RNAV17",
            "fixes": {
                "DUKRE": "DUKRE AT OR ABOVE 4600",
                "ATTAD": "ATTAD 3600",
                "CAGIM": "CAGIM AT OR ABOVE 2880 RNW 17 TRK 170 UNTIL 2447",
                "GECKS": "OVERFLY GECKS AT OR ABOVE 4600 HOLD AT GECKS LEFT TURN INBOUNDCOURSE 350 LEGDIST 5 FAF ATTAD MAP RNW 17"
            },
            "transitions": [
                {
                    "name": "DUKRE",
                    "fixes": {
                        "DUKRE": "DUKRE RIGHT TURN INBOUNDCOURSE 170 ALT 4600 LEGDIST 5"
                    }
                },
                {
                    "name": "EGANE",
                    "fixes": {
                        "EGANE": "EGANE"
                    }
                },
                {
                    "name": "FAXUL",
                    "fixes": {
                        "FAXUL": "FAXUL"
                    }
                }
            ]
        },
        {
            "name": "RNAV35",
            "fixes": {
                "GECKS": "GECKS AT OR ABOVE 4600",
                "BOGVE": "BOGVE 3600",
                "HAGMI": "HAGMI AT OR ABOVE 2860 RNW 35 TRK 350 UNTIL 2443",
                "DUKRE": "OVERFLY DUKRE AT OR ABOVE 4600 HOLD AT DUKRE RIGHT TURN INBOUNDCOURSE 170 LEGDIST 5 FAF BOGVE MAP RNW 35"
            },
            "transitions": [
                {
                    "name": "GECKS",
                    "fixes": {
                        "GECKS": "GECKS LEFT TURN INBOUNDCOURSE 350 ALT 4600 LEGDIST 5"
                    }
                },
                {
                    "name": "IDICU",
                    "fixes": {
                        "IDICU": "IDICU"
                    }
                },
                {
                    "name": "JANAX",
                    "fixes": {
                        "JANAX": "JANAX"
                    }
                }
            ]
        }
    ]
}