{
    "fixes": [
        {
            "name": "AFGUZ",
            "lat": 39.16705556666667,
            "lon": 89.43439721666667
        },
        {
            "name": "AHIQU",
            "lat": 39.250563883333335,
            "lon": 89.91986666666666
        },
        {
            "name": "CLEEK",
            "lat": 39.488258333333334,
            "lon": 89.43336111666666
        },
        {
            "name": "DAYRE",
            "lat": 39.302708333333335,
            "lon": 89.32396666666666
        },
        {
            "name": "FASHE",
            "lat": 39.13366943333333,
            "lon": 90.26071388333334
        },
        {
            "name": "JINVO",
            "lat": 39.24457221666667,
            "lon": 89.67280278333334
        },
        {
            "name": "KUYLE",
            "lat": 39.34673611666667,
            "lon": 89.67335278333333
        },
        {
            "name": "LITCH",
            "lat": 39.390088883333334,
            "lon": 89.77709443333333
        },
        {
            "name": "LIYPE",
            "lat": 39.07575,
            "lon": 89.67189443333334
        },
        {
            "name": "NECIY",
            "lat": 39.347036116666665,
            "lon": 89.56593056666667
        },
        {
            "name": "OFBEP",
            "lat": 39.167155566666665,
            "lon": 89.91960556666666
        },
        {
            "name": "OMPIY",
            "lat": 39.167286116666666,
            "lon": 89.56711666666666
        },
        {
            "name": "OREPE",
            "lat": 38.974975,
            "lon": 89.67135278333333
        },
        {
            "name": "PRAYS",
            "lat": 38.97112778333333,
            "lon": 89.86847221666666
        },
        {
            "name": "SOPOC",
            "lat": 39.08364721666667,
            "lon": 89.43471388333333
        },
        {
            "name": "TOBFE",
            "lat": 39.167327783333334,
            "lon": 89.78855
        },
        {
            "name": "TWILA",
            "lat": 38.7871,
            "lon": 89.55252221666667
        },
        {
            "name": "UNEVE",
            "lat": 39.25046388333333,
            "lon": 89.43407778333334
        },
        {
            "name": "VLA",
            "lat": 39.09383888333333,
            "lon": 89.16224443333333
        }
    ],
    "rnws": [
        "RNW 09",
        "RNW 18",
        "RNW 27",
        "RNW 36"
    ],
    "sids": [],
    "stars": [],
    "approaches": [
        {
            "name": "RNAV09",
            "fixes": {
                "OFBEP": "OFBEP AT OR ABOVE 3000",
                "TOBFE": "TOBFE 2300 RNW 09 TRK 089 UNTIL 1090",
                "AFGUZ": "OVERFLY AFGUZ AT OR ABOVE 3000 HOLD AT AFGUZ RIGHT TURN INBOUNDCOURSE 269 LEGDIST 4 FAF TOBFE MAP RNW 09"
            },
            "transitions": [
                {
                    "name": "FASHE",
                    "fixes": {
                        "FASHE": "FASHE"
                    }
                },
                {
                    "name": "LITCH",
                    "fixes": {
                        "LITCH": "LITCH",
                        "AHIQU": "AHIQU AT OR ABOVE 3000"
                    }
                },
                {
                    "name": "OFBEP",
                    "fixes": {
                        "OFBEP": "OFBEP RIGHT TURN INBOUNDCOURSE 089 ALT 3000 LEGDIST 4"
                    }
                }
            ]
        },
        {
            "name": "RNAV18",
            "fixes": {
                "KUYLE": "KUYLE AT OR ABOVE 3000",
                "JINVO": "JINVO 2300 RNW 18",
                "OREPE": "OVERFLY OREPE AT OR ABOVE 3000 HOLD AT OREPE RIGHT TURN INBOUNDCOURSE 359 LEGDIST 5 FAF JINVO MAP RNW 18"
            },
            "transitions": [
                {
                    "name": "DAYRE",
                    "fixes": {
                        "DAYRE": "DAYRE",
                        "NECIY": "NECIY AT OR ABOVE 3000"
                    }
                },
                {
                    "name": "KUYLE",
                    "fixes": {
                        "KUYLE": "KUYLE RIGHT TURN INBOUNDCOURSE 179 ALT 3000 LEGDIST 5"
                    }
                },
                {
                    "name": "LITCH",
                    "fixes": {
                        "LITCH": "LITCH"
                    }
                },
                {
                    "name": "VLA",
                    "fixes": {
                        "VLA": "VLA",
                        "NECIY": "NECIY AT OR ABOVE 3000"
                    }
                }
            ]
        },
        {
            "name": "RNAV27",
            "fixes": {
                "AFGUZ": "AFGUZ AT OR ABOVE 3000",
                "OMPIY": "OMPIY 2300 RNW 27 TRK 269 UNTIL 1090",
                "OFBEP": "OVERFLY OFBEP AT OR ABOVE 3000 HOLD AT OFBEP RIGHT TURN INBOUNDCOURSE 089 LEGDIST 4 FAF OMPIY MAP RNW 27"
            },
            "transitions": [
                {
                    "name": "AFGUZ",
                    "fixes": {
                        "AFGUZ": "AFGUZ RIGHT TURN INBOUNDCOURSE 269 ALT 3000 LEGDIST 4"
                    }
                },
                {
                    "name": "CLEEK",
                    "fixes": {
                        "CLEEK": "CLEEK",
                        "UNEVE": "UNEVE AT OR ABOVE 3000"
                    }
                },
                {
                    "name": "TWILA",
                    "fixes": {
                        "TWILA": "TWILA",
                        "SOPOC": "SOPOC AT OR ABOVE 3000"
                    }
                },
                {
                    "name": "VLA",
                    "fixes": {
                        "VLA": "VLA"
                    }
                }
            ]
        },
        {
            "name": "RNAV36",
            "fixes": {
                "OREPE": "OREPE AT OR ABOVE 3000",
                "LIYPE": "LIYPE 2200 RNW 36",
                "KUYLE": "OVERFLY KUYLE AT OR ABOVE 3000 HOLD AT KUYLE RIGHT TURN INBOUNDCOURSE 179 LEGDIST 5 FAF LIYPE MAP RNW 36"
            },
            "transitions": [
                {
                    "name": "PRAYS",
                    "fixes": {
                        "PRAYS": "PRAYS"
                    }
                },
                {
                    "name": "VLA",
                    "fixes": {
                        "VLA": "VLA",
                        "OREPE": "OREPE AT OR ABOVE 3000 HOLD AT OREPE RIGHT TURN INBOUNDCOURSE 359 ALT 3000 LEGDIST 5"
                    }
                }
            ]
        }
    ]
}