{
    "fixes": [
        {
            "name": "AMUZE",
            "lat": 34.56389166666666,
            "lon": 85.65430556666666
        },
        {
            "name": "APEKE",
            "lat": 34.38970556666666,
            "lon": 85.80513611666666
        },
        {
            "name": "BROOS",
            "lat": 34.69394166666667,
            "lon": 85.67929721666667
        },
        {
            "name": "CIVMA",
            "lat": 34.354069433333336,
            "lon": 85.97099721666666
        },
        {
            "name": "COHHE",
            "lat": 34.301008333333336,
            "lon": 85.89331943333333
        },
        {
            "name": "COVID",
            "lat": 34.644097216666665,
            "lon": 85.55085278333334
        },
        {
            "name": "HORAM",
            "lat": 34.697358333333334,
            "lon": 85.62864721666666
        },
        {
            "name": "HUTGO",
            "lat": 34.60956111666667,
            "lon": 85.50498056666666
        },
        {
            "name": "ISBAW",
            "lat": 34.48534443333333,
            "lon": 85.70977221666666
        },
        {
            "name": "JILED",
            "lat": 34.56569721666666,
            "lon": 85.62943611666667
        },
        {
            "name": "ONANY",
            "lat": 34.247897216666665,
            "lon": 85.81573888333334
        },
        {
            "name": "RHODA",
            "lat": 34.651783333333334,
            "lon": 85.59209443333333
        },
        {
            "name": "WAMIR",
            "lat": 34.59078611666666,
            "lon": 85.47315833333333
        },
        {
            "name": "WELSI",
            "lat": 34.436230566666666,
            "lon": 85.75878056666667
        }
    ],
    "rnws": [
        "RNW 04",
        "RNW 22"
    ],
    "sids": [],
    "stars": [],
    "approaches": [
        {
            "name": "RNAV04",
            "fixes": {
                "COHHE": "COHHE AT OR ABOVE 4000",
                "APEKE": "APEKE 3000",
                "WELSI": "WELSI AT OR ABOVE 1760 RNW 04 TRK 044 UNTIL 1234",
                "COVID": "OVERFLY COVID AT OR ABOVE 4000 HOLD AT COVID RIGHT TURN INBOUNDCOURSE 224 LEGDIST 4 FAF APEKE MAP RNW 04"
            },
            "transitions": [
                {
                    "name": "CIVMA",
                    "fixes": {
                        "CIVMA": "CIVMA AT OR ABOVE 4000"
                    }
                },
                {
                    "name": "COHHE",
                    "fixes": {
                        "COHHE": "COHHE RIGHT TURN INBOUNDCOURSE 043 ALT 4000 LEGDIST 4"
                    }
                },
                {
                    "name": "ONANY",
                    "fixes": {
                        "ONANY": "ONANY AT OR ABOVE 4000"
                    }
                }
            ]
        },
        {
            "name": "RNAVY22",
            "fixes": {
                "RHODA": "RHODA AT OR ABOVE 4000 OVERFLY RHODA AT OR ABOVE 4000 HOLD AT RHODA RIGHT TURN INBOUNDCOURSE 214 LEGDIST 4 FAF AMUZE MAP ISBAW",
                "AMUZE": "AMUZE 3000",
                "ISBAW": "OVERFLY ISBAW 1084 RNW 22 TRK 214 UNTIL 1280 TURN RIGHT DIRECT"
            },
            "transitions": [
                {
                    "name": "BROOS",
                    "fixes": {
                        "BROOS": "BROOS AT OR ABOVE 4000"
                    }
                },
                {
                    "name": "HUTGO",
                    "fixes": {
                        "HUTGO": "HUTGO AT OR ABOVE 4000"
                    }
                },
                {
                    "name": "RHODA",
                    "fixes": {
                        "RHODA": "RHODA RIGHT TURN INBOUNDCOURSE 214 ALT 4000 LEGDIST 4"
                    }
                }
            ]
        },
        {
            "name": "RNAVZ22",
            "fixes": {
                "COVID": "COVID AT OR ABOVE 4000",
                "JILED": "JILED 3100 RNW 22 TRK 224 UNTIL 1214",
                "COHHE": "OVERFLY COHHE AT OR ABOVE 4000 HOLD AT COHHE RIGHT TURN INBOUNDCOURSE 043 LEGDIST 4 FAF JILED MAP RNW 22"
            },
            "transitions": [
                {
                    "name": "COVID",
                    "fixes": {
                        "COVID": "COVID RIGHT TURN INBOUNDCOURSE 224 ALT 4000 LEGDIST 4"
                    }
                },
                {
                    "name": "HORAM",
                    "fixes": {
                        "HORAM": "HORAM AT OR ABOVE 4000"
                    }
                },
                {
                    "name": "WAMIR",
                    "fixes": {
                        "WAMIR": "WAMIR AT OR ABOVE 4000"
                    }
                }
            ]
        }
    ]
}