{
    "fixes": [
        {
            "name": "AFRED",
            "lat": 43.65139443333333,
            "lon": 73.40604721666666
        },
        {
            "name": "AKAYU",
            "lat": 43.980075,
            "lon": 73.40704721666667
        },
        {
            "name": "BIBBA",
            "lat": 44.091647216666665,
            "lon": 73.400425
        },
        {
            "name": "COLKA",
            "lat": 43.763533333333335,
            "lon": 73.41021943333334
        },
        {
            "name": "IGIKE",
            "lat": 43.89116666666666,
            "lon": 73.41498888333334
        },
        {
            "name": "IYOYO",
            "lat": 43.803525,
            "lon": 73.41171111666667
        },
        {
            "name": "JASDU",
            "lat": 43.70355,
            "lon": 73.40798611666666
        },
        {
            "name": "LOCET",
            "lat": 44.060008333333336,
            "lon": 73.40230556666667
        },
        {
            "name": "OXASE",
            "lat": 43.65357778333333,
            "lon": 73.29130278333334
        },
        {
            "name": "PODBE",
            "lat": 43.863508333333336,
            "lon": 73.41395278333333
        },
        {
            "name": "PULLO",
            "lat": 43.64909721666667,
            "lon": 73.52078333333333
        },
        {
            "name": "TIMDE",
            "lat": 44.09515,
            "lon": 73.51595556666666
        },
        {
            "name": "UBISE",
            "lat": 43.8495,
            "lon": 73.41478056666666
        },
        {
            "name": "WALIX",
            "lat": 44.088025,
            "lon": 73.28490833333333
        }
    ],
    "rnws": [
        "RNW 02",
        "RNW 20"
    ],
    "sids": [],
    "stars": [],
    "approaches": [
        {
            "name": "RNAV02",
            "fixes": {
                "JASDU": "JASDU AT OR ABOVE 3500",
                "COLKA": "COLKA 2400",
                "IYOYO": "IYOYO AT OR ABOVE 1840",
                "PODBE": "OVERFLY PODBE 494 RNW 02 TRK 013 UNTIL 673",
                "IGIKE": "IGIKE",
                "BIBBA": "OVERFLY BIBBA AT OR ABOVE 4000 HOLD AT BIBBA RIGHT TURN INBOUNDCOURSE 197 LEGDIST 4 FAF COLKA MAP PODBE"
            },
            "transitions": [
                {
                    "name": "AFRED",
                    "fixes": {
                        "AFRED": "AFRED RIGHT TURN INBOUNDCOURSE 013 ALT 4000 LEGDIST 4"
                    }
                },
                {
                    "name": "OXASE",
                    "fixes": {
                        "OXASE": "OXASE AT OR ABOVE 4900",
                        "AFRED": "AFRED AT OR ABOVE 4000"
                    }
                },
                {
                    "name": "PULLO",
                    "fixes": {
                        "PULLO": "PULLO AT OR ABOVE 4900",
                        "AFRED": "AFRED AT OR ABOVE 4000"
                    }
                }
            ]
        },
        {
            "name": "RNAV20",
            "fixes": {
                "LOCET": "LOCET AT OR ABOVE 3500",
                "AKAYU": "AKAYU 2200 RNW 20 TRK 197 UNTIL 666",
                "UBISE": "UBISE",
                "AFRED": "OVERFLY AFRED AT OR ABOVE 4000 HOLD AT AFRED RIGHT TURN INBOUNDCOURSE 013 LEGDIST 4 FAF AKAYU MAP RNW 20"
            },
            "transitions": [
                {
                    "name": "BIBBA",
                    "fixes": {
                        "BIBBA": "BIBBA RIGHT TURN INBOUNDCOURSE 197 ALT 4000 LEGDIST 4"
                    }
                },
                {
                    "name": "TIMDE",
                    "fixes": {
                        "TIMDE": "TIMDE AT OR ABOVE 4900",
                        "BIBBA": "BIBBA AT OR ABOVE 4000"
                    }
                },
                {
                    "name": "WALIX",
                    "fixes": {
                        "WALIX": "WALIX AT OR ABOVE 4800",
                        "BIBBA": "BIBBA AT OR ABOVE 4000"
                    }
                }
            ]
        }
    ]
}