{
    "fixes": [
        {
            "name": "CUGIN",
            "lat": 30.792686116666665,
            "lon": 83.36832778333333
        },
        {
            "name": "GEF",
            "lat": 30.551341666666666,
            "lon": 83.78313333333334
        },
        {
            "name": "HOSOG",
            "lat": 30.81723888333333,
            "lon": 83.80870278333333
        },
        {
            "name": "JEXER",
            "lat": 30.958936116666667,
            "lon": 83.82580833333333
        },
        {
            "name": "JOGOS",
            "lat": 30.991497216666666,
            "lon": 83.34750278333334
        },
        {
            "name": "KUKME",
            "lat": 30.801927783333333,
            "lon": 83.53091111666667
        },
        {
            "name": "ODEVE",
            "lat": 30.799425,
            "lon": 83.48651111666666
        },
        {
            "name": "OTK",
            "lat": 30.780444433333333,
            "lon": 83.27972778333333
        },
        {
            "name": "UMRAW",
            "lat": 30.810886116666666,
            "lon": 83.69208888333333
        },
        {
            "name": "WUBSU",
            "lat": 31.082469433333333,
            "lon": 83.77214721666667
        },
        {
            "name": "YICUL",
            "lat": 30.708652783333335,
            "lon": 83.85504166666666
        }
    ],
    "rnws": [
        "RNW 10",
        "RNW 28"
    ],
    "sids": [],
    "stars": [],
    "approaches": [
        {
            "name": "RNAV10",
            "fixes": {
                "HOSOG": "HOSOG AT OR ABOVE 2000",
                "UMRAW": "UMRAW 1800 RNW 10 TRK 099 UNTIL 590",
                "CUGIN": "OVERFLY CUGIN AT OR ABOVE 2000 HOLD AT CUGIN RIGHT TURN INBOUNDCOURSE 279 LEGDIST 4 FAF UMRAW MAP RNW 10"
            },
            "transitions": [
                {
                    "name": "GEF",
                    "fixes": {
                        "GEF": "GEF",
                        "YICUL": "YICUL AT OR ABOVE 2000"
                    }
                },
                {
                    "name": "HOSOG",
                    "fixes": {
                        "HOSOG": "HOSOG RIGHT TURN INBOUNDCOURSE 099 ALT 2000 LEGDIST 4"
                    }
                },
                {
                    "name": "WUBSU",
                    "fixes": {
                        "WUBSU": "WUBSU",
                        "JEXER": "JEXER AT OR ABOVE 2000"
                    }
                }
            ]
        },
        {
            "name": "RNAV28",
            "fixes": {
                "CUGIN": "CUGIN AT OR ABOVE 2000",
                "ODEVE": "ODEVE 1800",
                "KUKME": "KUKME AT OR ABOVE 1060 RNW 28 TRK 279 UNTIL 590",
                "HOSOG": "OVERFLY HOSOG AT OR ABOVE 2000 HOLD AT HOSOG RIGHT TURN INBOUNDCOURSE 099 LEGDIST 4 FAF ODEVE MAP RNW 28"
            },
            "transitions": [
                {
                    "name": "CUGIN",
                    "fixes": {
                        "CUGIN": "CUGIN RIGHT TURN INBOUNDCOURSE 279 ALT 2000 LEGDIST 4"
                    }
                },
                {
                    "name": "JOGOS",
                    "fixes": {
                        "JOGOS": "JOGOS"
                    }
                },
                {
                    "name": "OTK",
                    "fixes": {
                        "OTK": "OTK"
                    }
                }
            ]
        }
    ]
}