{
    "fixes": [
        {
            "name": "CIVAY",
            "lat": 34.80951388333333,
            "lon": 91.955225
        },
        {
            "name": "CIVKI",
            "lat": 34.80408611666667,
            "lon": 91.60021666666667
        },
        {
            "name": "DRAST",
            "lat": 34.62895278333333,
            "lon": 91.43011666666666
        },
        {
            "name": "DUMPI",
            "lat": 34.93825278333333,
            "lon": 91.96135
        },
        {
            "name": "NOLRE",
            "lat": 34.801941666666664,
            "lon": 91.47481388333334
        },
        {
            "name": "QITXO",
            "lat": 34.662480566666666,
            "lon": 91.93874721666667
        },
        {
            "name": "SIBOE",
            "lat": 34.9541,
            "lon": 91.48818888333334
        },
        {
            "name": "TAXJU",
            "lat": 34.80770278333333,
            "lon": 91.82976666666667
        },
        {
            "name": "WOXON",
            "lat": 34.805175,
            "lon": 91.66704443333333
        }
    ],
    "rnws": [
        "RNW 09",
        "RNW 18",
        "RNW 27",
        "RNW 36"
    ],
    "sids": [],
    "stars": [],
    "approaches": [
        {
            "name": "RNAV09",
            "fixes": {
                "CIVAY": "CIVAY AT OR ABOVE 2500",
                "TAXJU": "TAXJU 2000 RNW 09 TRK 088 UNTIL 526",
                "NOLRE": "OVERFLY NOLRE AT OR ABOVE 2500 HOLD AT NOLRE RIGHT TURN INBOUNDCOURSE 268 LEGDIST 4 FAF TAXJU MAP RNW 09"
            },
            "transitions": [
                {
                    "name": "CIVAY",
                    "fixes": {
                        "CIVAY": "CIVAY RIGHT TURN INBOUNDCOURSE 088 ALT 2500 LEGDIST 4"
                    }
                },
                {
                    "name": "DUMPI",
                    "fixes": {
                        "DUMPI": "DUMPI"
                    }
                },
                {
                    "name": "QITXO",
                    "fixes": {
                        "QITXO": "QITXO"
                    }
                }
            ]
        },
        {
            "name": "RNAV27",
            "fixes": {
                "NOLRE": "NOLRE AT OR ABOVE 2500",
                "CIVKI": "CIVKI 2000",
                "WOXON": "WOXON AT OR ABOVE 920 RNW 27 TRK 268 UNTIL 640",
                "CIVAY": "OVERFLY CIVAY AT OR ABOVE 2500 HOLD AT CIVAY RIGHT TURN INBOUNDCOURSE 088 LEGDIST 4 FAF CIVKI MAP RNW 27"
            },
            "transitions": [
                {
                    "name": "DRAST",
                    "fixes": {
                        "DRAST": "DRAST"
                    }
                },
                {
                    "name": "NOLRE",
                    "fixes": {
                        "NOLRE": "NOLRE RIGHT TURN INBOUNDCOURSE 268 ALT 2500 LEGDIST 4"
                    }
                },
                {
                    "name": "SIBOE",
                    "fixes": {
                        "SIBOE": "SIBOE"
                    }
                }
            ]
        }
    ]
}