{
    "fixes": [
        {
            "name": "FANOD",
            "lat": 33.87848056666667,
            "lon": 94.87520278333334
        },
        {
            "name": "GRECO",
            "lat": 33.96479721666667,
            "lon": 94.83088888333333
        },
        {
            "name": "PIVIE",
            "lat": 33.70134721666667,
            "lon": 94.85719166666667
        },
        {
            "name": "RUVOC",
            "lat": 33.73415,
            "lon": 94.94906111666667
        },
        {
            "name": "TIPUC",
            "lat": 33.76688333333333,
            "lon": 95.04100278333334
        },
        {
            "name": "WANIL",
            "lat": 34.06137221666667,
            "lon": 94.67202221666666
        },
        {
            "name": "WIRED",
            "lat": 34.00224721666667,
            "lon": 94.81163056666666
        },
        {
            "name": "WOSAT",
            "lat": 33.82643611666667,
            "lon": 94.90186666666666
        },
        {
            "name": "YIDNU",
            "lat": 34.127197216666666,
            "lon": 94.85645556666667
        },
        {
            "name": "ZUTEM",
            "lat": 34.09431943333333,
            "lon": 94.76420278333333
        }
    ],
    "rnws": [
        "RNW 02",
        "RNW 20"
    ],
    "sids": [],
    "stars": [],
    "approaches": [
        {
            "name": "RNAV02",
            "fixes": {
                "RUVOC": "RUVOC AT OR ABOVE 2500 SPEED 180",
                "WOSAT": "WOSAT 2100",
                "FANOD": "FANOD AT OR ABOVE 1020 RNW 02 TRK 020 UNTIL 800",
                "ZUTEM": "OVERFLY ZUTEM AT OR ABOVE 3000 HOLD AT ZUTEM RIGHT TURN INBOUNDCOURSE 200 LEGDIST 4 FAF WOSAT MAP RNW 02"
            },
            "transitions": [
                {
                    "name": "PIVIE",
                    "fixes": {
                        "PIVIE": "PIVIE SPEED 200"
                    }
                },
                {
                    "name": "RUVOC",
                    "fixes": {
                        "RUVOC": "RUVOC RIGHT TURN INBOUNDCOURSE 020 ALT 2500 SPEED 180 LEGDIST 4"
                    }
                },
                {
                    "name": "TIPUC",
                    "fixes": {
                        "TIPUC": "TIPUC SPEED 200"
                    }
                }
            ]
        },
        {
            "name": "RNAV20",
            "fixes": {
                "ZUTEM": "ZUTEM AT OR ABOVE 3000 SPEED 180",
                "WIRED": "WIRED 2300",
                "GRECO": "GRECO AT OR ABOVE 1520 RNW 20 TRK 200 UNTIL 820",
                "RUVOC": "OVERFLY RUVOC AT OR ABOVE 2500 HOLD AT RUVOC RIGHT TURN INBOUNDCOURSE 020 LEGDIST 4 FAF WIRED MAP RNW 20"
            },
            "transitions": [
                {
                    "name": "WANIL",
                    "fixes": {
                        "WANIL": "WANIL SPEED 200"
                    }
                },
                {
                    "name": "YIDNU",
                    "fixes": {
                        "YIDNU": "YIDNU SPEED 200"
                    }
                },
                {
                    "name": "ZUTEM",
                    "fixes": {
                        "ZUTEM": "ZUTEM RIGHT TURN INBOUNDCOURSE 200 ALT 3000 SPEED 180 LEGDIST 4"
                    }
                }
            ]
        }
    ]
}