{
    "fixes": [
        {
            "name": "JAVIM",
            "lat": 42.53499166666667,
            "lon": 124.58227778333334
        },
        {
            "name": "MUDDD",
            "lat": 42.61079721666667,
            "lon": 124.55912778333334
        },
        {
            "name": "NELLL",
            "lat": 42.863205566666664,
            "lon": 124.48320833333334
        },
        {
            "name": "PITME",
            "lat": 42.51648333333333,
            "lon": 124.51403611666667
        },
        {
            "name": "PLASR",
            "lat": 42.398575,
            "lon": 124.623225
        },
        {
            "name": "STRAY",
            "lat": 42.44634443333333,
            "lon": 124.45226111666666
        }
    ],
    "rnws": [
        "RNW 16",
        "RNW 34"
    ],
    "sids": [
        {
            "name": "NELLL1",
            "rnw": "31",
            "fixes": {},
            "sub_fixes": [
                {
                    "rwy": "RNW 16",
                    "fixes": {
                        "RNW 16": "RNW 16 HDG 161 UNTIL 521 TURN RIGHT DIRECT",
                        "PLASR": "PLASR",
                        "JAVIM": "JAVIM",
                        "NELLL": "NELLL"
                    }
                },
                {
                    "rwy": "RNW 34",
                    "fixes": {
                        "RNW 34": "RNW 34 HDG 341 INTERCEPT RADIAL 297 TO",
                        "JAVIM": "JAVIM JAVIM",
                        "NELLL": "NELLL"
                    }
                }
            ],
            "transitions": []
        }
    ],
    "stars": [],
    "approaches": [
        {
            "name": "RNAVA16",
            "fixes": {
                "MUDDD": "MUDDD AT OR ABOVE 4200 OVERFLY MUDDD AT OR ABOVE 4200 HOLD AT MUDDD LEFT TURN INBOUNDCOURSE 147 LEGDIST 5 FAF PITME MAP STRAY",
                "PITME": "PITME 2700",
                "STRAY": "OVERFLY STRAY 1740 RNW 16 TRK 133 UNTIL 2100 TURN RIGHT DIRECT"
            },
            "transitions": [
                {
                    "name": "MUDDD",
                    "fixes": {
                        "MUDDD": "MUDDD LEFT TURN INBOUNDCOURSE 147 ALT 4200 LEGDIST 5"
                    }
                }
            ]
        },
        {
            "name": "RNAVA34",
            "fixes": {
                "MUDDD": "MUDDD AT OR ABOVE 4200 OVERFLY MUDDD AT OR ABOVE 4200 HOLD AT MUDDD LEFT TURN INBOUNDCOURSE 147 LEGDIST 5 FAF PITME MAP STRAY",
                "PITME": "PITME 2700",
                "STRAY": "OVERFLY STRAY 1740 RNW 34 TRK 133 UNTIL 2100 TURN RIGHT DIRECT"
            },
            "transitions": [
                {
                    "name": "MUDDD",
                    "fixes": {
                        "MUDDD": "MUDDD LEFT TURN INBOUNDCOURSE 147 ALT 4200 LEGDIST 5"
                    }
                }
            ]
        }
    ]
}