{
    "fixes": [
        {
            "name": "AWAGE",
            "lat": 30.350222216666666,
            "lon": 87.701025
        },
        {
            "name": "HAPIN",
            "lat": 30.565886116666668,
            "lon": 87.70082221666667
        },
        {
            "name": "HEKAL",
            "lat": 30.381341666666668,
            "lon": 87.701
        },
        {
            "name": "RUPQE",
            "lat": 30.617672216666666,
            "lon": 87.70076943333333
        },
        {
            "name": "UWAZE",
            "lat": 30.515822216666667,
            "lon": 87.700875
        },
        {
            "name": "WIBIK",
            "lat": 30.248313883333335,
            "lon": 87.70110556666667
        },
        {
            "name": "ZOVEB",
            "lat": 30.474527783333333,
            "lon": 87.70091666666667
        }
    ],
    "rnws": [
        "RNW 18",
        "RNW 36"
    ],
    "sids": [],
    "stars": [],
    "approaches": [
        {
            "name": "RNAV18",
            "fixes": {
                "RUPQE": "RUPQE AT OR ABOVE 3100",
                "HAPIN": "HAPIN AT OR ABOVE 2600",
                "UWAZE": "UWAZE 1700",
                "ZOVEB": "ZOVEB AT OR ABOVE 900 RNW 18 TRK 182 UNTIL 393",
                "WIBIK": "OVERFLY WIBIK AT OR ABOVE 3000 HOLD AT WIBIK LEFT TURN INBOUNDCOURSE 002 LEGDIST 4 FAF UWAZE MAP RNW 18"
            },
            "transitions": [
                {
                    "name": "RUPQE",
                    "fixes": {
                        "RUPQE": "RUPQE RIGHT TURN INBOUNDCOURSE 182 ALT 3100 LEGDIST 4"
                    }
                }
            ]
        },
        {
            "name": "RNAV36",
            "fixes": {
                "WIBIK": "WIBIK AT OR ABOVE 3000",
                "AWAGE": "AWAGE 1500",
                "HEKAL": "HEKAL AT OR ABOVE 900 RNW 36 TRK 002 UNTIL 460",
                "RUPQE": "OVERFLY RUPQE AT OR ABOVE 3100 HOLD AT RUPQE RIGHT TURN INBOUNDCOURSE 182 LEGDIST 4 FAF AWAGE MAP RNW 36"
            },
            "transitions": [
                {
                    "name": "WIBIK",
                    "fixes": {
                        "WIBIK": "WIBIK LEFT TURN INBOUNDCOURSE 002 ALT 3000 LEGDIST 4"
                    }
                }
            ]
        }
    ]
}