{
    "fixes": [
        {
            "name": "CINOL",
            "lat": 36.118288883333335,
            "lon": 98.47948056666667
        },
        {
            "name": "GETLE",
            "lat": 36.480969433333335,
            "lon": 98.47173888333333
        },
        {
            "name": "HEKIX",
            "lat": 36.18625556666667,
            "lon": 98.47806943333333
        },
        {
            "name": "JIMHU",
            "lat": 36.380836116666664,
            "lon": 98.47389443333333
        },
        {
            "name": "VARGS",
            "lat": 36.33061943333333,
            "lon": 98.47497221666667
        },
        {
            "name": "YEXFU",
            "lat": 36.24703888333333,
            "lon": 98.47676666666666
        },
        {
            "name": "ZABIB",
            "lat": 36.10192778333333,
            "lon": 98.47988888333333
        }
    ],
    "rnws": [
        "RNW 17",
        "RNW 35"
    ],
    "sids": [],
    "stars": [],
    "approaches": [
        {
            "name": "RNAV17",
            "fixes": {
                "GETLE": "GETLE AT OR ABOVE 3600",
                "JIMHU": "JIMHU 2900",
                "VARGS": "VARGS AT OR ABOVE 1940 RNW 17 TRK 177 UNTIL 1592",
                "CINOL": "OVERFLY CINOL AT OR ABOVE 3600 HOLD AT CINOL RIGHT TURN INBOUNDCOURSE 357 LEGDIST 4 FAF JIMHU MAP RNW 17"
            },
            "transitions": [
                {
                    "name": "GETLE",
                    "fixes": {
                        "GETLE": "GETLE RIGHT TURN INBOUNDCOURSE 177 ALT 3600 LEGDIST 4"
                    }
                }
            ]
        },
        {
            "name": "RNAV35",
            "fixes": {
                "ZABIB": "ZABIB AT OR ABOVE 3600",
                "HEKIX": "HEKIX 3200",
                "YEXFU": "YEXFU AT OR ABOVE 2040 RNW 35 TRK 357 UNTIL 1674",
                "GETLE": "OVERFLY GETLE AT OR ABOVE 3600 HOLD AT GETLE RIGHT TURN INBOUNDCOURSE 177 LEGDIST 4 FAF HEKIX MAP RNW 35"
            },
            "transitions": [
                {
                    "name": "ZABIB",
                    "fixes": {
                        "ZABIB": "ZABIB LEFT TURN INBOUNDCOURSE 357 ALT 3600 LEGDIST 4"
                    }
                }
            ]
        }
    ]
}