{
    "fixes": [
        {
            "name": "EWIRU",
            "lat": 48.66727778333333,
            "lon": 101.7875
        },
        {
            "name": "EWRAF",
            "lat": 48.66727778333333,
            "lon": 102.30718611666667
        },
        {
            "name": "IJKOJ",
            "lat": 48.75055278333333,
            "lon": 101.78706111666666
        },
        {
            "name": "MOT",
            "lat": 48.260336116666664,
            "lon": 101.28707221666667
        },
        {
            "name": "OZFEJ",
            "lat": 48.6675,
            "lon": 101.91321666666667
        },
        {
            "name": "ULSUW",
            "lat": 48.58400556666667,
            "lon": 101.78793888333334
        }
    ],
    "rnws": [
        "RNW 08",
        "RNW 26"
    ],
    "sids": [],
    "stars": [],
    "approaches": [
        {
            "name": "RNAV26",
            "fixes": {
                "EWIRU": "EWIRU AT OR ABOVE 3900",
                "OZFEJ": "OZFEJ 3600 RNW 26 TRK 260 UNTIL 2362",
                "EWRAF": "OVERFLY EWRAF AT OR ABOVE 4000 HOLD AT EWRAF RIGHT TURN INBOUNDCOURSE 080 LEGDIST 4 FAF OZFEJ MAP RNW 26"
            },
            "transitions": [
                {
                    "name": "EWIRU",
                    "fixes": {
                        "EWIRU": "EWIRU RIGHT TURN INBOUNDCOURSE 260 ALT 3900 LEGDIST 4"
                    }
                },
                {
                    "name": "IJKOJ",
                    "fixes": {
                        "IJKOJ": "IJKOJ"
                    }
                },
                {
                    "name": "MOT",
                    "fixes": {
                        "MOT": "MOT",
                        "ULSUW": "ULSUW AT OR ABOVE 3900"
                    }
                }
            ]
        }
    ]
}