{
    "fixes": [
        {
            "name": "NOBDY",
            "lat": 35.56437221666667,
            "lon": 90.03438888333334
        },
        {
            "name": "UKUCI",
            "lat": 35.88000556666667,
            "lon": 89.97382221666666
        },
        {
            "name": "WORUP",
            "lat": 35.779355566666666,
            "lon": 89.99318888333333
        },
        {
            "name": "YALUL",
            "lat": 35.86703611666667,
            "lon": 89.87253056666667
        },
        {
            "name": "ZARAM",
            "lat": 35.892888883333335,
            "lon": 90.07514721666666
        }
    ],
    "rnws": [
        "RNW 01",
        "RNW 19"
    ],
    "sids": [],
    "stars": [],
    "approaches": [
        {
            "name": "RNAV19",
            "fixes": {
                "UKUCI": "UKUCI AT OR ABOVE 3000",
                "WORUP": "WORUP 1900 RNW 19",
                "NOBDY": "OVERFLY NOBDY AT OR ABOVE 3500 HOLD AT NOBDY RIGHT TURN INBOUNDCOURSE 187 LEGDIST 4 FAF WORUP MAP RNW 19"
            },
            "transitions": [
                {
                    "name": "UKUCI",
                    "fixes": {
                        "UKUCI": "UKUCI RIGHT TURN INBOUNDCOURSE 187 ALT 3000 LEGDIST 4"
                    }
                },
                {
                    "name": "YALUL",
                    "fixes": {
                        "YALUL": "YALUL AT OR ABOVE 3000"
                    }
                },
                {
                    "name": "ZARAM",
                    "fixes": {
                        "ZARAM": "ZARAM AT OR ABOVE 3000"
                    }
                }
            ]
        }
    ]
}