{
    "fixes": [
        {
            "name": "AZELL",
            "lat": 35.856597216666664,
            "lon": 80.2367
        },
        {
            "name": "BURCH",
            "lat": 36.166077783333336,
            "lon": 80.82073611666667
        },
        {
            "name": "BZM",
            "lat": 35.86885278333333,
            "lon": 81.24052778333333
        },
        {
            "name": "COXOV",
            "lat": 36.04212221666667,
            "lon": 80.68299721666666
        },
        {
            "name": "JUVAP",
            "lat": 35.91231943333333,
            "lon": 80.55023611666667
        },
        {
            "name": "WIPUS",
            "lat": 35.911155566666665,
            "lon": 80.59131111666667
        },
        {
            "name": "ZEMPO",
            "lat": 35.90868056666667,
            "lon": 80.67708611666667
        },
        {
            "name": "ZISER",
            "lat": 35.91644443333333,
            "lon": 80.40025833333333
        }
    ],
    "rnws": [
        "RNW 09",
        "RNW 27"
    ],
    "sids": [],
    "stars": [],
    "approaches": [
        {
            "name": "RNAV09",
            "fixes": {
                "WIPUS": "WIPUS AT OR ABOVE 2400",
                "JUVAP": "JUVAP 2200 RNW 09 TRK 094 UNTIL 1218",
                "ZISER": "ZISER",
                "AZELL": "OVERFLY AZELL AT OR ABOVE 3000 HOLD AT AZELL RIGHT TURN INBOUNDCOURSE 054 LEGDIST 4 FAF JUVAP MAP RNW 09"
            },
            "transitions": [
                {
                    "name": "BURCH",
                    "fixes": {
                        "BURCH": "BURCH",
                        "COXOV": "COXOV AT OR ABOVE 3700",
                        "ZEMPO": "ZEMPO AT OR ABOVE 3400"
                    }
                },
                {
                    "name": "BZM",
                    "fixes": {
                        "BZM": "BZM",
                        "ZEMPO": "ZEMPO AT OR ABOVE 3400"
                    }
                },
                {
                    "name": "ZEMPO",
                    "fixes": {
                        "ZEMPO": "ZEMPO LEFT TURN INBOUNDCOURSE 094 ALT 3400 LEGDIST 4"
                    }
                }
            ]
        }
    ]
}