{
    "fixes": [
        {
            "name": "AUG",
            "lat": 44.320019433333336,
            "lon": 69.79656388333333
        },
        {
            "name": "JIGZY",
            "lat": 45.104563883333334,
            "lon": 70.99369443333333
        },
        {
            "name": "KIREY",
            "lat": 45.05057778333333,
            "lon": 70.83465
        },
        {
            "name": "LAMEW",
            "lat": 45.03254166666667,
            "lon": 70.78173056666667
        },
        {
            "name": "MAGHI",
            "lat": 45.02044166666666,
            "lon": 70.74628333333334
        },
        {
            "name": "NOKTE",
            "lat": 45.009588883333336,
            "lon": 70.71453611666666
        },
        {
            "name": "ORKOE",
            "lat": 44.95888888333333,
            "lon": 70.84346666666667
        },
        {
            "name": "PUWFI",
            "lat": 44.98486388333333,
            "lon": 70.64798333333333
        },
        {
            "name": "QIYFE",
            "lat": 44.95401111666666,
            "lon": 70.60855
        },
        {
            "name": "RARTE",
            "lat": 44.934255566666664,
            "lon": 70.58333333333333
        },
        {
            "name": "ROOTS",
            "lat": 44.991044433333336,
            "lon": 70.66665556666666
        },
        {
            "name": "SHINY",
            "lat": 44.81853888333333,
            "lon": 70.91953333333333
        },
        {
            "name": "SPENY",
            "lat": 44.909602783333334,
            "lon": 70.5519
        },
        {
            "name": "TUFFI",
            "lat": 44.82307778333333,
            "lon": 70.441875
        },
        {
            "name": "UPUJE",
            "lat": 44.89280556666667,
            "lon": 70.57795
        },
        {
            "name": "ZEMSI",
            "lat": 44.93455556666667,
            "lon": 70.751125
        }
    ],
    "rnws": [
        "RNW 14",
        "RNW 32"
    ],
    "sids": [],
    "stars": [],
    "approaches": [
        {
            "name": "RNAV14",
            "fixes": {
                "JIGZY": "JIGZY AT OR ABOVE 6400 OVERFLY JIGZY AT OR ABOVE 6400 HOLD AT JIGZY RIGHT TURN INBOUNDCOURSE 134 ALT 6400 LEGDIST 7 FAF LAMEW MAP RNW 14",
                "KIREY": "KIREY AT OR ABOVE 4400",
                "LAMEW": "LAMEW 3800",
                "MAGHI": "MAGHI AT OR ABOVE 3380",
                "NOKTE": "NOKTE AT OR ABOVE 2720 RNW 14 TRK 134 UNTIL 2400 TURN RIGHT DIRECT",
                "ORKOE": "ORKOE"
            },
            "transitions": [
                {
                    "name": "JIGZY",
                    "fixes": {
                        "JIGZY": "JIGZY RIGHT TURN INBOUNDCOURSE 134 ALT 6400 LEGDIST 7"
                    }
                }
            ]
        },
        {
            "name": "RNAVD14",
            "fixes": {
                "SHINY": "SHINY AT OR ABOVE 6000 OVERFLY SHINY AT OR ABOVE 6000 HOLD AT SHINY LEFT TURN INBOUNDCOURSE 064 ALT 6000 LEGDIST 5 FAF ZEMSI MAP ROOTS",
                "ZEMSI": "ZEMSI 3800",
                "ROOTS": "OVERFLY ROOTS 2380 RNW 14 TRK 065 UNTIL 2380 TURN RIGHT DIRECT"
            },
            "transitions": [
                {
                    "name": "AUG",
                    "fixes": {
                        "AUG": "AUG",
                        "SHINY": "OVERFLY SHINY AT OR ABOVE 6000 HOLD AT SHINY LEFT TURN INBOUNDCOURSE 064 ALT 6000 LEGDIST 5"
                    }
                }
            ]
        },
        {
            "name": "RNAV32",
            "fixes": {
                "TUFFI": "TUFFI AT OR ABOVE 6300 OVERFLY TUFFI AT OR ABOVE 6300 HOLD AT TUFFI RIGHT TURN INBOUNDCOURSE 336 ALT 6300 LEGDIST 7 FAF SPENY MAP PUWFI",
                "SPENY": "SPENY 4100",
                "RARTE": "RARTE AT OR ABOVE 3420",
                "QIYFE": "QIYFE AT OR ABOVE 2860",
                "PUWFI": "OVERFLY PUWFI 2023 RNW 32 TRK 336 UNTIL 2221 TURN LEFT DIRECT",
                "UPUJE": "UPUJE"
            },
            "transitions": [
                {
                    "name": "TUFFI",
                    "fixes": {
                        "TUFFI": "TUFFI RIGHT TURN INBOUNDCOURSE 336 ALT 6300 LEGDIST 7"
                    }
                }
            ]
        },
        {
            "name": "RNAVD32",
            "fixes": {
                "SHINY": "SHINY AT OR ABOVE 6000 OVERFLY SHINY AT OR ABOVE 6000 HOLD AT SHINY LEFT TURN INBOUNDCOURSE 064 ALT 6000 LEGDIST 5 FAF ZEMSI MAP ROOTS",
                "ZEMSI": "ZEMSI 3800",
                "ROOTS": "OVERFLY ROOTS 2380 RNW 32 TRK 065 UNTIL 2380 TURN RIGHT DIRECT"
            },
            "transitions": [
                {
                    "name": "AUG",
                    "fixes": {
                        "AUG": "AUG",
                        "SHINY": "OVERFLY SHINY AT OR ABOVE 6000 HOLD AT SHINY LEFT TURN INBOUNDCOURSE 064 ALT 6000 LEGDIST 5"
                    }
                }
            ]
        }
    ]
}