{
    "fixes": [
        {
            "name": "DADFY",
            "lat": 43.17083611666666,
            "lon": 85.56533333333333
        },
        {
            "name": "EZAYE",
            "lat": 43.11118333333334,
            "lon": 85.96691666666666
        },
        {
            "name": "FELYN",
            "lat": 43.084622216666666,
            "lon": 85.79111388333334
        },
        {
            "name": "HUUNT",
            "lat": 43.03739443333333,
            "lon": 85.91403333333334
        },
        {
            "name": "JEBIS",
            "lat": 43.29168333333333,
            "lon": 85.49436111666667
        },
        {
            "name": "JUBAD",
            "lat": 42.963580566666664,
            "lon": 85.861275
        },
        {
            "name": "NEWWT",
            "lat": 43.14364166666667,
            "lon": 85.38957221666666
        },
        {
            "name": "SINGS",
            "lat": 43.15039721666667,
            "lon": 85.61902221666666
        },
        {
            "name": "WAGIT",
            "lat": 43.217675,
            "lon": 85.44190278333333
        }
    ],
    "rnws": [
        "RNW 07",
        "RNW 25"
    ],
    "sids": [],
    "stars": [],
    "approaches": [
        {
            "name": "RNAV07",
            "fixes": {
                "HUUNT": "HUUNT AT OR ABOVE 3000",
                "FELYN": "FELYN 2500 RNW 07 TRK 066 UNTIL 1175",
                "WAGIT": "OVERFLY WAGIT AT OR ABOVE 3000 HOLD AT WAGIT RIGHT TURN INBOUNDCOURSE 247 LEGDIST 4 FAF FELYN MAP RNW 07"
            },
            "transitions": [
                {
                    "name": "EZAYE",
                    "fixes": {
                        "EZAYE": "EZAYE"
                    }
                },
                {
                    "name": "HUUNT",
                    "fixes": {
                        "HUUNT": "HUUNT RIGHT TURN INBOUNDCOURSE 066 ALT 3000 LEGDIST 4"
                    }
                },
                {
                    "name": "JUBAD",
                    "fixes": {
                        "JUBAD": "JUBAD"
                    }
                }
            ]
        },
        {
            "name": "RNAV25",
            "fixes": {
                "WAGIT": "WAGIT AT OR ABOVE 3000",
                "DADFY": "DADFY 2500",
                "SINGS": "SINGS AT OR ABOVE 1640 RNW 25 TRK 247 UNTIL 1175",
                "HUUNT": "OVERFLY HUUNT AT OR ABOVE 3000 HOLD AT HUUNT RIGHT TURN INBOUNDCOURSE 066 LEGDIST 4 FAF DADFY MAP RNW 25"
            },
            "transitions": [
                {
                    "name": "JEBIS",
                    "fixes": {
                        "JEBIS": "JEBIS"
                    }
                },
                {
                    "name": "NEWWT",
                    "fixes": {
                        "NEWWT": "NEWWT"
                    }
                },
                {
                    "name": "WAGIT",
                    "fixes": {
                        "WAGIT": "WAGIT RIGHT TURN INBOUNDCOURSE 247 ALT 3000 LEGDIST 4"
                    }
                }
            ]
        }
    ]
}