{
    "fixes": [
        {
            "name": "CETLA",
            "lat": 38.82856111666667,
            "lon": 78.42026666666666
        },
        {
            "name": "HUTUM",
            "lat": 38.7579,
            "lon": 78.64390833333333
        },
        {
            "name": "JULNU",
            "lat": 38.88078333333333,
            "lon": 78.57734166666667
        },
        {
            "name": "PAKBE",
            "lat": 38.664338883333336,
            "lon": 78.69442221666667
        },
        {
            "name": "UFEYA",
            "lat": 38.428863883333335,
            "lon": 78.80863056666666
        },
        {
            "name": "WIVUK",
            "lat": 38.595719433333336,
            "lon": 78.80982221666666
        },
        {
            "name": "YALUS",
            "lat": 38.9328,
            "lon": 78.73464443333333
        },
        {
            "name": "YOSUG",
            "lat": 38.53513888333333,
            "lon": 78.91135833333334
        },
        {
            "name": "ZEPUP",
            "lat": 38.64131943333334,
            "lon": 79.01438888333334
        }
    ],
    "rnws": [
        "RNW 06",
        "RNW 24"
    ],
    "sids": [],
    "stars": [],
    "approaches": [
        {
            "name": "RNAVA06",
            "fixes": {
                "YOSUG": "YOSUG AT OR ABOVE 5200 OVERFLY YOSUG AT OR ABOVE 6100 HOLD AT YOSUG RIGHT TURN INBOUNDCOURSE 063 LEGDIST 5 FAF WIVUK MAP RNW 06",
                "WIVUK": "WIVUK 3300 RNW 06 TRK 063 UNTIL 1363 TURN LEFT DIRECT"
            },
            "transitions": [
                {
                    "name": "UFEYA",
                    "fixes": {
                        "UFEYA": "UFEYA AT OR ABOVE 6300"
                    }
                },
                {
                    "name": "YOSUG",
                    "fixes": {
                        "YOSUG": "YOSUG RIGHT TURN INBOUNDCOURSE 063 ALT 5200 LEGDIST 5"
                    }
                },
                {
                    "name": "ZEPUP",
                    "fixes": {
                        "ZEPUP": "ZEPUP AT OR ABOVE 6800"
                    }
                }
            ]
        },
        {
            "name": "RNAVB06",
            "fixes": {
                "JULNU": "JULNU AT OR ABOVE 5700 OVERFLY JULNU AT OR ABOVE 5700 HOLD AT JULNU RIGHT TURN INBOUNDCOURSE 213 LEGDIST 5 FAF HUTUM MAP PAKBE",
                "HUTUM": "HUTUM 3700",
                "PAKBE": "OVERFLY PAKBE 1980 RNW 06 TRK 213 UNTIL 1980 TURN RIGHT DIRECT"
            },
            "transitions": [
                {
                    "name": "CETLA",
                    "fixes": {
                        "CETLA": "CETLA AT OR ABOVE 6300"
                    }
                },
                {
                    "name": "JULNU",
                    "fixes": {
                        "JULNU": "JULNU RIGHT TURN INBOUNDCOURSE 213 ALT 5700 LEGDIST 5"
                    }
                },
                {
                    "name": "YALUS",
                    "fixes": {
                        "YALUS": "YALUS AT OR ABOVE 7000"
                    }
                }
            ]
        },
        {
            "name": "RNAVB24",
            "fixes": {
                "JULNU": "JULNU AT OR ABOVE 5700 OVERFLY JULNU AT OR ABOVE 5700 HOLD AT JULNU RIGHT TURN INBOUNDCOURSE 213 LEGDIST 5 FAF HUTUM MAP PAKBE",
                "HUTUM": "HUTUM 3700",
                "PAKBE": "OVERFLY PAKBE 1980 RNW 24 TRK 213 UNTIL 1980 TURN RIGHT DIRECT"
            },
            "transitions": [
                {
                    "name": "CETLA",
                    "fixes": {
                        "CETLA": "CETLA AT OR ABOVE 6300"
                    }
                },
                {
                    "name": "JULNU",
                    "fixes": {
                        "JULNU": "JULNU RIGHT TURN INBOUNDCOURSE 213 ALT 5700 LEGDIST 5"
                    }
                },
                {
                    "name": "YALUS",
                    "fixes": {
                        "YALUS": "YALUS AT OR ABOVE 7000"
                    }
                }
            ]
        }
    ]
}