{
    "fixes": [
        {
            "name": "CUGUS",
            "lat": 33.37275278333333,
            "lon": 81.03085
        },
        {
            "name": "CUMOB",
            "lat": 33.10408888333333,
            "lon": 81.19841666666666
        },
        {
            "name": "HORIM",
            "lat": 33.23544166666667,
            "lon": 81.18678611666667
        },
        {
            "name": "HURVO",
            "lat": 33.44637778333333,
            "lon": 80.94694721666667
        },
        {
            "name": "JIKOM",
            "lat": 33.161636116666664,
            "lon": 81.27031666666667
        },
        {
            "name": "NUXUE",
            "lat": 33.504069433333335,
            "lon": 81.01896111666667
        },
        {
            "name": "WULKA",
            "lat": 33.38864443333333,
            "lon": 80.87503056666667
        },
        {
            "name": "YILDU",
            "lat": 33.219141666666665,
            "lon": 81.34231111666666
        },
        {
            "name": "ZODUG",
            "lat": 33.26710833333333,
            "lon": 81.15088611666667
        }
    ],
    "rnws": [
        "RNW 05",
        "RNW 23"
    ],
    "sids": [],
    "stars": [],
    "approaches": [
        {
            "name": "RNAV05",
            "fixes": {
                "JIKOM": "JIKOM AT OR ABOVE 2500",
                "HORIM": "HORIM 2000",
                "ZODUG": "ZODUG AT OR ABOVE 1140 RNW 05 TRK 051 UNTIL 631",
                "HURVO": "OVERFLY HURVO AT OR ABOVE 2500 HOLD AT HURVO RIGHT TURN INBOUNDCOURSE 231 LEGDIST 4 FAF HORIM MAP RNW 05"
            },
            "transitions": [
                {
                    "name": "CUMOB",
                    "fixes": {
                        "CUMOB": "CUMOB AT OR ABOVE 2500"
                    }
                },
                {
                    "name": "JIKOM",
                    "fixes": {
                        "JIKOM": "JIKOM RIGHT TURN INBOUNDCOURSE 051 ALT 2500 LEGDIST 4"
                    }
                },
                {
                    "name": "YILDU",
                    "fixes": {
                        "YILDU": "YILDU AT OR ABOVE 2500"
                    }
                }
            ]
        },
        {
            "name": "RNAV23",
            "fixes": {
                "HURVO": "HURVO AT OR ABOVE 2500",
                "CUGUS": "CUGUS 2000 RNW 23 TRK 231 UNTIL 631",
                "JIKOM": "OVERFLY JIKOM AT OR ABOVE 2500 HOLD AT JIKOM RIGHT TURN INBOUNDCOURSE 051 LEGDIST 4 FAF CUGUS MAP RNW 23"
            },
            "transitions": [
                {
                    "name": "HURVO",
                    "fixes": {
                        "HURVO": "HURVO RIGHT TURN INBOUNDCOURSE 231 ALT 2500 LEGDIST 4"
                    }
                },
                {
                    "name": "NUXUE",
                    "fixes": {
                        "NUXUE": "NUXUE AT OR ABOVE 2500"
                    }
                },
                {
                    "name": "WULKA",
                    "fixes": {
                        "WULKA": "WULKA AT OR ABOVE 2500"
                    }
                }
            ]
        }
    ]
}