{
    "fixes": [
        {
            "name": "ACK",
            "lat": 41.28188611666667,
            "lon": 70.02671111666666
        },
        {
            "name": "AFHAS",
            "lat": 41.19340556666667,
            "lon": 70.34603056666667
        },
        {
            "name": "BOMLY",
            "lat": 41.040338883333334,
            "lon": 70.14302778333334
        },
        {
            "name": "CEROD",
            "lat": 41.320363883333336,
            "lon": 70.14354166666666
        },
        {
            "name": "CLAMY",
            "lat": 41.17777778333333,
            "lon": 70.53526943333334
        },
        {
            "name": "CONDN",
            "lat": 41.016944433333336,
            "lon": 70.21361111666667
        },
        {
            "name": "CRACO",
            "lat": 41.54425,
            "lon": 70.1935
        },
        {
            "name": "CRAYG",
            "lat": 41.188155566666666,
            "lon": 70.15033333333334
        },
        {
            "name": "CUPNU",
            "lat": 41.316302783333335,
            "lon": 69.77664443333333
        },
        {
            "name": "DEEPO",
            "lat": 41.11498888333333,
            "lon": 70.83606943333334
        },
        {
            "name": "DUPKE",
            "lat": 41.115633333333335,
            "lon": 69.87284721666667
        },
        {
            "name": "EVPAW",
            "lat": 41.17970833333333,
            "lon": 69.78758056666666
        },
        {
            "name": "FARGU",
            "lat": 41.051375,
            "lon": 69.95810556666666
        },
        {
            "name": "GADRE",
            "lat": 41.22567778333333,
            "lon": 70.01802778333334
        },
        {
            "name": "GON",
            "lat": 41.330402783333334,
            "lon": 72.05198333333334
        },
        {
            "name": "HIKSO",
            "lat": 41.186138883333335,
            "lon": 69.96577778333334
        },
        {
            "name": "HOKEL",
            "lat": 41.402908333333336,
            "lon": 70.25341666666667
        },
        {
            "name": "HTO",
            "lat": 40.91899443333333,
            "lon": 72.31670556666667
        },
        {
            "name": "JOBAP",
            "lat": 41.328702783333334,
            "lon": 70.154625
        },
        {
            "name": "JORDN",
            "lat": 41.0547,
            "lon": 71.91462778333333
        },
        {
            "name": "KACK",
            "lat": 41.2533,
            "lon": 70.06051111666666
        },
        {
            "name": "LFV",
            "lat": 42.01718888333333,
            "lon": 70.03723333333333
        },
        {
            "name": "MINNK",
            "lat": 41.361297216666664,
            "lon": 71.42422221666666
        },
        {
            "name": "MVY",
            "lat": 41.39621388333333,
            "lon": 70.61271666666667
        },
        {
            "name": "NEWBE",
            "lat": 41.206775,
            "lon": 71.07414443333333
        },
        {
            "name": "OBUBE",
            "lat": 41.393177783333336,
            "lon": 69.87805556666666
        },
        {
            "name": "ORW",
            "lat": 41.55640278333333,
            "lon": 71.99935278333334
        },
        {
            "name": "PEAKE",
            "lat": 41.57079721666667,
            "lon": 70.40878056666666
        },
        {
            "name": "PI001",
            "lat": 41.32383501666666,
            "lon": 69.97275331666667
        },
        {
            "name": "PI002",
            "lat": 41.39549075,
            "lon": 69.97442063333334
        },
        {
            "name": "PI003",
            "lat": 41.401673116666664,
            "lon": 69.8723615
        },
        {
            "name": "PVD",
            "lat": 41.72434166666667,
            "lon": 71.42964166666667
        },
        {
            "name": "RIFLE",
            "lat": 40.69005,
            "lon": 72.58191388333333
        },
        {
            "name": "SALDY",
            "lat": 41.19715278333334,
            "lon": 69.98029166666667
        },
        {
            "name": "SEY",
            "lat": 41.167436116666664,
            "lon": 71.57608611666667
        },
        {
            "name": "TRAIT",
            "lat": 41.284652783333335,
            "lon": 71.91759721666666
        },
        {
            "name": "UFTAC",
            "lat": 41.116925,
            "lon": 70.24440278333333
        },
        {
            "name": "WAIVS",
            "lat": 41.31490556666667,
            "lon": 69.98230556666667
        },
        {
            "name": "WEBDI",
            "lat": 41.29102221666667,
            "lon": 70.10458888333334
        },
        {
            "name": "ZEDUP",
            "lat": 41.469963883333335,
            "lon": 69.97970556666667
        }
    ],
    "rnws": [
        "RNW 06",
        "RNW 15",
        "RNW 24",
        "RNW 33"
    ],
    "sids": [],
    "stars": [
        {
            "name": "DEEPO1",
            "runway": "RNW 06 RNW 15 RNW 24 RNW 33",
            "fixes": {
                "DEEPO": "DEEPO",
                "CONDN": "CONDN",
                "SALDY": "SALDY HDG 060 VECTORS"
            }
        },
        {
            "name": "NEWBE3",
            "runway": "RNW 06 RNW 15 RNW 24 RNW 33",
            "fixes": {
                "NEWBE": "NEWBE",
                "DEEPO": "DEEPO",
                "CLAMY": "CLAMY AT OR ABOVE 3000"
            }
        }
    ],
    "approaches": [
        {
            "name": "ILS06",
            "fixes": {
                "UFTAC": "UFTAC AT OR ABOVE 2300",
                "CRAYG": "CRAYG 1700 RNW 06 TRK 061 UNTIL 450",
                "ACK": "ACK AT OR ABOVE 1800 HOLD AT ACK RIGHT TURN INBOUNDCOURSE 241 ALT 1800 LEGTIME 1 FAF CRAYG MAP RNW 06"
            },
            "transitions": [
                {
                    "name": "ACK",
                    "fixes": {
                        "ACK": "ACK",
                        "UFTAC": "UFTAC AT OR ABOVE 2300 HOLD AT UFTAC RIGHT TURN INBOUNDCOURSE 061 ALT 2300 LEGTIME 1"
                    }
                },
                {
                    "name": "MVY",
                    "fixes": {
                        "MVY": "MVY"
                    }
                }
            ]
        },
        {
            "name": "ILS24",
            "fixes": {
                "OBUBE": "OBUBE AT OR ABOVE 2000",
                "WAIVS": "WAIVS 1600 RNW 24 TRK 241 UNTIL 450",
                "UFTAC": "UFTAC AT OR ABOVE 2300 HOLD AT UFTAC RIGHT TURN INBOUNDCOURSE 060 LEGTIME 1 FAF WAIVS MAP RNW 24"
            },
            "transitions": [
                {
                    "name": "ACK",
                    "fixes": {
                        "ACK": "ACK",
                        "OBUBE": "OBUBE AT OR ABOVE 2000 HOLD AT OBUBE RIGHT TURN INBOUNDCOURSE 241 ALT 2000 LEGTIME 1"
                    }
                }
            ]
        },
        {
            "name": "RNAV06",
            "fixes": {
                "UFTAC": "UFTAC AT OR ABOVE 2300",
                "CRAYG": "CRAYG 1700 RNW 06 TRK 061 UNTIL 238",
                "WAIVS": "OVERFLY WAIVS AT OR ABOVE 1800 HOLD AT WAIVS RIGHT TURN INBOUNDCOURSE 294 LEGDIST 4 FAF CRAYG MAP RNW 06"
            },
            "transitions": [
                {
                    "name": "ACK",
                    "fixes": {
                        "ACK": "ACK",
                        "UFTAC": "OVERFLY UFTAC AT OR ABOVE 2300 HOLD AT UFTAC RIGHT TURN INBOUNDCOURSE 061 ALT 2300 LEGDIST 4"
                    }
                },
                {
                    "name": "BOMLY",
                    "fixes": {
                        "BOMLY": "BOMLY"
                    }
                },
                {
                    "name": "MVY",
                    "fixes": {
                        "MVY": "MVY",
                        "AFHAS": "AFHAS AT OR ABOVE 2300"
                    }
                }
            ]
        },
        {
            "name": "RNAV15",
            "fixes": {
                "HOKEL": "HOKEL AT OR ABOVE 2000",
                "JOBAP": "JOBAP 2000",
                "WEBDI": "WEBDI AT OR ABOVE 980 RNW 15 TRK 151 UNTIL 295",
                "DUPKE": "OVERFLY DUPKE AT OR ABOVE 2300 HOLD AT DUPKE RIGHT TURN INBOUNDCOURSE 331 LEGDIST 4 FAF JOBAP MAP RNW 15"
            },
            "transitions": [
                {
                    "name": "CRACO",
                    "fixes": {
                        "CRACO": "CRACO"
                    }
                },
                {
                    "name": "MVY",
                    "fixes": {
                        "MVY": "MVY"
                    }
                },
                {
                    "name": "PEAKE",
                    "fixes": {
                        "PEAKE": "PEAKE"
                    }
                }
            ]
        },
        {
            "name": "RNAV24",
            "fixes": {
                "OBUBE": "OBUBE AT OR ABOVE 2000",
                "WAIVS": "WAIVS 1600 RNW 24 TRK 241 UNTIL 247",
                "UFTAC": "OVERFLY UFTAC AT OR ABOVE 2300 HOLD AT UFTAC RIGHT TURN INBOUNDCOURSE 061 LEGDIST 4 FAF WAIVS MAP RNW 24"
            },
            "transitions": [
                {
                    "name": "ACK",
                    "fixes": {
                        "ACK": "ACK",
                        "OBUBE": "OVERFLY OBUBE AT OR ABOVE 2000 HOLD AT OBUBE RIGHT TURN INBOUNDCOURSE 241 ALT 2000 LEGDIST 4"
                    }
                },
                {
                    "name": "CUPNU",
                    "fixes": {
                        "CUPNU": "CUPNU"
                    }
                },
                {
                    "name": "LFV",
                    "fixes": {
                        "LFV": "LFV",
                        "ZEDUP": "ZEDUP AT OR ABOVE 2000"
                    }
                }
            ]
        },
        {
            "name": "RNAV33",
            "fixes": {
                "DUPKE": "DUPKE AT OR ABOVE 2300",
                "HIKSO": "HIKSO 1800",
                "GADRE": "GADRE AT OR ABOVE 720 RNW 33 TRK 331 UNTIL 290",
                "CEROD": "CEROD",
                "CLAMY": "OVERFLY CLAMY AT OR ABOVE 2500 HOLD AT CLAMY LEFT TURN INBOUNDCOURSE 090 LEGDIST 4 FAF HIKSO MAP RNW 33"
            },
            "transitions": [
                {
                    "name": "ACK",
                    "fixes": {
                        "ACK": "ACK",
                        "DUPKE": "OVERFLY DUPKE AT OR ABOVE 2300 HOLD AT DUPKE RIGHT TURN INBOUNDCOURSE 331 ALT 2300 LEGDIST 4"
                    }
                },
                {
                    "name": "CLAMY",
                    "fixes": {
                        "CLAMY": "CLAMY",
                        "FARGU": "FARGU AT OR ABOVE 2500 SPEED 210"
                    }
                },
                {
                    "name": "LFV",
                    "fixes": {
                        "LFV": "LFV",
                        "EVPAW": "EVPAW AT OR ABOVE 2300 SPEED 210"
                    }
                }
            ]
        },
        {
            "name": "VOR24",
            "fixes": {
                "ACK": "ACK 800 RNW 24 TRK 240 UNTIL 700 HDG 310 INTERCEPT RADIAL 270 TO",
                "CLAMY": "CLAMY CLAMY AT OR ABOVE 2500 HOLD AT CLAMY LEFT TURN INBOUNDCOURSE 090 LEGTIME 1 FAF ACK MAP RNW 24"
            },
            "transitions": [
                {
                    "name": "ACK",
                    "fixes": {
                        "ACK": "ACK AT OR BELOW 6000",
                        "PI001": "PI001 AT OR ABOVE 1800 SPEED 210",
                        "PI002": "OVERFLY PI002 AT OR ABOVE 1800 SPEED 210",
                        "PI003": "PI003 AT OR ABOVE 1800 SPEED 210"
                    }
                }
            ]
        }
    ]
}