{
    "fixes": [
        {
            "name": "ADENA",
            "lat": 34.73299166666666,
            "lon": 81.54281943333334
        },
        {
            "name": "BIFFS",
            "lat": 34.470561116666666,
            "lon": 81.87741943333333
        },
        {
            "name": "CHPTR",
            "lat": 34.59299443333333,
            "lon": 81.44567221666667
        },
        {
            "name": "CILRU",
            "lat": 34.982163883333335,
            "lon": 80.05486943333334
        },
        {
            "name": "CIPOV",
            "lat": 35.060619433333336,
            "lon": 80.10026943333334
        },
        {
            "name": "CLRRY",
            "lat": 35.674308333333336,
            "lon": 82.18365278333333
        },
        {
            "name": "CLT",
            "lat": 35.19028888333333,
            "lon": 80.95175278333333
        },
        {
            "name": "CLT05",
            "lat": 35.259472216666666,
            "lon": 80.89485
        },
        {
            "name": "CLT10",
            "lat": 35.32862778333333,
            "lon": 80.83785
        },
        {
            "name": "DSTEE",
            "lat": 34.515338883333335,
            "lon": 79.96593056666667
        },
        {
            "name": "EYPAD",
            "lat": 34.520041666666664,
            "lon": 81.50539443333334
        },
        {
            "name": "FLO",
            "lat": 34.23296943333333,
            "lon": 79.65716111666667
        },
        {
            "name": "GIZMO",
            "lat": 35.54975,
            "lon": 80.65478888333334
        },
        {
            "name": "GRD",
            "lat": 34.25156666666667,
            "lon": 82.15415
        },
        {
            "name": "HMV",
            "lat": 36.437055566666665,
            "lon": 82.1296
        },
        {
            "name": "IRQ",
            "lat": 33.707352783333334,
            "lon": 82.16206388333333
        },
        {
            "name": "JALIT",
            "lat": 35.55986943333333,
            "lon": 81.88812778333333
        },
        {
            "name": "JORGA",
            "lat": 35.20602221666667,
            "lon": 80.184675
        },
        {
            "name": "KELLS",
            "lat": 36.586163883333334,
            "lon": 79.78616666666667
        },
        {
            "name": "LIB",
            "lat": 35.81162221666666,
            "lon": 79.61259166666666
        },
        {
            "name": "LIINN",
            "lat": 35.487977783333335,
            "lon": 81.70385278333333
        },
        {
            "name": "LOCKS",
            "lat": 34.92771943333333,
            "lon": 81.29241388333334
        },
        {
            "name": "LOOIE",
            "lat": 35.761144433333335,
            "lon": 81.94305278333333
        },
        {
            "name": "LUKES",
            "lat": 34.030875,
            "lon": 82.15737221666667
        },
        {
            "name": "LYH",
            "lat": 37.25457778333333,
            "lon": 79.23638056666667
        },
        {
            "name": "MAJIC",
            "lat": 35.81191388333333,
            "lon": 80.43610833333334
        },
        {
            "name": "MAYOS",
            "lat": 36.32656943333333,
            "lon": 79.99646943333333
        },
        {
            "name": "NOMOE",
            "lat": 34.88091943333333,
            "lon": 79.99643611666667
        },
        {
            "name": "OFOLY",
            "lat": 35.11078056666667,
            "lon": 80.12934721666667
        },
        {
            "name": "OPICU",
            "lat": 34.83288888333333,
            "lon": 79.96876943333334
        },
        {
            "name": "RASLN",
            "lat": 34.806463883333336,
            "lon": 80.28738888333334
        },
        {
            "name": "RODEZ",
            "lat": 34.64395278333333,
            "lon": 80.10755278333333
        },
        {
            "name": "RUZLY",
            "lat": 34.93515,
            "lon": 80.02771388333333
        },
        {
            "name": "SOT",
            "lat": 35.7901,
            "lon": 83.05236943333334
        },
        {
            "name": "SUDSY",
            "lat": 35.742955566666666,
            "lon": 80.49379443333333
        },
        {
            "name": "SYMCO",
            "lat": 33.99263333333333,
            "lon": 81.93331388333333
        },
        {
            "name": "UNARM",
            "lat": 34.65491111666667,
            "lon": 81.64271388333333
        },
        {
            "name": "VXV",
            "lat": 35.90483888333333,
            "lon": 83.89471943333334
        },
        {
            "name": "WHDRW",
            "lat": 34.82883888333333,
            "lon": 81.25175833333333
        },
        {
            "name": "WUUTN",
            "lat": 35.622180566666664,
            "lon": 82.19680278333334
        }
    ],
    "rnws": [
        "RNW 16",
        "RNW 34"
    ],
    "sids": [],
    "stars": [
        {
            "name": "CHPTR4",
            "runway": "RNW 16 RNW 34",
            "fixes": {
                "EYPAD": "EYPAD",
                "CHPTR": "CHPTR",
                "WHDRW": "WHDRW"
            }
        },
        {
            "name": "LIINN3",
            "runway": "RNW 16 RNW 34",
            "fixes": {
                "JALIT": "JALIT",
                "LIINN": "LIINN",
                "CLT": "CLT"
            }
        },
        {
            "name": "MAJIC4",
            "runway": "RNW 16 RNW 34",
            "fixes": {
                "MAJIC": "MAJIC",
                "SUDSY": "SUDSY",
                "GIZMO": "GIZMO",
                "CLT10": "CLT10",
                "CLT05": "CLT05",
                "CLT": "CLT"
            }
        },
        {
            "name": "RASLN3",
            "runway": "RNW 16 RNW 34",
            "fixes": {
                "RASLN": "RASLN",
                "CLT": "CLT AT OR ABOVE 3000"
            }
        },
        {
            "name": "UNARM7",
            "runway": "RNW 16 RNW 34",
            "fixes": {
                "UNARM": "UNARM",
                "ADENA": "ADENA",
                "LOCKS": "LOCKS",
                "CLT": "CLT"
            }
        }
    ],
    "approaches": [
        {
            "name": "ILS34",
            "fixes": {
                "NOMOE": "NOMOE 3000 NOMOE NOMOE AT OR ABOVE 3000 HOLD AT NOMOE RIGHT TURN INBOUNDCOURSE 342 LEGTIME 1 FAF RUZLY MAP RNW 34",
                "RUZLY": "RUZLY 2000 RNW 34 TRK 342 UNTIL 1000 TURN LEFT HDG 120 INTERCEPT RADIAL 162 TO"
            },
            "transitions": [
                {
                    "name": "NOMOE",
                    "fixes": {
                        "NOMOE": "NOMOE RIGHT TURN INBOUNDCOURSE 342 ALT 3000 LEGTIME 1"
                    }
                }
            ]
        },
        {
            "name": "RNAV16",
            "fixes": {
                "JORGA": "JORGA AT OR ABOVE 3000",
                "OFOLY": "OFOLY 2100",
                "CIPOV": "CIPOV AT OR ABOVE 1040 RNW 16 TRK 162 UNTIL 680",
                "OPICU": "OVERFLY OPICU AT OR ABOVE 3000 HOLD AT OPICU RIGHT TURN INBOUNDCOURSE 342 LEGDIST 4 FAF OFOLY MAP RNW 16"
            },
            "transitions": [
                {
                    "name": "JORGA",
                    "fixes": {
                        "JORGA": "JORGA RIGHT TURN INBOUNDCOURSE 161 ALT 3000 LEGDIST 4"
                    }
                }
            ]
        },
        {
            "name": "RNAV34",
            "fixes": {
                "OPICU": "OPICU AT OR ABOVE 3000",
                "RUZLY": "RUZLY 2000",
                "CILRU": "CILRU AT OR ABOVE 1000 RNW 34 TRK 342 UNTIL 556",
                "JORGA": "OVERFLY JORGA AT OR ABOVE 3000 HOLD AT JORGA RIGHT TURN INBOUNDCOURSE 161 LEGDIST 4 FAF RUZLY MAP RNW 34"
            },
            "transitions": [
                {
                    "name": "OPICU",
                    "fixes": {
                        "OPICU": "OPICU RIGHT TURN INBOUNDCOURSE 342 ALT 3000 LEGDIST 4"
                    }
                }
            ]
        }
    ]
}