{
    "fixes": [
        {
            "name": "ABR",
            "lat": 45.417355566666664,
            "lon": 98.36871943333334
        },
        {
            "name": "AF001",
            "lat": 45.29437046666666,
            "lon": 92.87157451666667
        },
        {
            "name": "AF002",
            "lat": 45.25015321666667,
            "lon": 92.84977243333333
        },
        {
            "name": "AGUDE",
            "lat": 45.12935556666667,
            "lon": 92.39194166666667
        },
        {
            "name": "ALO",
            "lat": 42.55649721666666,
            "lon": 92.398925
        },
        {
            "name": "ALOCK",
            "lat": 42.59008611666667,
            "lon": 93.42873056666667
        },
        {
            "name": "ARREX",
            "lat": 44.425730566666665,
            "lon": 94.142775
        },
        {
            "name": "AXN",
            "lat": 45.958388883333335,
            "lon": 95.23263611666667
        },
        {
            "name": "BAE",
            "lat": 43.116852783333336,
            "lon": 88.28434443333333
        },
        {
            "name": "BEERI",
            "lat": 43.76916666666666,
            "lon": 89.41395
        },
        {
            "name": "BLAYN",
            "lat": 45.31406666666667,
            "lon": 92.88592778333333
        },
        {
            "name": "BOKYA",
            "lat": 45.14351943333333,
            "lon": 93.07926943333334
        },
        {
            "name": "CASNS",
            "lat": 44.771425,
            "lon": 94.55086111666667
        },
        {
            "name": "CINCI",
            "lat": 45.386822216666665,
            "lon": 92.85395556666667
        },
        {
            "name": "CIRAP",
            "lat": 45.14586666666667,
            "lon": 93.34983056666667
        },
        {
            "name": "CORDY",
            "lat": 44.12371666666667,
            "lon": 92.82978056666667
        },
        {
            "name": "COULT",
            "lat": 44.556625,
            "lon": 92.20843888333333
        },
        {
            "name": "D079W",
            "lat": 45.17782221666667,
            "lon": 92.83333056666666
        },
        {
            "name": "DLL",
            "lat": 43.55083333333333,
            "lon": 89.76362221666666
        },
        {
            "name": "DOCKN",
            "lat": 45.462102783333336,
            "lon": 93.39073056666666
        },
        {
            "name": "DOKTR",
            "lat": 44.258077783333334,
            "lon": 92.92247778333333
        },
        {
            "name": "DOZXU",
            "lat": 45.21115833333333,
            "lon": 93.20888333333333
        },
        {
            "name": "DWIYT",
            "lat": 45.30337778333333,
            "lon": 92.28756666666666
        },
        {
            "name": "DWN",
            "lat": 45.087463883333335,
            "lon": 94.45385
        },
        {
            "name": "EAU",
            "lat": 44.897669433333334,
            "lon": 91.47853611666666
        },
        {
            "name": "ENCEE",
            "lat": 44.586719433333336,
            "lon": 95.43330278333333
        },
        {
            "name": "FAR",
            "lat": 46.75333611666667,
            "lon": 96.85131943333333
        },
        {
            "name": "FGT",
            "lat": 44.630952783333335,
            "lon": 93.18205278333333
        },
        {
            "name": "FOBUG",
            "lat": 44.422211116666666,
            "lon": 93.03629443333334
        },
        {
            "name": "FSD",
            "lat": 43.64949166666667,
            "lon": 96.781125
        },
        {
            "name": "FUDGE",
            "lat": 45.067575,
            "lon": 93.58105833333333
        },
        {
            "name": "GEP",
            "lat": 45.14568611666667,
            "lon": 93.37318056666666
        },
        {
            "name": "GOLLF",
            "lat": 45.75363611666667,
            "lon": 93.69950278333333
        },
        {
            "name": "GRB",
            "lat": 44.55516111666667,
            "lon": 88.19485833333333
        },
        {
            "name": "HOMUR",
            "lat": 45.41821111666667,
            "lon": 94.07680556666666
        },
        {
            "name": "HRBEK",
            "lat": 45.31453056666667,
            "lon": 93.80699166666666
        },
        {
            "name": "HUFFR",
            "lat": 45.14684166666667,
            "lon": 93.49157221666667
        },
        {
            "name": "HUGIR",
            "lat": 44.701205566666665,
            "lon": 93.6159
        },
        {
            "name": "INUNE",
            "lat": 45.016775,
            "lon": 93.992325
        },
        {
            "name": "JEDET",
            "lat": 44.46128888333333,
            "lon": 92.72794166666667
        },
        {
            "name": "JONNA",
            "lat": 44.821002783333334,
            "lon": 93.70421111666667
        },
        {
            "name": "JUDAL",
            "lat": 45.14086388333333,
            "lon": 92.83164721666667
        },
        {
            "name": "JURNY",
            "lat": 44.60865,
            "lon": 93.47236943333333
        },
        {
            "name": "KANE",
            "lat": 45.14488888333333,
            "lon": 93.21019443333333
        },
        {
            "name": "KBREW",
            "lat": 45.58435278333333,
            "lon": 94.51478056666667
        },
        {
            "name": "KEWTY",
            "lat": 44.646936116666666,
            "lon": 93.42203611666666
        },
        {
            "name": "KGEEE",
            "lat": 43.749036116666666,
            "lon": 93.50791388333333
        },
        {
            "name": "KOGGE",
            "lat": 45.1441,
            "lon": 93.13989721666667
        },
        {
            "name": "LMFRY",
            "lat": 44.370730566666666,
            "lon": 91.85046943333333
        },
        {
            "name": "LYNKS",
            "lat": 44.114875,
            "lon": 93.47324721666666
        },
        {
            "name": "MAYER",
            "lat": 44.917991666666666,
            "lon": 93.97474443333333
        },
        {
            "name": "MCONL",
            "lat": 44.583425,
            "lon": 93.84229443333334
        },
        {
            "name": "MCW",
            "lat": 43.09475833333333,
            "lon": 93.32987221666667
        },
        {
            "name": "MLHOF",
            "lat": 44.82294721666667,
            "lon": 94.29768056666667
        },
        {
            "name": "MSP",
            "lat": 44.8965,
            "lon": 93.23653056666667
        },
        {
            "name": "ODI",
            "lat": 43.91233056666667,
            "lon": 91.46751666666667
        },
        {
            "name": "OLLEE",
            "lat": 45.535525,
            "lon": 93.581525
        },
        {
            "name": "ONTIJ",
            "lat": 43.29763333333333,
            "lon": 94.51290556666666
        },
        {
            "name": "ORSKY",
            "lat": 43.669758333333334,
            "lon": 94.22303333333333
        },
        {
            "name": "PEDLN",
            "lat": 44.20266111666667,
            "lon": 93.80038888333333
        },
        {
            "name": "PI001",
            "lat": 45.14158728333334,
            "lon": 93.45567953333334
        },
        {
            "name": "PI002",
            "lat": 45.0874804,
            "lon": 93.52227416666666
        },
        {
            "name": "PI003",
            "lat": 45.13381763333334,
            "lon": 93.60886008333334
        },
        {
            "name": "RAZMU",
            "lat": 44.2341,
            "lon": 95.94810833333334
        },
        {
            "name": "RIXIE",
            "lat": 44.85476666666667,
            "lon": 94.13946388333333
        },
        {
            "name": "ROBBY",
            "lat": 44.075780566666666,
            "lon": 89.96044721666667
        },
        {
            "name": "RST",
            "lat": 43.782902783333334,
            "lon": 92.59696111666666
        },
        {
            "name": "RUMLE",
            "lat": 44.42128056666667,
            "lon": 93.62441666666666
        },
        {
            "name": "RUNRR",
            "lat": 45.31281943333333,
            "lon": 93.20716943333333
        },
        {
            "name": "RXANN",
            "lat": 43.99795556666667,
            "lon": 94.94226111666667
        },
        {
            "name": "SAUGR",
            "lat": 45.34845833333333,
            "lon": 93.48116943333333
        },
        {
            "name": "SCHEP",
            "lat": 44.247286116666665,
            "lon": 94.47879166666667
        },
        {
            "name": "SNINE",
            "lat": 45.251877783333335,
            "lon": 92.65080278333333
        },
        {
            "name": "SODIE",
            "lat": 45.36874443333333,
            "lon": 93.87141943333333
        },
        {
            "name": "STILS",
            "lat": 45.134394433333334,
            "lon": 92.64478333333334
        },
        {
            "name": "TAXEE",
            "lat": 44.70258056666667,
            "lon": 92.49265556666667
        },
        {
            "name": "THATS",
            "lat": 45.106394433333335,
            "lon": 91.47268888333333
        },
        {
            "name": "TRGET",
            "lat": 44.23127221666667,
            "lon": 93.462125
        },
        {
            "name": "TWOLF",
            "lat": 43.31662778333333,
            "lon": 93.54833056666666
        },
        {
            "name": "VYKES",
            "lat": 45.03666666666667,
            "lon": 93.31416666666667
        },
        {
            "name": "WENNR",
            "lat": 46.244497216666666,
            "lon": 95.19868056666667
        },
        {
            "name": "WHISK",
            "lat": 45.13988056666667,
            "lon": 92.96214443333334
        },
        {
            "name": "WLSTN",
            "lat": 45.47401111666667,
            "lon": 91.01535278333333
        },
        {
            "name": "WOOOD",
            "lat": 44.69133611666667,
            "lon": 94.93819443333334
        },
        {
            "name": "ZMBRO",
            "lat": 44.341661116666664,
            "lon": 92.4485
        }
    ],
    "rnws": [
        "RNW 09",
        "RNW 18",
        "RNW 27",
        "RNW 36"
    ],
    "sids": [
        {
            "name": "COULT7",
            "rnw": "15",
            "fixes": {
                "TAXEE": "TAXEE",
                "COULT": "COULT"
            },
            "sub_fixes": [
                {
                    "rwy": "RNW 09",
                    "fixes": {
                        "RNW 09": "RNW 09 HDG 089 VECTORS"
                    }
                },
                {
                    "rwy": "RNW 18",
                    "fixes": {
                        "RNW 18": "RNW 18 HDG 179 VECTORS"
                    }
                },
                {
                    "rwy": "RNW 27",
                    "fixes": {
                        "RNW 27": "RNW 27 HDG 269 VECTORS"
                    }
                },
                {
                    "rwy": "RNW 36",
                    "fixes": {
                        "RNW 36": "RNW 36 HDG 359 VECTORS"
                    }
                }
            ],
            "transitions": [
                {
                    "name": "DLL",
                    "fixes": [
                        "LMFRY",
                        "DLL"
                    ]
                }
            ]
        },
        {
            "name": "DWN8",
            "rnw": "15",
            "fixes": {
                "MSP": "MSP",
                "INUNE": "INUNE",
                "DWN": "DWN"
            },
            "sub_fixes": [
                {
                    "rwy": "RNW 09",
                    "fixes": {
                        "RNW 09": "RNW 09 HDG 089 VECTORS"
                    }
                },
                {
                    "rwy": "RNW 18",
                    "fixes": {
                        "RNW 18": "RNW 18 HDG 179 VECTORS"
                    }
                },
                {
                    "rwy": "RNW 27",
                    "fixes": {
                        "RNW 27": "RNW 27 HDG 269 VECTORS"
                    }
                },
                {
                    "rwy": "RNW 36",
                    "fixes": {
                        "RNW 36": "RNW 36 HDG 359 VECTORS"
                    }
                }
            ],
            "transitions": [
                {
                    "name": "ABR",
                    "fixes": [
                        "ABR"
                    ]
                }
            ]
        },
        {
            "name": "KBREW1",
            "rnw": "15",
            "fixes": {
                "GEP": "GEP",
                "HRBEK": "HRBEK",
                "HOMUR": "HOMUR",
                "KBREW": "KBREW AT OR ABOVE 14000"
            },
            "sub_fixes": [
                {
                    "rwy": "RNW 09",
                    "fixes": {
                        "RNW 09": "RNW 09 HDG 089 VECTORS"
                    }
                },
                {
                    "rwy": "RNW 18",
                    "fixes": {
                        "RNW 18": "RNW 18 HDG 179 VECTORS"
                    }
                },
                {
                    "rwy": "RNW 27",
                    "fixes": {
                        "RNW 27": "RNW 27 HDG 269 VECTORS"
                    }
                },
                {
                    "rwy": "RNW 36",
                    "fixes": {
                        "RNW 36": "RNW 36 HDG 359 VECTORS"
                    }
                }
            ],
            "transitions": [
                {
                    "name": "FAR",
                    "fixes": [
                        "FAR"
                    ]
                }
            ]
        },
        {
            "name": "ORSKY3",
            "rnw": "15",
            "fixes": {},
            "sub_fixes": [
                {
                    "rwy": "RNW 09",
                    "fixes": {
                        "RNW 09": "RNW 09 HDG 089 VECTORS",
                        "JURNY": "JURNY",
                        "RUMLE": "RUMLE",
                        "PEDLN": "PEDLN AT OR ABOVE 9000",
                        "ORSKY": "ORSKY AT OR ABOVE 9000"
                    }
                },
                {
                    "rwy": "RNW 18",
                    "fixes": {
                        "RNW 18": "RNW 18 HDG 179 VECTORS",
                        "JURNY": "JURNY",
                        "RUMLE": "RUMLE",
                        "PEDLN": "PEDLN AT OR ABOVE 9000",
                        "ORSKY": "ORSKY AT OR ABOVE 9000"
                    }
                },
                {
                    "rwy": "RNW 27",
                    "fixes": {
                        "RNW 27": "RNW 27 HDG 269 VECTORS",
                        "JURNY": "JURNY",
                        "RUMLE": "RUMLE",
                        "PEDLN": "PEDLN AT OR ABOVE 9000",
                        "ORSKY": "ORSKY AT OR ABOVE 9000"
                    }
                },
                {
                    "rwy": "RNW 36",
                    "fixes": {
                        "RNW 36": "RNW 36 HDG 359 VECTORS",
                        "JURNY": "JURNY",
                        "RUMLE": "RUMLE",
                        "PEDLN": "PEDLN AT OR ABOVE 9000",
                        "ORSKY": "ORSKY AT OR ABOVE 9000"
                    }
                }
            ],
            "transitions": [
                {
                    "name": "ONTIJ",
                    "fixes": [
                        "ONTIJ"
                    ]
                }
            ]
        },
        {
            "name": "RST1",
            "rnw": "15",
            "fixes": {
                "FGT": "FGT",
                "FOBUG": "FOBUG AT OR ABOVE 4000",
                "DOKTR": "DOKTR",
                "CORDY": "CORDY",
                "RST": "RST"
            },
            "sub_fixes": [
                {
                    "rwy": "RNW 09",
                    "fixes": {
                        "RNW 09": "RNW 09 HDG 089 VECTORS"
                    }
                },
                {
                    "rwy": "RNW 18",
                    "fixes": {
                        "RNW 18": "RNW 18 HDG 179 VECTORS"
                    }
                },
                {
                    "rwy": "RNW 27",
                    "fixes": {
                        "RNW 27": "RNW 27 HDG 269 VECTORS"
                    }
                },
                {
                    "rwy": "RNW 36",
                    "fixes": {
                        "RNW 36": "RNW 36 HDG 359 VECTORS"
                    }
                }
            ],
            "transitions": [
                {
                    "name": "ALO",
                    "fixes": [
                        "ALO"
                    ]
                }
            ]
        },
        {
            "name": "SCHEP1",
            "rnw": "15",
            "fixes": {},
            "sub_fixes": [
                {
                    "rwy": "RNW 09",
                    "fixes": {
                        "RNW 09": "RNW 09 HDG 089 VECTORS",
                        "HUGIR": "HUGIR",
                        "MCONL": "MCONL",
                        "ARREX": "ARREX",
                        "SCHEP": "SCHEP"
                    }
                },
                {
                    "rwy": "RNW 18",
                    "fixes": {
                        "RNW 18": "RNW 18 HDG 179 VECTORS",
                        "HUGIR": "HUGIR",
                        "MCONL": "MCONL",
                        "ARREX": "ARREX",
                        "SCHEP": "SCHEP"
                    }
                },
                {
                    "rwy": "RNW 27",
                    "fixes": {
                        "RNW 27": "RNW 27 HDG 269 VECTORS",
                        "HUGIR": "HUGIR",
                        "MCONL": "MCONL",
                        "ARREX": "ARREX",
                        "SCHEP": "SCHEP"
                    }
                },
                {
                    "rwy": "RNW 36",
                    "fixes": {
                        "RNW 36": "RNW 36 HDG 359 VECTORS",
                        "HUGIR": "HUGIR",
                        "MCONL": "MCONL",
                        "ARREX": "ARREX",
                        "SCHEP": "SCHEP"
                    }
                }
            ],
            "transitions": [
                {
                    "name": "RXANN",
                    "fixes": [
                        "RXANN"
                    ]
                }
            ]
        },
        {
            "name": "WLSTN7",
            "rnw": "15",
            "fixes": {},
            "sub_fixes": [
                {
                    "rwy": "RNW 09",
                    "fixes": {
                        "RNW 09": "RNW 09 HDG 089 VECTORS",
                        "SNINE": "SNINE",
                        "DWIYT": "DWIYT",
                        "WLSTN": "WLSTN"
                    }
                },
                {
                    "rwy": "RNW 18",
                    "fixes": {
                        "RNW 18": "RNW 18 HDG 179 VECTORS",
                        "SNINE": "SNINE",
                        "DWIYT": "DWIYT",
                        "WLSTN": "WLSTN"
                    }
                },
                {
                    "rwy": "RNW 27",
                    "fixes": {
                        "RNW 27": "RNW 27 HDG 269 VECTORS",
                        "SNINE": "SNINE",
                        "DWIYT": "DWIYT",
                        "WLSTN": "WLSTN"
                    }
                },
                {
                    "rwy": "RNW 36",
                    "fixes": {
                        "RNW 36": "RNW 36 HDG 359 VECTORS",
                        "SNINE": "SNINE",
                        "DWIYT": "DWIYT",
                        "WLSTN": "WLSTN"
                    }
                }
            ],
            "transitions": [
                {
                    "name": "GRB",
                    "fixes": [
                        "GRB"
                    ]
                }
            ]
        },
        {
            "name": "ZMBRO7",
            "rnw": "15",
            "fixes": {
                "MSP": "MSP",
                "JEDET": "JEDET AT OR ABOVE 4000",
                "ZMBRO": "ZMBRO"
            },
            "sub_fixes": [
                {
                    "rwy": "RNW 09",
                    "fixes": {
                        "RNW 09": "RNW 09 HDG 089 VECTORS"
                    }
                },
                {
                    "rwy": "RNW 18",
                    "fixes": {
                        "RNW 18": "RNW 18 HDG 179 VECTORS"
                    }
                },
                {
                    "rwy": "RNW 27",
                    "fixes": {
                        "RNW 27": "RNW 27 HDG 269 VECTORS"
                    }
                },
                {
                    "rwy": "RNW 36",
                    "fixes": {
                        "RNW 36": "RNW 36 HDG 359 VECTORS"
                    }
                }
            ],
            "transitions": [
                {
                    "name": "ODI",
                    "fixes": [
                        "ODI"
                    ]
                }
            ]
        }
    ],
    "stars": [
        {
            "name": "AGUDE5",
            "runway": "RNW 09 RNW 18 RNW 27 RNW 36",
            "fixes": {
                "AGUDE": "AGUDE",
                "STILS": "STILS",
                "WHISK": "WHISK",
                "GEP": "OVERFLY GEP TRK 265 VECTORS"
            }
        },
        {
            "name": "ENCEE2",
            "runway": "RNW 09 RNW 18 RNW 27 RNW 36",
            "fixes": {
                "ENCEE": "ENCEE",
                "WOOOD": "WOOOD",
                "CASNS": "CASNS",
                "MLHOF": "MLHOF",
                "RIXIE": "RIXIE",
                "MAYER": "MAYER",
                "FUDGE": "FUDGE",
                "GEP": "OVERFLY GEP HDG 060 VECTORS"
            }
        },
        {
            "name": "GEP1",
            "runway": "RNW 09 RNW 18 RNW 27 RNW 36",
            "fixes": {
                "GOLLF": "GOLLF",
                "OLLEE": "OLLEE",
                "SAUGR": "SAUGR",
                "GEP": "GEP",
                "VYKES": "OVERFLY VYKES"
            }
        },
        {
            "name": "TWOLF4",
            "runway": "RNW 09 RNW 18 RNW 27 RNW 36",
            "fixes": {
                "TWOLF": "TWOLF",
                "KGEEE": "KGEEE",
                "LYNKS": "LYNKS",
                "TRGET": "TRGET AT OR BELOW 8000 AT OR ABOVE 7000",
                "KEWTY": "KEWTY 5000"
            }
        }
    ],
    "approaches": [
        {
            "name": "ILS27",
            "fixes": {
                "JUDAL": "JUDAL AT OR ABOVE 3100",
                "BOKYA": "BOKYA 2600 RNW 27 TRK 269 UNTIL 1320",
                "GEP": "GEP AT OR ABOVE 2700 HOLD AT GEP RIGHT TURN INBOUNDCOURSE 084 ALT 2700 LEGTIME 1 FAF BOKYA MAP RNW 27"
            },
            "transitions": [
                {
                    "name": "BLAYN",
                    "fixes": {
                        "BLAYN": "BLAYN",
                        "AF001": "AF001",
                        "AF002": "AF002",
                        "D079W": "D079W AT OR ABOVE 3100"
                    }
                },
                {
                    "name": "STILS",
                    "fixes": {
                        "STILS": "STILS HDG 276 INTERCEPT RADIAL 269 TO",
                        "JUDAL": "JUDAL"
                    }
                }
            ]
        },
        {
            "name": "RNAV09",
            "fixes": {
                "HUFFR": "HUFFR AT OR ABOVE 3000",
                "CIRAP": "CIRAP 2700 RNW 09 TRK 089 UNTIL 1225",
                "JUDAL": "OVERFLY JUDAL AT OR ABOVE 3100 HOLD AT JUDAL RIGHT TURN INBOUNDCOURSE 269 LEGDIST 4 FAF CIRAP MAP RNW 09"
            },
            "transitions": [
                {
                    "name": "JONNA",
                    "fixes": {
                        "JONNA": "JONNA"
                    }
                },
                {
                    "name": "SODIE",
                    "fixes": {
                        "SODIE": "SODIE"
                    }
                }
            ]
        },
        {
            "name": "RNAV18",
            "fixes": {
                "RUNRR": "RUNRR AT OR ABOVE 2600 OVERFLY RUNRR AT OR ABOVE 2600 HOLD AT RUNRR RIGHT TURN INBOUNDCOURSE 179 LEGDIST 4 FAF DOZXU MAP RNW 18",
                "DOZXU": "DOZXU 2100 RNW 18 TRK 179 UNTIL 1312 TURN LEFT DIRECT"
            },
            "transitions": [
                {
                    "name": "CINCI",
                    "fixes": {
                        "CINCI": "CINCI"
                    }
                },
                {
                    "name": "DOCKN",
                    "fixes": {
                        "DOCKN": "DOCKN"
                    }
                },
                {
                    "name": "GEP",
                    "fixes": {
                        "GEP": "GEP",
                        "RUNRR": "OVERFLY RUNRR AT OR ABOVE 2600 HOLD AT RUNRR RIGHT TURN INBOUNDCOURSE 179 ALT 2600 LEGDIST 4"
                    }
                }
            ]
        },
        {
            "name": "RNAV27",
            "fixes": {
                "JUDAL": "JUDAL AT OR ABOVE 3100",
                "BOKYA": "BOKYA 2600",
                "KOGGE": "KOGGE AT OR ABOVE 1780 RNW 27 TRK 269 UNTIL 1110",
                "GEP": "OVERFLY GEP AT OR ABOVE 2700 HOLD AT GEP RIGHT TURN INBOUNDCOURSE 085 ALT 2700 LEGDIST 4 FAF BOKYA MAP RNW 27"
            },
            "transitions": [
                {
                    "name": "JUDAL",
                    "fixes": {
                        "JUDAL": "JUDAL RIGHT TURN INBOUNDCOURSE 269 ALT 3100 LEGDIST 4"
                    }
                },
                {
                    "name": "STILS",
                    "fixes": {
                        "STILS": "STILS"
                    }
                }
            ]
        },
        {
            "name": "VOR09",
            "fixes": {
                "GEP": "GEP 3000 RNW 09 TRK 084 UNTIL 1320 TURN LEFT DIRECT GEP AT OR ABOVE 3000 HOLD AT GEP RIGHT TURN INBOUNDCOURSE 084 LEGTIME 1 FAF GEP MAP RNW 09"
            },
            "transitions": [
                {
                    "name": "GEP",
                    "fixes": {
                        "PI001": "PI001 AT OR ABOVE 3000 SPEED 210",
                        "PI002": "OVERFLY PI002 AT OR ABOVE 3000 SPEED 210",
                        "PI003": "PI003 AT OR ABOVE 3000 SPEED 210"
                    }
                }
            ]
        }
    ]
}