{
    "fixes": [
        {
            "name": "BODYS",
            "lat": 40.7069,
            "lon": 84.13575278333333
        },
        {
            "name": "BUZZI",
            "lat": 40.53440833333333,
            "lon": 83.76098611666667
        },
        {
            "name": "CFCCF",
            "lat": 40.70668611666667,
            "lon": 83.80501666666666
        },
        {
            "name": "CUBOB",
            "lat": 40.588791666666665,
            "lon": 84.30470556666667
        },
        {
            "name": "DIYZO",
            "lat": 40.70667778333333,
            "lon": 83.80041666666666
        },
        {
            "name": "FBC",
            "lat": 40.955333333333336,
            "lon": 83.756025
        },
        {
            "name": "FIPVA",
            "lat": 40.70693333333333,
            "lon": 84.08065833333333
        },
        {
            "name": "JINAK",
            "lat": 40.965411116666665,
            "lon": 84.24316943333334
        },
        {
            "name": "LINZZ",
            "lat": 40.80625833333333,
            "lon": 84.1034
        },
        {
            "name": "PI001",
            "lat": 40.70686333333333,
            "lon": 83.85954878333334
        },
        {
            "name": "PI002",
            "lat": 40.656168083333334,
            "lon": 83.79274971666666
        },
        {
            "name": "PI003",
            "lat": 40.70668033333333,
            "lon": 83.71663981666667
        },
        {
            "name": "UCAYU",
            "lat": 40.706636116666665,
            "lon": 84.30502221666667
        },
        {
            "name": "WEVIG",
            "lat": 40.706888883333335,
            "lon": 83.9365
        },
        {
            "name": "ZAMAK",
            "lat": 40.823377783333335,
            "lon": 84.30547778333333
        }
    ],
    "rnws": [
        "RNW 10",
        "RNW 28"
    ],
    "sids": [],
    "stars": [],
    "approaches": [
        {
            "name": "ILS28",
            "fixes": {
                "CFCCF": "CFCCF AT OR ABOVE 2700",
                "WEVIG": "WEVIG 2200 RNW 28 HDG 276 INTERCEPT RADIAL 000 TO",
                "LINZZ": "LINZZ LINZZ AT OR ABOVE 3000 HOLD AT LINZZ RIGHT TURN INBOUNDCOURSE 000 LEGTIME 1 FAF WEVIG MAP RNW 28"
            },
            "transitions": [
                {
                    "name": "FBC",
                    "fixes": {
                        "FBC": "FBC",
                        "WEVIG": "WEVIG AT OR ABOVE 2700",
                        "PI001": "PI001 AT OR ABOVE 2700 SPEED 210",
                        "PI002": "OVERFLY PI002 AT OR ABOVE 2700 SPEED 210",
                        "PI003": "PI003 AT OR ABOVE 2700 SPEED 210"
                    }
                }
            ]
        },
        {
            "name": "RNAV10",
            "fixes": {
                "UCAYU": "UCAYU AT OR ABOVE 3000",
                "BODYS": "BODYS 2400",
                "FIPVA": "FIPVA AT OR ABOVE 1580 RNW 10 TRK 096 UNTIL 1211",
                "DIYZO": "OVERFLY DIYZO AT OR ABOVE 3000 HOLD AT DIYZO RIGHT TURN INBOUNDCOURSE 276 LEGDIST 4 FAF BODYS MAP RNW 10"
            },
            "transitions": [
                {
                    "name": "CUBOB",
                    "fixes": {
                        "CUBOB": "CUBOB"
                    }
                },
                {
                    "name": "JINAK",
                    "fixes": {
                        "JINAK": "JINAK",
                        "ZAMAK": "ZAMAK AT OR ABOVE 3000"
                    }
                },
                {
                    "name": "UCAYU",
                    "fixes": {
                        "UCAYU": "UCAYU RIGHT TURN INBOUNDCOURSE 096 ALT 3000 LEGDIST 4"
                    }
                }
            ]
        },
        {
            "name": "RNAV28",
            "fixes": {
                "DIYZO": "DIYZO AT OR ABOVE 3000",
                "WEVIG": "WEVIG 2200 RNW 28 TRK 276 UNTIL 1175",
                "UCAYU": "OVERFLY UCAYU AT OR ABOVE 3000 HOLD AT UCAYU RIGHT TURN INBOUNDCOURSE 096 LEGDIST 4 FAF WEVIG MAP RNW 28"
            },
            "transitions": [
                {
                    "name": "BUZZI",
                    "fixes": {
                        "BUZZI": "BUZZI"
                    }
                },
                {
                    "name": "DIYZO",
                    "fixes": {
                        "DIYZO": "DIYZO RIGHT TURN INBOUNDCOURSE 276 ALT 3000 LEGDIST 4"
                    }
                },
                {
                    "name": "FBC",
                    "fixes": {
                        "FBC": "FBC"
                    }
                }
            ]
        }
    ]
}