{
    "fixes": [
        {
            "name": "ADMIT",
            "lat": 34.686761116666666,
            "lon": 85.53217221666667
        },
        {
            "name": "CUKVA",
            "lat": 34.984325,
            "lon": 85.6292
        },
        {
            "name": "CUYAS",
            "lat": 35.081130566666666,
            "lon": 85.57922778333334
        },
        {
            "name": "FARAD",
            "lat": 35.386875,
            "lon": 85.4263
        },
        {
            "name": "GEKEF",
            "lat": 34.961613883333335,
            "lon": 85.64090833333333
        },
        {
            "name": "GICEG",
            "lat": 34.90083056666667,
            "lon": 85.78223333333334
        },
        {
            "name": "GQO",
            "lat": 34.961275,
            "lon": 85.15336943333334
        },
        {
            "name": "HINIV",
            "lat": 34.83568056666667,
            "lon": 85.59574443333334
        },
        {
            "name": "ITIYO",
            "lat": 35.05039721666667,
            "lon": 85.59509166666666
        },
        {
            "name": "NOGIC",
            "lat": 35.31581666666667,
            "lon": 85.90629166666666
        },
        {
            "name": "OSEPE",
            "lat": 34.868291666666664,
            "lon": 85.68895278333333
        },
        {
            "name": "ZIPOP",
            "lat": 34.91593888333333,
            "lon": 85.66443888333333
        }
    ],
    "rnws": [
        "RNW 04",
        "RNW 22"
    ],
    "sids": [],
    "stars": [],
    "approaches": [
        {
            "name": "RNAV04",
            "fixes": {
                "ZIPOP": "ZIPOP AT OR ABOVE 3100",
                "GEKEF": "GEKEF 2700",
                "CUKVA": "CUKVA AT OR ABOVE 2240",
                "ITIYO": "OVERFLY ITIYO 841 RNW 04 TRK 025 UNTIL 1500",
                "CUYAS": "CUYAS",
                "FARAD": "OVERFLY FARAD AT OR ABOVE 4000 HOLD AT FARAD RIGHT TURN INBOUNDCOURSE 024 LEGDIST 5 FAF GEKEF MAP ITIYO"
            },
            "transitions": [
                {
                    "name": "ADMIT",
                    "fixes": {
                        "ADMIT": "ADMIT",
                        "HINIV": "HINIV AT OR ABOVE 4000",
                        "OSEPE": "OSEPE AT OR ABOVE 3200"
                    }
                },
                {
                    "name": "GQO",
                    "fixes": {
                        "GQO": "GQO",
                        "HINIV": "HINIV AT OR ABOVE 4000",
                        "OSEPE": "OSEPE AT OR ABOVE 3200"
                    }
                },
                {
                    "name": "NOGIC",
                    "fixes": {
                        "NOGIC": "NOGIC",
                        "GICEG": "GICEG AT OR ABOVE 4000",
                        "OSEPE": "OSEPE AT OR ABOVE 3200"
                    }
                }
            ]
        }
    ]
}