{
    "fixes": [
        {
            "name": "ADINY",
            "lat": 39.247813883333336,
            "lon": 106.88061111666667
        },
        {
            "name": "AER33",
            "lat": 39.21158056666667,
            "lon": 106.86331943333333
        },
        {
            "name": "AF001",
            "lat": 39.49820056666667,
            "lon": 106.93524081666666
        },
        {
            "name": "AF002",
            "lat": 39.493944066666664,
            "lon": 106.94423198333334
        },
        {
            "name": "AF003",
            "lat": 39.50326318333333,
            "lon": 106.87014111666667
        },
        {
            "name": "AF004",
            "lat": 39.50584855,
            "lon": 106.88865325
        },
        {
            "name": "AF005",
            "lat": 39.505278133333334,
            "lon": 106.90745193333333
        },
        {
            "name": "AF006",
            "lat": 39.47431975,
            "lon": 106.8211731
        },
        {
            "name": "AF007",
            "lat": 39.48755381666667,
            "lon": 106.83503686666667
        },
        {
            "name": "AJAXX",
            "lat": 39.50779721666667,
            "lon": 107.00534166666667
        },
        {
            "name": "ALLIX",
            "lat": 39.33958056666667,
            "lon": 106.88429721666667
        },
        {
            "name": "BEYAD",
            "lat": 39.29471388333333,
            "lon": 106.92705833333333
        },
        {
            "name": "BOYET",
            "lat": 39.281030566666665,
            "lon": 106.88462221666667
        },
        {
            "name": "BULDG",
            "lat": 39.626305566666666,
            "lon": 106.31375
        },
        {
            "name": "CEYAG",
            "lat": 39.272747216666666,
            "lon": 106.89254166666667
        },
        {
            "name": "D309D",
            "lat": 39.49118611666667,
            "lon": 106.94887221666667
        },
        {
            "name": "DBL",
            "lat": 39.43934443333333,
            "lon": 106.89468056666666
        },
        {
            "name": "DOYPE",
            "lat": 39.32059443333333,
            "lon": 106.91543056666667
        },
        {
            "name": "EKR",
            "lat": 40.06744166666667,
            "lon": 107.92495
        },
        {
            "name": "FIMSO",
            "lat": 39.35029721666667,
            "lon": 106.92966666666666
        },
        {
            "name": "GLENO",
            "lat": 39.34773333333333,
            "lon": 107.36891388333333
        },
        {
            "name": "HEPEB",
            "lat": 39.38115,
            "lon": 106.88861943333333
        },
        {
            "name": "ILOME",
            "lat": 39.26233056666667,
            "lon": 106.87946943333333
        },
        {
            "name": "IVKEF",
            "lat": 39.49613611666667,
            "lon": 106.84948888333334
        },
        {
            "name": "JARGU",
            "lat": 39.41470556666667,
            "lon": 106.96056943333333
        },
        {
            "name": "JESIE",
            "lat": 40.02353333333333,
            "lon": 106.87542221666666
        },
        {
            "name": "JNC",
            "lat": 39.05956666666667,
            "lon": 108.792575
        },
        {
            "name": "JOSAN",
            "lat": 39.28377221666667,
            "lon": 106.8978
        },
        {
            "name": "KIBEY",
            "lat": 39.29681943333333,
            "lon": 106.95810833333333
        },
        {
            "name": "KICER",
            "lat": 39.38,
            "lon": 106.94391388333334
        },
        {
            "name": "KYACK",
            "lat": 39.32379443333333,
            "lon": 106.91695278333333
        },
        {
            "name": "LIFTT",
            "lat": 39.45298056666667,
            "lon": 106.97892221666666
        },
        {
            "name": "LINDZ",
            "lat": 39.38876388333333,
            "lon": 107.15791666666667
        },
        {
            "name": "MAFMU",
            "lat": 39.256444433333336,
            "lon": 106.87566943333333
        },
        {
            "name": "NALDY",
            "lat": 39.40958333333333,
            "lon": 107.04999166666667
        },
        {
            "name": "ONCAP",
            "lat": 39.31504721666667,
            "lon": 106.91276111666667
        },
        {
            "name": "PACES",
            "lat": 39.16583333333333,
            "lon": 108.27878056666667
        },
        {
            "name": "PITKN",
            "lat": 39.368011116666665,
            "lon": 107.11819443333333
        },
        {
            "name": "RAFTR",
            "lat": 39.30346943333333,
            "lon": 106.907225
        },
        {
            "name": "RF001",
            "lat": 39.278270733333336,
            "lon": 106.88819595
        },
        {
            "name": "RF002",
            "lat": 39.28975846666667,
            "lon": 106.90495896666667
        },
        {
            "name": "RF003",
            "lat": 39.29901651666667,
            "lon": 106.9747392
        },
        {
            "name": "RF004",
            "lat": 39.30315115,
            "lon": 106.99072796666667
        },
        {
            "name": "RF005",
            "lat": 39.37617136666667,
            "lon": 107.13784671666667
        },
        {
            "name": "RF006",
            "lat": 39.38098171666667,
            "lon": 107.15952283333333
        },
        {
            "name": "RF007",
            "lat": 39.38219915,
            "lon": 107.1820205
        },
        {
            "name": "RIKOC",
            "lat": 39.24616666666667,
            "lon": 106.87983056666667
        },
        {
            "name": "RIL",
            "lat": 39.528322216666666,
            "lon": 107.71965833333333
        },
        {
            "name": "RLG",
            "lat": 40.00263888333333,
            "lon": 106.44248888333334
        },
        {
            "name": "RW15",
            "lat": 39.232175,
            "lon": 106.87314721666667
        },
        {
            "name": "SITWO",
            "lat": 39.483294433333334,
            "lon": 106.96568333333333
        },
        {
            "name": "SLOLM",
            "lat": 39.296813883333336,
            "lon": 107.62775
        },
        {
            "name": "SXW",
            "lat": 39.629477783333336,
            "lon": 106.99116943333334
        },
        {
            "name": "TIKET",
            "lat": 39.38732778333333,
            "lon": 106.9474
        },
        {
            "name": "WASLO",
            "lat": 39.35933611666667,
            "lon": 106.976975
        },
        {
            "name": "WEPRU",
            "lat": 39.31079166666667,
            "lon": 107.00892221666666
        },
        {
            "name": "WERNR",
            "lat": 39.547958333333334,
            "lon": 106.67128611666666
        },
        {
            "name": "WIDMI",
            "lat": 39.258752783333335,
            "lon": 106.88584166666666
        },
        {
            "name": "WOKUV",
            "lat": 39.45515,
            "lon": 106.81106943333333
        },
        {
            "name": "XTREM",
            "lat": 39.339427783333335,
            "lon": 106.92443888333334
        },
        {
            "name": "ZAKOR",
            "lat": 39.5028,
            "lon": 106.92129721666667
        },
        {
            "name": "ZAKRY",
            "lat": 39.37976666666667,
            "lon": 107.20437778333333
        }
    ],
    "rnws": [
        "RNW 15",
        "RNW 33"
    ],
    "sids": [
        {
            "name": "ASPE7",
            "rnw": "33",
            "fixes": {},
            "sub_fixes": [],
            "transitions": []
        },
        {
            "name": "COZY1",
            "rnw": "33",
            "fixes": {
                "LINDZ": "LINDZ"
            },
            "sub_fixes": [],
            "transitions": []
        },
        {
            "name": "GLENO3",
            "rnw": "33",
            "fixes": {
                "AER33": "AER33",
                "RW15": "RW15",
                "ILOME": "ILOME SPEED 180",
                "RF001": "RF001",
                "RF002": "RF002",
                "BEYAD": "BEYAD SPEED 180",
                "KIBEY": "KIBEY SPEED 200",
                "RF003": "RF003",
                "RF004": "RF004",
                "WEPRU": "WEPRU SPEED 200",
                "PITKN": "PITKN SPEED 200",
                "RF005": "RF005",
                "RF006": "RF006",
                "RF007": "RF007",
                "ZAKRY": "ZAKRY SPEED 200",
                "GLENO": "GLENO 14000"
            },
            "sub_fixes": [],
            "transitions": []
        },
        {
            "name": "LINDZ9",
            "rnw": "33",
            "fixes": {
                "LINDZ": "LINDZ AT OR ABOVE 16000"
            },
            "sub_fixes": [],
            "transitions": [
                {
                    "name": "DBL",
                    "fixes": [
                        "DBL"
                    ]
                },
                {
                    "name": "EKR",
                    "fixes": [
                        "SLOLM",
                        "RIL",
                        "EKR"
                    ]
                },
                {
                    "name": "JNC",
                    "fixes": [
                        "SLOLM",
                        "PACES",
                        "JNC"
                    ]
                },
                {
                    "name": "RIL",
                    "fixes": [
                        "SLOLM",
                        "RIL"
                    ]
                },
                {
                    "name": "RLG",
                    "fixes": [
                        "SXW",
                        "JESIE",
                        "RLG"
                    ]
                }
            ]
        },
        {
            "name": "PITKN4",
            "rnw": "33",
            "fixes": {
                "ADINY": "ADINY AT OR ABOVE 8320",
                "BOYET": "BOYET",
                "LINDZ": "LINDZ",
                "GLENO": "GLENO AT OR ABOVE 16000"
            },
            "sub_fixes": [],
            "transitions": [
                {
                    "name": "EKR",
                    "fixes": [
                        "SLOLM",
                        "RIL",
                        "EKR"
                    ]
                },
                {
                    "name": "JNC",
                    "fixes": [
                        "SLOLM",
                        "JNC"
                    ]
                },
                {
                    "name": "RIL",
                    "fixes": [
                        "SLOLM",
                        "RIL"
                    ]
                }
            ]
        },
        {
            "name": "SARDD3",
            "rnw": "33",
            "fixes": {
                "LINDZ": "LINDZ LEFT TURN INBOUNDCOURSE 064 ALT 16000 LEGTIME 1"
            },
            "sub_fixes": [],
            "transitions": []
        }
    ],
    "stars": [],
    "approaches": [
        {
            "name": "LOC15",
            "fixes": {
                "LIFTT": "LIFTT AT OR ABOVE 13600",
                "TIKET": "TIKET 12300",
                "XTREM": "XTREM AT OR ABOVE 10800",
                "KYACK": "KYACK AT OR ABOVE 10300",
                "RAFTR": "RAFTR AT OR ABOVE 9700",
                "CEYAG": "CEYAG 8760 RNW 15",
                "RIKOC": "OVERFLY RIKOC TURN RIGHT DIRECT",
                "LINDZ": "LINDZ",
                "GLENO": "GLENO AT OR ABOVE 14200 HOLD AT GLENO LEFT TURN INBOUNDCOURSE 064 LEGTIME 1 FAF TIKET MAP CEYAG"
            },
            "transitions": [
                {
                    "name": "AJAXX",
                    "fixes": {
                        "AJAXX": "AJAXX"
                    }
                },
                {
                    "name": "BULDG",
                    "fixes": {
                        "BULDG": "BULDG",
                        "WERNR": "WERNR AT OR ABOVE 16500",
                        "ZAKOR": "ZAKOR 14000 SPEED 190",
                        "AF001": "AF001",
                        "AF002": "AF002",
                        "D309D": "D309D AT OR ABOVE 13600"
                    }
                },
                {
                    "name": "IVKEF",
                    "fixes": {
                        "IVKEF": "IVKEF 14000 SPEED 190",
                        "AF003": "AF003",
                        "AF004": "AF004",
                        "AF005": "AF005",
                        "ZAKOR": "ZAKOR 14000 SPEED 190",
                        "AF001": "AF001",
                        "AF002": "AF002",
                        "D309D": "D309D AT OR ABOVE 13600"
                    }
                },
                {
                    "name": "WOKUV",
                    "fixes": {
                        "WOKUV": "WOKUV 14000 SPEED 190",
                        "AF006": "AF006",
                        "AF007": "AF007",
                        "IVKEF": "IVKEF 14000 SPEED 190",
                        "AF003": "AF003",
                        "AF004": "AF004",
                        "AF005": "AF005",
                        "ZAKOR": "ZAKOR 14000 SPEED 190",
                        "AF001": "AF001",
                        "AF002": "AF002",
                        "D309D": "D309D AT OR ABOVE 13600"
                    }
                }
            ]
        },
        {
            "name": "LOCE15",
            "fixes": {
                "FIMSO": "FIMSO AT OR ABOVE 12300",
                "DOYPE": "DOYPE 11700",
                "CEYAG": "CEYAG 9554 RNW 15 TURN RIGHT HDG 300 INTERCEPT RADIAL 303 TO",
                "LINDZ": "LINDZ LINDZ",
                "GLENO": "GLENO AT OR ABOVE 14000 HOLD AT GLENO LEFT TURN INBOUNDCOURSE 064 LEGTIME 1 FAF DOYPE MAP CEYAG"
            },
            "transitions": [
                {
                    "name": "AJAXX",
                    "fixes": {
                        "AJAXX": "AJAXX",
                        "JARGU": "JARGU AT OR ABOVE 13400",
                        "KICER": "KICER AT OR ABOVE 12900"
                    }
                },
                {
                    "name": "DBL",
                    "fixes": {
                        "DBL": "DBL",
                        "JARGU": "JARGU AT OR ABOVE 13400",
                        "KICER": "KICER AT OR ABOVE 12900"
                    }
                }
            ]
        },
        {
            "name": "LOCE33",
            "fixes": {
                "FIMSO": "FIMSO AT OR ABOVE 12300",
                "DOYPE": "DOYPE 11700",
                "CEYAG": "CEYAG 9554 RNW 33 TURN RIGHT HDG 300 INTERCEPT RADIAL 303 TO",
                "LINDZ": "LINDZ LINDZ",
                "GLENO": "GLENO AT OR ABOVE 14000 HOLD AT GLENO LEFT TURN INBOUNDCOURSE 064 LEGTIME 1 FAF DOYPE MAP CEYAG"
            },
            "transitions": [
                {
                    "name": "AJAXX",
                    "fixes": {
                        "AJAXX": "AJAXX",
                        "JARGU": "JARGU AT OR ABOVE 13400",
                        "KICER": "KICER AT OR ABOVE 12900"
                    }
                },
                {
                    "name": "DBL",
                    "fixes": {
                        "DBL": "DBL",
                        "JARGU": "JARGU AT OR ABOVE 13400",
                        "KICER": "KICER AT OR ABOVE 12900"
                    }
                }
            ]
        },
        {
            "name": "RNAVF15",
            "fixes": {
                "DBL": "DBL AT OR ABOVE 13700",
                "HEPEB": "HEPEB AT OR ABOVE 12900",
                "ALLIX": "ALLIX 12200",
                "MAFMU": "OVERFLY MAFMU 8745 RNW 15 TURN RIGHT DIRECT",
                "LINDZ": "LINDZ SPEED 190",
                "GLENO": "OVERFLY GLENO AT OR ABOVE 14000 HOLD AT GLENO LEFT TURN INBOUNDCOURSE 067 LEGDIST 8 FAF ALLIX MAP MAFMU"
            },
            "transitions": [
                {
                    "name": "DBL",
                    "fixes": {
                        "DBL": "DBL RIGHT TURN INBOUNDCOURSE 166 ALT 13700 LEGDIST 8"
                    }
                }
            ]
        },
        {
            "name": "RNAVZ15",
            "fixes": {
                "WASLO": "WASLO AT OR ABOVE 11900",
                "ONCAP": "ONCAP 10800",
                "JOSAN": "JOSAN AT OR ABOVE 9920",
                "WIDMI": "OVERFLY WIDMI 8861 RNW 15 TURN RIGHT DIRECT",
                "LINDZ": "OVERFLY LINDZ AT OR ABOVE 14000 HOLD AT LINDZ LEFT TURN INBOUNDCOURSE 067 LEGDIST 8 FAF ONCAP MAP WIDMI"
            },
            "transitions": [
                {
                    "name": "DBL",
                    "fixes": {
                        "DBL": "DBL",
                        "SITWO": "SITWO AT OR ABOVE 14000",
                        "NALDY": "NALDY AT OR ABOVE 13000"
                    }
                },
                {
                    "name": "LINDZ",
                    "fixes": {
                        "LINDZ": "LINDZ",
                        "NALDY": "NALDY AT OR ABOVE 13000"
                    }
                }
            ]
        },
        {
            "name": "RNAVF33",
            "fixes": {
                "DBL": "DBL AT OR ABOVE 13700",
                "HEPEB": "HEPEB AT OR ABOVE 12900",
                "ALLIX": "ALLIX 12200",
                "MAFMU": "OVERFLY MAFMU 8745 RNW 33 TURN RIGHT DIRECT",
                "LINDZ": "LINDZ SPEED 190",
                "GLENO": "OVERFLY GLENO AT OR ABOVE 14000 HOLD AT GLENO LEFT TURN INBOUNDCOURSE 067 LEGDIST 8 FAF ALLIX MAP MAFMU"
            },
            "transitions": [
                {
                    "name": "DBL",
                    "fixes": {
                        "DBL": "DBL RIGHT TURN INBOUNDCOURSE 166 ALT 13700 LEGDIST 8"
                    }
                }
            ]
        }
    ]
}