{
    "fixes": [
        {
            "name": "AF001",
            "lat": 36.293022216666664,
            "lon": 93.96644178333334
        },
        {
            "name": "AF002",
            "lat": 36.322828200000004,
            "lon": 93.9858309
        },
        {
            "name": "AF003",
            "lat": 36.347767166666664,
            "lon": 94.01388068333333
        },
        {
            "name": "AF004",
            "lat": 36.29247651666667,
            "lon": 94.27659178333333
        },
        {
            "name": "AF005",
            "lat": 36.336444533333335,
            "lon": 94.24342436666667
        },
        {
            "name": "AF006",
            "lat": 36.36700105,
            "lon": 94.19202416666667
        },
        {
            "name": "BARKK",
            "lat": 35.80258056666667,
            "lon": 94.21745556666667
        },
        {
            "name": "BEDVE",
            "lat": 36.265444433333336,
            "lon": 94.10557221666667
        },
        {
            "name": "CASKS",
            "lat": 35.77166388333333,
            "lon": 93.83958333333334
        },
        {
            "name": "CATEX",
            "lat": 36.25992778333333,
            "lon": 93.95738333333334
        },
        {
            "name": "CITGA",
            "lat": 36.54035556666667,
            "lon": 93.91535278333333
        },
        {
            "name": "D022H",
            "lat": 36.36641111666667,
            "lon": 94.04901666666666
        },
        {
            "name": "D353H",
            "lat": 36.379761116666664,
            "lon": 94.13003056666666
        },
        {
            "name": "ESOVE",
            "lat": 35.977161116666664,
            "lon": 94.04627221666667
        },
        {
            "name": "FITAL",
            "lat": 36.36498056666667,
            "lon": 94.09025
        },
        {
            "name": "HAPOD",
            "lat": 36.08702778333333,
            "lon": 94.13294443333334
        },
        {
            "name": "JAMDO",
            "lat": 36.24251111666667,
            "lon": 94.28615278333334
        },
        {
            "name": "JATUM",
            "lat": 36.37526666666667,
            "lon": 94.19265
        },
        {
            "name": "PINNE",
            "lat": 36.5185,
            "lon": 94.26423333333334
        },
        {
            "name": "RZC",
            "lat": 36.24642778333333,
            "lon": 94.12139166666667
        },
        {
            "name": "SUMMO",
            "lat": 35.98354166666667,
            "lon": 94.44055556666666
        },
        {
            "name": "TEEUP",
            "lat": 36.375802783333334,
            "lon": 93.91736943333333
        },
        {
            "name": "TINSE",
            "lat": 36.377302783333334,
            "lon": 94.08834166666666
        },
        {
            "name": "WARIT",
            "lat": 36.35460833333333,
            "lon": 93.98787778333333
        },
        {
            "name": "WELAD",
            "lat": 35.99770278333333,
            "lon": 94.25008333333334
        },
        {
            "name": "WESTY",
            "lat": 35.97632778333333,
            "lon": 93.96058611666666
        },
        {
            "name": "WOVAD",
            "lat": 36.25635556666667,
            "lon": 94.10696943333333
        },
        {
            "name": "ZAVOR",
            "lat": 35.987475,
            "lon": 94.14816388333334
        }
    ],
    "rnws": [
        "RNW 18",
        "RNW 36"
    ],
    "sids": [
        {
            "name": "ASG5",
            "rnw": "32",
            "fixes": {},
            "sub_fixes": [
                {
                    "rwy": "RNW 18",
                    "fixes": {
                        "RNW 18": "RNW 18 HDG 183 UNTIL 1900 HDG 120 VECTORS"
                    }
                },
                {
                    "rwy": "RNW 36",
                    "fixes": {
                        "RNW 36": "RNW 36 HDG 003 UNTIL 1760 HDG 003 VECTORS"
                    }
                }
            ],
            "transitions": []
        }
    ],
    "stars": [],
    "approaches": [
        {
            "name": "ILS18",
            "fixes": {
                "TINSE": "TINSE AT OR ABOVE 4000",
                "WOVAD": "WOVAD 2800 RNW 18 TRK 183 UNTIL 2300 HDG 120 INTERCEPT RADIAL 150 TO",
                "WESTY": "WESTY WESTY AT OR ABOVE 4000 HOLD AT WESTY RIGHT TURN INBOUNDCOURSE 330 LEGTIME 1 FAF WOVAD MAP RNW 18"
            },
            "transitions": [
                {
                    "name": "CATEX",
                    "fixes": {
                        "CATEX": "CATEX",
                        "AF001": "AF001",
                        "AF002": "AF002",
                        "AF003": "AF003",
                        "D022H": "D022H AT OR ABOVE 4000"
                    }
                },
                {
                    "name": "JAMDO",
                    "fixes": {
                        "JAMDO": "JAMDO",
                        "AF004": "AF004",
                        "AF005": "AF005",
                        "AF006": "AF006",
                        "D353H": "D353H AT OR ABOVE 4000"
                    }
                },
                {
                    "name": "RZC",
                    "fixes": {
                        "RZC": "RZC",
                        "TINSE": "TINSE AT OR ABOVE 4000 HOLD AT TINSE LEFT TURN INBOUNDCOURSE 183 ALT 4000 LEGTIME 1"
                    }
                }
            ]
        },
        {
            "name": "RNAV18",
            "fixes": {
                "FITAL": "FITAL AT OR ABOVE 3300",
                "BEDVE": "BEDVE 3000 RNW 18 TRK 183 UNTIL 1630",
                "ZAVOR": "OVERFLY ZAVOR AT OR ABOVE 3800 HOLD AT ZAVOR RIGHT TURN INBOUNDCOURSE 003 LEGDIST 4 FAF BEDVE MAP RNW 18"
            },
            "transitions": [
                {
                    "name": "CITGA",
                    "fixes": {
                        "CITGA": "CITGA"
                    }
                },
                {
                    "name": "PINNE",
                    "fixes": {
                        "PINNE": "PINNE",
                        "JATUM": "JATUM AT OR ABOVE 3300"
                    }
                },
                {
                    "name": "RZC",
                    "fixes": {
                        "RZC": "RZC",
                        "FITAL": "OVERFLY FITAL AT OR ABOVE 3300 HOLD AT FITAL RIGHT TURN INBOUNDCOURSE 183 ALT 3300 LEGDIST 4"
                    }
                },
                {
                    "name": "TEEUP",
                    "fixes": {
                        "TEEUP": "TEEUP",
                        "WARIT": "WARIT AT OR ABOVE 3300"
                    }
                }
            ]
        },
        {
            "name": "RNAV36",
            "fixes": {
                "ZAVOR": "ZAVOR AT OR ABOVE 3800",
                "HAPOD": "HAPOD 3000 RNW 36 TRK 003 UNTIL 1602",
                "FITAL": "OVERFLY FITAL AT OR ABOVE 3300 HOLD AT FITAL RIGHT TURN INBOUNDCOURSE 183 LEGDIST 4 FAF HAPOD MAP RNW 36"
            },
            "transitions": [
                {
                    "name": "BARKK",
                    "fixes": {
                        "BARKK": "BARKK"
                    }
                },
                {
                    "name": "CASKS",
                    "fixes": {
                        "CASKS": "CASKS",
                        "ESOVE": "ESOVE AT OR ABOVE 4100"
                    }
                },
                {
                    "name": "RZC",
                    "fixes": {
                        "RZC": "RZC",
                        "ZAVOR": "OVERFLY ZAVOR AT OR ABOVE 3800 HOLD AT ZAVOR RIGHT TURN INBOUNDCOURSE 003 ALT 3800 LEGDIST 4"
                    }
                },
                {
                    "name": "SUMMO",
                    "fixes": {
                        "SUMMO": "SUMMO",
                        "WELAD": "WELAD AT OR ABOVE 3800"
                    }
                }
            ]
        }
    ]
}