{
    "fixes": [
        {
            "name": "BIDKY",
            "lat": 36.503419433333335,
            "lon": 77.91452221666667
        },
        {
            "name": "BRERR",
            "lat": 36.599144433333336,
            "lon": 78.04983333333334
        },
        {
            "name": "HARVY",
            "lat": 36.74616666666667,
            "lon": 78.47193888333334
        },
        {
            "name": "MACBE",
            "lat": 36.643075,
            "lon": 78.05211666666666
        },
        {
            "name": "OVOBE",
            "lat": 36.731833333333334,
            "lon": 78.05673611666667
        },
        {
            "name": "PAYEN",
            "lat": 36.87022221666667,
            "lon": 78.19493333333334
        },
        {
            "name": "RDU",
            "lat": 35.87252221666667,
            "lon": 78.78334166666667
        },
        {
            "name": "TYI",
            "lat": 35.976725,
            "lon": 77.70373056666666
        },
        {
            "name": "USHEE",
            "lat": 36.87904721666666,
            "lon": 77.93343333333334
        },
        {
            "name": "WUKMU",
            "lat": 36.49909721666667,
            "lon": 78.04464443333333
        },
        {
            "name": "WUSKE",
            "lat": 36.77466388333333,
            "lon": 78.05896666666666
        },
        {
            "name": "YACNE",
            "lat": 36.87470556666667,
            "lon": 78.06419166666667
        },
        {
            "name": "YEKUC",
            "lat": 36.49463333333333,
            "lon": 78.17476666666667
        }
    ],
    "rnws": [
        "RNW 01",
        "RNW 19"
    ],
    "sids": [],
    "stars": [],
    "approaches": [
        {
            "name": "LOC01",
            "fixes": {
                "WUKMU": "WUKMU AT OR ABOVE 3000",
                "BRERR": "BRERR 2000",
                "MACBE": "MACBE AT OR ABOVE 1140 RNW 01 TRK 007 UNTIL 900 HDG 310 INTERCEPT RADIAL 266 TO",
                "HARVY": "HARVY HARVY AT OR ABOVE 3000 HOLD AT HARVY LEFT TURN INBOUNDCOURSE 266 LEGTIME 1 FAF BRERR MAP RNW 01"
            },
            "transitions": [
                {
                    "name": "RDU",
                    "fixes": {
                        "RDU": "RDU AT OR ABOVE 3000 TRK 052 UNTIL 47.9 FROM RDU"
                    }
                },
                {
                    "name": "TYI",
                    "fixes": {
                        "TYI": "TYI"
                    }
                },
                {
                    "name": "WUKMU",
                    "fixes": {
                        "WUKMU": "WUKMU RIGHT TURN INBOUNDCOURSE 007 ALT 3000 LEGTIME 1"
                    }
                }
            ]
        },
        {
            "name": "RNAV01",
            "fixes": {
                "WUKMU": "WUKMU AT OR ABOVE 3000",
                "BRERR": "BRERR 2000",
                "MACBE": "MACBE AT OR ABOVE 1160 RNW 01 TRK 007 UNTIL 900 TURN RIGHT DIRECT",
                "BIDKY": "OVERFLY BIDKY AT OR ABOVE 3000 HOLD AT BIDKY RIGHT TURN INBOUNDCOURSE 277 LEGDIST 4 FAF BRERR MAP RNW 01"
            },
            "transitions": [
                {
                    "name": "BIDKY",
                    "fixes": {
                        "BIDKY": "BIDKY"
                    }
                },
                {
                    "name": "WUKMU",
                    "fixes": {
                        "WUKMU": "WUKMU RIGHT TURN INBOUNDCOURSE 007 ALT 3000 LEGDIST 4"
                    }
                },
                {
                    "name": "YEKUC",
                    "fixes": {
                        "YEKUC": "YEKUC"
                    }
                }
            ]
        },
        {
            "name": "RNAV19",
            "fixes": {
                "YACNE": "YACNE AT OR ABOVE 3000",
                "WUSKE": "WUSKE 2000",
                "OVOBE": "OVOBE AT OR ABOVE 1180 RNW 19 TRK 187 UNTIL 900 TURN LEFT DIRECT",
                "USHEE": "OVERFLY USHEE AT OR ABOVE 3000 HOLD AT USHEE LEFT TURN INBOUNDCOURSE 277 LEGDIST 4 FAF WUSKE MAP RNW 19"
            },
            "transitions": [
                {
                    "name": "PAYEN",
                    "fixes": {
                        "PAYEN": "PAYEN"
                    }
                },
                {
                    "name": "USHEE",
                    "fixes": {
                        "USHEE": "USHEE"
                    }
                },
                {
                    "name": "YACNE",
                    "fixes": {
                        "YACNE": "YACNE RIGHT TURN INBOUNDCOURSE 187 ALT 3000 LEGDIST 4"
                    }
                }
            ]
        }
    ]
}