{
    "fixes": [
        {
            "name": "AFPAM",
            "lat": 36.41579443333333,
            "lon": 92.97402778333333
        },
        {
            "name": "ASUKE",
            "lat": 36.49806388333333,
            "lon": 93.17106111666666
        },
        {
            "name": "BABVE",
            "lat": 36.32030556666667,
            "lon": 93.14328056666666
        },
        {
            "name": "CADAN",
            "lat": 36.30056666666667,
            "lon": 93.00052778333334
        },
        {
            "name": "DGD",
            "lat": 37.02346943333333,
            "lon": 92.87692221666667
        },
        {
            "name": "DILME",
            "lat": 36.45425,
            "lon": 93.13313888333333
        },
        {
            "name": "HRO",
            "lat": 36.318308333333334,
            "lon": 93.21327221666667
        },
        {
            "name": "UYULA",
            "lat": 36.36808056666667,
            "lon": 93.05870556666666
        },
        {
            "name": "VUCUG",
            "lat": 36.61177778333333,
            "lon": 93.26974443333333
        },
        {
            "name": "WUTIB",
            "lat": 36.72182778333333,
            "lon": 93.36558888333333
        }
    ],
    "rnws": [
        "RNW 14",
        "RNW 32"
    ],
    "sids": [],
    "stars": [],
    "approaches": [
        {
            "name": "ILS32",
            "fixes": {
                "UYULA": "UYULA AT OR ABOVE 4000",
                "DILME": "DILME 3000 RNW 32 TRK 323 UNTIL 1710 HDG 315 INTERCEPT RADIAL 339 TO",
                "WUTIB": "WUTIB WUTIB AT OR ABOVE 4000 HOLD AT WUTIB RIGHT TURN INBOUNDCOURSE 159 LEGTIME 1 FAF DILME MAP RNW 32"
            },
            "transitions": [
                {
                    "name": "CADAN",
                    "fixes": {
                        "CADAN": "CADAN"
                    }
                },
                {
                    "name": "DGD",
                    "fixes": {
                        "DGD": "DGD",
                        "UYULA": "UYULA AT OR ABOVE 4000 HOLD AT UYULA RIGHT TURN INBOUNDCOURSE 323 ALT 4000 LEGTIME 1"
                    }
                },
                {
                    "name": "HRO",
                    "fixes": {
                        "HRO": "HRO",
                        "UYULA": "UYULA AT OR ABOVE 4000 HOLD AT UYULA RIGHT TURN INBOUNDCOURSE 323 ALT 4000 LEGTIME 1"
                    }
                }
            ]
        },
        {
            "name": "RNAV14",
            "fixes": {
                "WUTIB": "WUTIB AT OR ABOVE 4000",
                "VUCUG": "VUCUG 3000 RNW 14",
                "UYULA": "OVERFLY UYULA AT OR ABOVE 4000 HOLD AT UYULA RIGHT TURN INBOUNDCOURSE 323 LEGDIST 4 FAF VUCUG MAP RNW 14"
            },
            "transitions": [
                {
                    "name": "WUTIB",
                    "fixes": {
                        "WUTIB": "WUTIB RIGHT TURN INBOUNDCOURSE 143 ALT 4000 LEGDIST 4"
                    }
                }
            ]
        },
        {
            "name": "RNAV32",
            "fixes": {
                "UYULA": "UYULA AT OR ABOVE 4000",
                "DILME": "DILME 3000",
                "ASUKE": "ASUKE AT OR ABOVE 1940 RNW 32",
                "WUTIB": "OVERFLY WUTIB AT OR ABOVE 4000 HOLD AT WUTIB RIGHT TURN INBOUNDCOURSE 143 LEGDIST 4 FAF DILME MAP RNW 32"
            },
            "transitions": [
                {
                    "name": "CADAN",
                    "fixes": {
                        "CADAN": "CADAN"
                    }
                },
                {
                    "name": "DGD",
                    "fixes": {
                        "DGD": "DGD",
                        "AFPAM": "AFPAM AT OR ABOVE 4000"
                    }
                },
                {
                    "name": "HRO",
                    "fixes": {
                        "HRO": "HRO",
                        "BABVE": "BABVE AT OR ABOVE 4000"
                    }
                },
                {
                    "name": "UYULA",
                    "fixes": {
                        "UYULA": "UYULA RIGHT TURN INBOUNDCOURSE 323 ALT 4000 LEGDIST 4"
                    }
                }
            ]
        }
    ]
}