{
    "fixes": [
        {
            "name": "AFEBE",
            "lat": 38.47236388333334,
            "lon": 89.73254166666666
        },
        {
            "name": "ARG",
            "lat": 36.110019433333335,
            "lon": 90.95369443333334
        },
        {
            "name": "BALLY",
            "lat": 38.689075,
            "lon": 89.99423333333333
        },
        {
            "name": "BIB",
            "lat": 38.920344433333334,
            "lon": 88.48180556666667
        },
        {
            "name": "BLVIL",
            "lat": 38.463741666666664,
            "lon": 89.75581943333333
        },
        {
            "name": "BNA",
            "lat": 36.13696111666667,
            "lon": 86.68477221666667
        },
        {
            "name": "BUUDD",
            "lat": 39.246433333333336,
            "lon": 89.72374721666667
        },
        {
            "name": "CABIT",
            "lat": 38.9666,
            "lon": 91.15208888333333
        },
        {
            "name": "COFEY",
            "lat": 38.47970278333333,
            "lon": 89.53678888333333
        },
        {
            "name": "CREEP",
            "lat": 39.920911116666666,
            "lon": 84.308725
        },
        {
            "name": "CUMAB",
            "lat": 38.48125833333334,
            "lon": 89.78371666666666
        },
        {
            "name": "DADNE",
            "lat": 38.67038611666667,
            "lon": 90.00533333333334
        },
        {
            "name": "DELMA",
            "lat": 38.13717221666667,
            "lon": 90.91225833333333
        },
        {
            "name": "DENNI",
            "lat": 37.62301111666667,
            "lon": 88.70108333333333
        },
        {
            "name": "DIXEE",
            "lat": 38.58052778333333,
            "lon": 91.20827778333333
        },
        {
            "name": "DMJPS",
            "lat": 38.59857778333333,
            "lon": 89.88466943333333
        },
        {
            "name": "DUTMY",
            "lat": 38.483747216666664,
            "lon": 89.56256111666667
        },
        {
            "name": "EGNOC",
            "lat": 38.41501388333333,
            "lon": 89.66367221666667
        },
        {
            "name": "EIKEL",
            "lat": 38.44098056666667,
            "lon": 89.36713611666667
        },
        {
            "name": "ENL",
            "lat": 38.42,
            "lon": 89.15899721666666
        },
        {
            "name": "ENRRN",
            "lat": 38.49990556666667,
            "lon": 89.76566943333333
        },
        {
            "name": "ESSAR",
            "lat": 38.357616666666665,
            "lon": 90.19729721666667
        },
        {
            "name": "EVVNS",
            "lat": 38.52146388333333,
            "lon": 90.93590833333333
        },
        {
            "name": "FARMR",
            "lat": 39.40906388333333,
            "lon": 90.739775
        },
        {
            "name": "FASHE",
            "lat": 39.13366943333333,
            "lon": 90.26071388333334
        },
        {
            "name": "GOOEY",
            "lat": 38.477477783333335,
            "lon": 89.73875
        },
        {
            "name": "HELGU",
            "lat": 38.61607778333333,
            "lon": 89.939575
        },
        {
            "name": "HETSU",
            "lat": 38.677227783333336,
            "lon": 89.97986388333334
        },
        {
            "name": "HIRIV",
            "lat": 38.50175278333333,
            "lon": 89.64665833333333
        },
        {
            "name": "HLV",
            "lat": 39.11354166666667,
            "lon": 92.12823333333333
        },
        {
            "name": "HOVIZ",
            "lat": 38.418480566666666,
            "lon": 89.26501388333334
        },
        {
            "name": "JEPEV",
            "lat": 38.55229443333333,
            "lon": 89.86140278333333
        },
        {
            "name": "JIGSY",
            "lat": 38.842225,
            "lon": 89.119725
        },
        {
            "name": "JIKMO",
            "lat": 38.68737778333333,
            "lon": 89.73817221666667
        },
        {
            "name": "JIRUB",
            "lat": 38.519902783333336,
            "lon": 89.78974721666667
        },
        {
            "name": "JULYA",
            "lat": 38.97591943333333,
            "lon": 89.96090556666667
        },
        {
            "name": "KELLY",
            "lat": 39.413677783333334,
            "lon": 86.67137221666667
        },
        {
            "name": "KLAIR",
            "lat": 38.411208333333335,
            "lon": 91.16021111666667
        },
        {
            "name": "LIT",
            "lat": 34.677672216666664,
            "lon": 92.18052778333333
        },
        {
            "name": "MADDT",
            "lat": 38.648558333333334,
            "lon": 89.94513056666666
        },
        {
            "name": "MMRSN",
            "lat": 38.30360833333334,
            "lon": 90.81421388333334
        },
        {
            "name": "MYERZ",
            "lat": 37.19838333333333,
            "lon": 90.66415278333334
        },
        {
            "name": "NEWAT",
            "lat": 38.268630566666666,
            "lon": 89.76985
        },
        {
            "name": "OFAFY",
            "lat": 38.616338883333334,
            "lon": 89.90614166666667
        },
        {
            "name": "OJAMO",
            "lat": 38.399475,
            "lon": 89.64504721666667
        },
        {
            "name": "PAMMM",
            "lat": 38.80525278333333,
            "lon": 89.9304
        },
        {
            "name": "PI001",
            "lat": 38.421068416666664,
            "lon": 89.70504086666666
        },
        {
            "name": "PI002",
            "lat": 38.349445366666664,
            "lon": 89.70823011666667
        },
        {
            "name": "PI003",
            "lat": 38.34176005,
            "lon": 89.61089681666667
        },
        {
            "name": "PLESS",
            "lat": 37.80957778333333,
            "lon": 88.96318888333333
        },
        {
            "name": "PUJXO",
            "lat": 38.600247216666666,
            "lon": 89.92044443333333
        },
        {
            "name": "QODCU",
            "lat": 38.41475,
            "lon": 89.69685
        },
        {
            "name": "ROD",
            "lat": 40.2878,
            "lon": 84.04309721666667
        },
        {
            "name": "SAGZA",
            "lat": 38.22788611666667,
            "lon": 90.75221666666667
        },
        {
            "name": "SAJOY",
            "lat": 38.195855566666665,
            "lon": 90.55606943333333
        },
        {
            "name": "SHB",
            "lat": 39.63254166666667,
            "lon": 85.82431666666666
        },
        {
            "name": "SIQAF",
            "lat": 38.660727783333336,
            "lon": 89.99368611666667
        },
        {
            "name": "SKE",
            "lat": 38.54536111666667,
            "lon": 89.85164721666666
        },
        {
            "name": "STL",
            "lat": 38.860722216666666,
            "lon": 90.48235
        },
        {
            "name": "TIBLY",
            "lat": 38.37353888333333,
            "lon": 89.64750833333333
        },
        {
            "name": "TIZGE",
            "lat": 38.475713883333334,
            "lon": 89.77018611666666
        },
        {
            "name": "TOY",
            "lat": 38.73915,
            "lon": 89.91859166666667
        },
        {
            "name": "TWILA",
            "lat": 38.7871,
            "lon": 89.55252221666667
        },
        {
            "name": "TWRAY",
            "lat": 37.601405566666664,
            "lon": 91.01459166666666
        },
        {
            "name": "UYITO",
            "lat": 38.657175,
            "lon": 90.00944166666666
        },
        {
            "name": "VHP",
            "lat": 39.81472778333333,
            "lon": 86.3675
        },
        {
            "name": "VIH",
            "lat": 38.15407221666667,
            "lon": 91.70677221666666
        },
        {
            "name": "WEIZZ",
            "lat": 39.148808333333335,
            "lon": 89.91864443333333
        },
        {
            "name": "WOMUG",
            "lat": 38.364347216666665,
            "lon": 89.66025278333333
        },
        {
            "name": "WORKE",
            "lat": 39.11748611666667,
            "lon": 87.77366943333334
        },
        {
            "name": "WUMOT",
            "lat": 38.61673888333333,
            "lon": 89.90661943333333
        },
        {
            "name": "ZAVGU",
            "lat": 38.53673056666667,
            "lon": 89.84248888333333
        },
        {
            "name": "ZUSIP",
            "lat": 38.59011666666667,
            "lon": 89.91470556666667
        }
    ],
    "rnws": [
        "RNW 14L",
        "RNW 14R",
        "RNW 32L",
        "RNW 32R"
    ],
    "sids": [
        {
            "name": "GATWY1",
            "rnw": "14L",
            "fixes": {
                "TWILA": "TWILA"
            },
            "sub_fixes": [],
            "transitions": [
                {
                    "name": "BIB",
                    "fixes": [
                        "JIGSY",
                        "BIB"
                    ]
                },
                {
                    "name": "CREEP",
                    "fixes": [
                        "JIGSY",
                        "BIB",
                        "WORKE",
                        "KELLY",
                        "SHB",
                        "CREEP"
                    ]
                },
                {
                    "name": "JIGSY",
                    "fixes": [
                        "JIGSY"
                    ]
                },
                {
                    "name": "ROD",
                    "fixes": [
                        "JIGSY",
                        "BIB",
                        "WORKE",
                        "KELLY",
                        "SHB",
                        "ROD"
                    ]
                },
                {
                    "name": "VHP",
                    "fixes": [
                        "JIGSY",
                        "BIB",
                        "WORKE",
                        "KELLY",
                        "VHP"
                    ]
                }
            ]
        },
        {
            "name": "LINDY8",
            "rnw": "14L",
            "fixes": {
                "STL": "STL"
            },
            "sub_fixes": [],
            "transitions": [
                {
                    "name": "ARG",
                    "fixes": [
                        "SAJOY",
                        "MYERZ",
                        "ARG"
                    ]
                },
                {
                    "name": "LIT",
                    "fixes": [
                        "SAGZA",
                        "TWRAY",
                        "LIT"
                    ]
                },
                {
                    "name": "MYERZ",
                    "fixes": [
                        "SAJOY",
                        "MYERZ"
                    ]
                },
                {
                    "name": "VIH",
                    "fixes": [
                        "KLAIR",
                        "VIH"
                    ]
                }
            ]
        },
        {
            "name": "OZARK8",
            "rnw": "14L",
            "fixes": {
                "STL": "STL"
            },
            "sub_fixes": [],
            "transitions": [
                {
                    "name": "HLV",
                    "fixes": [
                        "CABIT",
                        "HLV"
                    ]
                }
            ]
        },
        {
            "name": "PLESS5",
            "rnw": "14L",
            "fixes": {
                "STL": "STL",
                "PLESS": "PLESS"
            },
            "sub_fixes": [],
            "transitions": [
                {
                    "name": "BNA",
                    "fixes": [
                        "DENNI",
                        "BNA"
                    ]
                },
                {
                    "name": "DENNI",
                    "fixes": [
                        "DENNI"
                    ]
                }
            ]
        }
    ],
    "stars": [
        {
            "name": "BUUDD3.14B",
            "runway": "RNW 14R RNW 14L",
            "fixes": {
                "BUUDD": "BUUDD",
                "WEIZZ": "WEIZZ",
                "JULYA": "JULYA",
                "PAMMM": "PAMMM",
                "TOY": "OVERFLY TOY TRK 231 VECTORS"
            }
        },
        {
            "name": "BUUDD3.32B",
            "runway": "RNW 32R RNW 32L",
            "fixes": {
                "BUUDD": "BUUDD",
                "WEIZZ": "WEIZZ",
                "JULYA": "JULYA",
                "PAMMM": "PAMMM",
                "DUTMY": "OVERFLY DUTMY TRK 228 VECTORS"
            }
        },
        {
            "name": "DELMA4.14B",
            "runway": "RNW 14R RNW 14L",
            "fixes": {
                "DELMA": "DELMA",
                "MMRSN": "MMRSN",
                "ESSAR": "OVERFLY ESSAR TRK 084 VECTORS"
            }
        },
        {
            "name": "DELMA4.32B",
            "runway": "RNW 32R RNW 32L",
            "fixes": {
                "DELMA": "DELMA",
                "MMRSN": "MMRSN",
                "ESSAR": "OVERFLY ESSAR TRK 084 VECTORS"
            }
        },
        {
            "name": "DIXEE3.14B",
            "runway": "RNW 14R RNW 14L",
            "fixes": {
                "DIXEE": "DIXEE",
                "EVVNS": "EVVNS",
                "ESSAR": "OVERFLY ESSAR TRK 084 VECTORS"
            }
        },
        {
            "name": "DIXEE3.32B",
            "runway": "RNW 32R RNW 32L",
            "fixes": {
                "DIXEE": "DIXEE",
                "EVVNS": "EVVNS",
                "ESSAR": "OVERFLY ESSAR TRK 084 VECTORS"
            }
        },
        {
            "name": "ENL2.14B",
            "runway": "RNW 14R RNW 14L",
            "fixes": {
                "ENL": "ENL",
                "HOVIZ": "HOVIZ",
                "EIKEL": "EIKEL",
                "DUTMY": "DUTMY",
                "TOY": "OVERFLY TOY TRK 228 VECTORS"
            }
        },
        {
            "name": "ENL2.32B",
            "runway": "RNW 32R RNW 32L",
            "fixes": {
                "ENL": "ENL",
                "HOVIZ": "HOVIZ",
                "EIKEL": "EIKEL",
                "DUTMY": "OVERFLY DUTMY TRK 225 VECTORS"
            }
        },
        {
            "name": "FARMR3.14B",
            "runway": "RNW 14R RNW 14L",
            "fixes": {
                "FARMR": "FARMR",
                "FASHE": "FASHE",
                "PAMMM": "PAMMM",
                "TOY": "OVERFLY TOY TRK 232 VECTORS"
            }
        },
        {
            "name": "FARMR3.32B",
            "runway": "RNW 32R RNW 32L",
            "fixes": {
                "FARMR": "FARMR",
                "FASHE": "FASHE",
                "PAMMM": "PAMMM",
                "DUTMY": "OVERFLY DUTMY TRK 227 VECTORS"
            }
        }
    ],
    "approaches": [
        {
            "name": "ILS14L",
            "fixes": {
                "HETSU": "HETSU AT OR ABOVE 2200",
                "WUMOT": "WUMOT 2200 RNW 14L HDG 139 INTERCEPT RADIAL 097 TO",
                "DUTMY": "DUTMY DUTMY AT OR ABOVE 2000 HOLD AT DUTMY RIGHT TURN INBOUNDCOURSE 277 LEGTIME 1 FAF WUMOT MAP RNW 14L"
            },
            "transitions": [
                {
                    "name": "TOY",
                    "fixes": {
                        "TOY": "TOY"
                    }
                }
            ]
        },
        {
            "name": "ILS14R",
            "fixes": {
                "DADNE": "DADNE AT OR ABOVE 2200",
                "HELGU": "HELGU 2200 RNW 14R TRK 139 UNTIL 2200",
                "WOMUG": "WOMUG HOLD AT WOMUG LEFT TURN INBOUNDCOURSE 327 LEGTIME 1 FAF HELGU MAP RNW 14R"
            },
            "transitions": [
                {
                    "name": "TOY",
                    "fixes": {
                        "TOY": "TOY"
                    }
                }
            ]
        },
        {
            "name": "ILS32L",
            "fixes": {
                "TIBLY": "TIBLY AT OR ABOVE 2400 TIBLY AT OR ABOVE 2400 HOLD AT TIBLY LEFT TURN INBOUNDCOURSE 319 LEGTIME 1 FAF BLVIL MAP RNW 32L",
                "BLVIL": "BLVIL 2400 RNW 32L TRK 319 UNTIL 1500 TURN LEFT DIRECT",
                "SKE": "SKE"
            },
            "transitions": [
                {
                    "name": "ENL",
                    "fixes": {
                        "ENL": "ENL"
                    }
                },
                {
                    "name": "TOY",
                    "fixes": {
                        "TOY": "TOY",
                        "SKE": "SKE AT OR ABOVE 2400",
                        "BLVIL": "BLVIL AT OR ABOVE 2400",
                        "PI001": "PI001 AT OR ABOVE 2400 SPEED 210",
                        "PI002": "OVERFLY PI002 AT OR ABOVE 2400 SPEED 210",
                        "PI003": "PI003 AT OR ABOVE 2400 SPEED 210"
                    }
                }
            ]
        },
        {
            "name": "ILS32R",
            "fixes": {
                "EGNOC": "EGNOC AT OR ABOVE 2400 EGNOC EGNOC AT OR ABOVE 2400 HOLD AT EGNOC RIGHT TURN INBOUNDCOURSE 319 LEGTIME 1 FAF GOOEY MAP RNW 32R",
                "GOOEY": "GOOEY 2043 RNW 32R TRK 319 UNTIL 1500 TURN RIGHT HDG 194 INTERCEPT RADIAL 144 TO"
            },
            "transitions": [
                {
                    "name": "ENL",
                    "fixes": {
                        "ENL": "ENL"
                    }
                }
            ]
        },
        {
            "name": "RNAV14L",
            "fixes": {
                "BALLY": "BALLY AT OR ABOVE 2100",
                "OFAFY": "OFAFY 2100",
                "DMJPS": "DMJPS AT OR ABOVE 1620 RNW 14L TRK 139 UNTIL 694",
                "JIRUB": "JIRUB",
                "DUTMY": "OVERFLY DUTMY AT OR ABOVE 2300 HOLD AT DUTMY RIGHT TURN INBOUNDCOURSE 283 LEGDIST 5 FAF OFAFY MAP RNW 14L"
            },
            "transitions": [
                {
                    "name": "TOY",
                    "fixes": {
                        "TOY": "TOY"
                    }
                }
            ]
        },
        {
            "name": "RNAV14R",
            "fixes": {
                "SIQAF": "SIQAF AT OR ABOVE 2800",
                "PUJXO": "PUJXO 1800 RNW 14R TRK 139 UNTIL 859",
                "QODCU": "OVERFLY QODCU AT OR ABOVE 3000 HOLD AT QODCU RIGHT TURN INBOUNDCOURSE 319 LEGDIST 4 FAF PUJXO MAP RNW 14R"
            },
            "transitions": [
                {
                    "name": "TOY",
                    "fixes": {
                        "TOY": "TOY"
                    }
                }
            ]
        },
        {
            "name": "RNAV32L",
            "fixes": {
                "QODCU": "QODCU AT OR ABOVE 2400 OVERFLY QODCU AT OR ABOVE 2400 HOLD AT QODCU RIGHT TURN INBOUNDCOURSE 319 LEGDIST 4 FAF TIZGE MAP RNW 32L",
                "TIZGE": "TIZGE 2100 RNW 32L TRK 319 UNTIL 1500 TURN LEFT DIRECT"
            },
            "transitions": [
                {
                    "name": "DUTMY",
                    "fixes": {
                        "DUTMY": "DUTMY"
                    }
                },
                {
                    "name": "NEWAT",
                    "fixes": {
                        "NEWAT": "NEWAT"
                    }
                }
            ]
        },
        {
            "name": "RNAV32R",
            "fixes": {
                "OJAMO": "OJAMO AT OR ABOVE 2200",
                "AFEBE": "AFEBE 2200",
                "ENRRN": "ENRRN AT OR ABOVE 1460 RNW 32R TRK 319 UNTIL 642",
                "MADDT": "MADDT TURN RIGHT DIRECT",
                "JIKMO": "JIKMO",
                "COFEY": "OVERFLY COFEY AT OR ABOVE 2300 HOLD AT COFEY RIGHT TURN INBOUNDCOURSE 283 LEGDIST 5 FAF AFEBE MAP RNW 32R"
            },
            "transitions": [
                {
                    "name": "COFEY",
                    "fixes": {
                        "COFEY": "COFEY"
                    }
                }
            ]
        },
        {
            "name": "VOR14R",
            "fixes": {
                "UYITO": "UYITO AT OR ABOVE 2200",
                "ZUSIP": "ZUSIP 1600",
                "JEPEV": "JEPEV 524 RNW 14R",
                "WOMUG": "WOMUG AT OR ABOVE 2400 HOLD AT WOMUG LEFT TURN INBOUNDCOURSE 322 LEGTIME 1 FAF ZUSIP MAP JEPEV"
            },
            "transitions": [
                {
                    "name": "DUTMY",
                    "fixes": {
                        "DUTMY": "DUTMY",
                        "HIRIV": "HIRIV AT OR ABOVE 2200"
                    }
                }
            ]
        },
        {
            "name": "VOR32L",
            "fixes": {
                "WOMUG": "WOMUG AT OR ABOVE 2400 WOMUG AT OR ABOVE 2400 HOLD AT WOMUG LEFT TURN INBOUNDCOURSE 322 LEGTIME 1 FAF CUMAB MAP ZAVGU",
                "CUMAB": "CUMAB 1800",
                "ZAVGU": "ZAVGU 509 RNW 32L TRK 322 UNTIL 1500 TURN LEFT DIRECT"
            },
            "transitions": [
                {
                    "name": "DUTMY",
                    "fixes": {
                        "DUTMY": "DUTMY"
                    }
                }
            ]
        }
    ]
}