{
    "fixes": [
        {
            "name": "ACO",
            "lat": 41.10790278333333,
            "lon": 81.20151943333333
        },
        {
            "name": "ATWOO",
            "lat": 40.48572778333333,
            "lon": 81.21368611666666
        },
        {
            "name": "BENJO",
            "lat": 41.885680566666665,
            "lon": 85.20920833333334
        },
        {
            "name": "BRWNZ",
            "lat": 41.852505566666665,
            "lon": 82.21329166666666
        },
        {
            "name": "BSV",
            "lat": 40.74070556666667,
            "lon": 81.43211666666667
        },
        {
            "name": "BUKIN",
            "lat": 41.11370556666667,
            "lon": 81.42957778333333
        },
        {
            "name": "BULIT",
            "lat": 40.764805566666666,
            "lon": 81.44938611666667
        },
        {
            "name": "CABLE",
            "lat": 40.84854166666667,
            "lon": 81.44521111666667
        },
        {
            "name": "CHUUB",
            "lat": 42.078713883333336,
            "lon": 84.40591943333334
        },
        {
            "name": "CICEE",
            "lat": 40.843294433333334,
            "lon": 81.54583888333333
        },
        {
            "name": "COWCH",
            "lat": 41.94809443333333,
            "lon": 84.28250556666667
        },
        {
            "name": "CRWDR",
            "lat": 40.6873,
            "lon": 81.92280833333334
        },
        {
            "name": "DERBY",
            "lat": 40.99674721666667,
            "lon": 81.43625556666667
        },
        {
            "name": "DETMR",
            "lat": 42.11903888333333,
            "lon": 85.09416388333334
        },
        {
            "name": "DOZRR",
            "lat": 42.01810278333333,
            "lon": 82.18720556666666
        },
        {
            "name": "EGGII",
            "lat": 40.980572216666665,
            "lon": 81.348575
        },
        {
            "name": "FIITE",
            "lat": 41.07005,
            "lon": 80.94081943333333
        },
        {
            "name": "FRYYE",
            "lat": 42.007747216666665,
            "lon": 83.33645
        },
        {
            "name": "GOLIC",
            "lat": 41.89295833333333,
            "lon": 82.41773888333333
        },
        {
            "name": "GOTTZ",
            "lat": 41.023011116666666,
            "lon": 81.26885
        },
        {
            "name": "HASTE",
            "lat": 42.670952783333334,
            "lon": 85.16736111666667
        },
        {
            "name": "HAVEN",
            "lat": 42.54145556666667,
            "lon": 84.24689166666667
        },
        {
            "name": "HOMEV",
            "lat": 40.89304443333333,
            "lon": 81.44215556666667
        },
        {
            "name": "HUUVR",
            "lat": 40.68333333333333,
            "lon": 81.73333333333333
        },
        {
            "name": "IZERU",
            "lat": 40.935516666666665,
            "lon": 81.41346943333333
        },
        {
            "name": "JJUST",
            "lat": 40.94496388333334,
            "lon": 84.27918333333334
        },
        {
            "name": "JPU",
            "lat": 39.44118056666667,
            "lon": 81.37476111666666
        },
        {
            "name": "JUDIE",
            "lat": 40.842480566666666,
            "lon": 81.53571666666667
        },
        {
            "name": "JUNEX",
            "lat": 40.775413883333336,
            "lon": 81.64289721666667
        },
        {
            "name": "JUUNY",
            "lat": 40.354725,
            "lon": 82.03758056666666
        },
        {
            "name": "KWYNN",
            "lat": 42.146966666666664,
            "lon": 83.69778056666667
        },
        {
            "name": "LAYES",
            "lat": 40.557433333333336,
            "lon": 81.85034166666667
        },
        {
            "name": "LEWIZ",
            "lat": 40.740858333333335,
            "lon": 81.56252778333334
        },
        {
            "name": "MCKOY",
            "lat": 41.990594433333335,
            "lon": 83.10857221666667
        },
        {
            "name": "MGOOD",
            "lat": 40.95775556666667,
            "lon": 81.16729166666667
        },
        {
            "name": "MINER",
            "lat": 40.69507221666667,
            "lon": 81.20961666666666
        },
        {
            "name": "MNZEL",
            "lat": 42.54445,
            "lon": 84.75158056666666
        },
        {
            "name": "MSKTS",
            "lat": 40.98234443333333,
            "lon": 84.76778888333334
        },
        {
            "name": "OCUGA",
            "lat": 41.068505566666666,
            "lon": 81.22149443333333
        },
        {
            "name": "OLYEE",
            "lat": 42.784630566666664,
            "lon": 85.48611388333333
        },
        {
            "name": "ONMME",
            "lat": 40.70856666666667,
            "lon": 82.97661111666666
        },
        {
            "name": "OXESE",
            "lat": 41.000425,
            "lon": 81.43604443333334
        },
        {
            "name": "PUTYM",
            "lat": 40.90979721666667,
            "lon": 83.84116388333334
        },
        {
            "name": "RDZON",
            "lat": 41.96453888333333,
            "lon": 82.77929166666667
        },
        {
            "name": "RHNDA",
            "lat": 40.812561116666664,
            "lon": 81.45983333333334
        },
        {
            "name": "SCHAM",
            "lat": 42.702675,
            "lon": 85.06088888333333
        },
        {
            "name": "SOORD",
            "lat": 41.05467778333333,
            "lon": 80.15215
        },
        {
            "name": "SPOCC",
            "lat": 39.781758333333336,
            "lon": 82.15031666666667
        },
        {
            "name": "USASN",
            "lat": 41.17467778333334,
            "lon": 81.54102221666666
        },
        {
            "name": "WEEDN",
            "lat": 41.97701943333333,
            "lon": 82.93499443333333
        },
        {
            "name": "WILMO",
            "lat": 40.65025833333333,
            "lon": 81.65614721666667
        },
        {
            "name": "WINNZ",
            "lat": 41.924072216666666,
            "lon": 82.57489721666667
        },
        {
            "name": "WIRNO",
            "lat": 40.744883333333334,
            "lon": 81.45055833333333
        },
        {
            "name": "WOXAM",
            "lat": 40.889144433333335,
            "lon": 81.47724166666667
        },
        {
            "name": "YISUP",
            "lat": 40.8482,
            "lon": 81.44470278333333
        },
        {
            "name": "YOSTE",
            "lat": 40.98669721666667,
            "lon": 81.35280833333333
        },
        {
            "name": "ZAKKC",
            "lat": 40.88179721666667,
            "lon": 81.36025278333334
        },
        {
            "name": "ZIVID",
            "lat": 40.96133056666667,
            "lon": 81.43826943333333
        },
        {
            "name": "ZZIPS",
            "lat": 41.033116666666665,
            "lon": 81.20049721666666
        }
    ],
    "rnws": [
        "RNW 01",
        "RNW 05",
        "RNW 19",
        "RNW 23"
    ],
    "sids": [],
    "stars": [
        {
            "name": "BRWNZ4",
            "runway": "RNW 01 RNW 05 RNW 19 RNW 23",
            "fixes": {
                "BRWNZ": "BRWNZ AT OR BELOW 14000 AT OR ABOVE 11000 SPEED 280",
                "USASN": "OVERFLY USASN 11000 TRK 120 VECTORS"
            }
        },
        {
            "name": "HUUVR1",
            "runway": "RNW 01 RNW 05 RNW 19 RNW 23",
            "fixes": {
                "HUUVR": "HUUVR",
                "LEWIZ": "LEWIZ",
                "RHNDA": "RHNDA",
                "ZAKKC": "OVERFLY ZAKKC 5000 TRK 054 VECTORS"
            }
        },
        {
            "name": "ZZIPS1",
            "runway": "RNW 01 RNW 05 RNW 19 RNW 23",
            "fixes": {
                "ZZIPS": "ZZIPS",
                "GOTTZ": "OVERFLY GOTTZ 4000 TRK 266 VECTORS"
            }
        }
    ],
    "approaches": [
        {
            "name": "ILS01",
            "fixes": {
                "BULIT": "BULIT AT OR ABOVE 3000",
                "CABLE": "CABLE 2394 RNW 01 TRK 009 UNTIL 1900",
                "ACO": "ACO AT OR ABOVE 3000 HOLD AT ACO RIGHT TURN INBOUNDCOURSE 272 LEGTIME 1 FAF CABLE MAP RNW 01"
            },
            "transitions": [
                {
                    "name": "BSV",
                    "fixes": {
                        "BSV": "BSV"
                    }
                }
            ]
        },
        {
            "name": "ILS05",
            "fixes": {
                "JUNEX": "JUNEX AT OR ABOVE 3000",
                "CICEE": "CICEE 3000 RNW 05 TRK 054 UNTIL 2000",
                "ACO": "ACO AT OR ABOVE 3000 HOLD AT ACO RIGHT TURN INBOUNDCOURSE 272 LEGTIME 1 FAF CICEE MAP RNW 05"
            },
            "transitions": [
                {
                    "name": "BSV",
                    "fixes": {
                        "BSV": "BSV",
                        "JUNEX": "JUNEX AT OR ABOVE 3000 HOLD AT JUNEX LEFT TURN INBOUNDCOURSE 054 ALT 3000 LEGTIME 1"
                    }
                }
            ]
        },
        {
            "name": "ILS19",
            "fixes": {
                "BUKIN": "BUKIN AT OR ABOVE 2800",
                "DERBY": "DERBY 2597 RNW 19 TRK 189 UNTIL 1700",
                "BSV": "BSV AT OR ABOVE 3000 HOLD AT BSV RIGHT TURN INBOUNDCOURSE 008 LEGTIME 1 FAF DERBY MAP RNW 19"
            },
            "transitions": [
                {
                    "name": "ACO",
                    "fixes": {
                        "ACO": "ACO TRK 276 UNTIL 6.4 FROM ACO"
                    }
                }
            ]
        },
        {
            "name": "ILS23",
            "fixes": {
                "OCUGA": "OCUGA AT OR ABOVE 3000",
                "EGGII": "EGGII 3000 RNW 23 TRK 234 UNTIL 2500",
                "BSV": "BSV AT OR ABOVE 3000 HOLD AT BSV RIGHT TURN INBOUNDCOURSE 008 LEGTIME 1 FAF EGGII MAP RNW 23"
            },
            "transitions": [
                {
                    "name": "ACO",
                    "fixes": {
                        "ACO": "ACO AT OR ABOVE 3000"
                    }
                }
            ]
        },
        {
            "name": "RNAV01",
            "fixes": {
                "WIRNO": "WIRNO AT OR ABOVE 3000",
                "YISUP": "YISUP 2400 RNW 01 TRK 009 UNTIL 1409",
                "ZIVID": "ZIVID",
                "ACO": "OVERFLY ACO AT OR ABOVE 3000 HOLD AT ACO RIGHT TURN INBOUNDCOURSE 272 LEGDIST 4 FAF YISUP MAP RNW 01"
            },
            "transitions": [
                {
                    "name": "ACO",
                    "fixes": {
                        "ACO": "ACO",
                        "WIRNO": "OVERFLY WIRNO AT OR ABOVE 3100 HOLD AT WIRNO RIGHT TURN INBOUNDCOURSE 009 ALT 3000 LEGDIST 4"
                    }
                },
                {
                    "name": "MINER",
                    "fixes": {
                        "MINER": "MINER"
                    }
                },
                {
                    "name": "WILMO",
                    "fixes": {
                        "WILMO": "WILMO"
                    }
                }
            ]
        },
        {
            "name": "RNAV05",
            "fixes": {
                "JUNEX": "JUNEX AT OR ABOVE 3000",
                "CICEE": "CICEE 3000 RNW 05 TRK 054 UNTIL 1399",
                "EGGII": "EGGII",
                "ACO": "OVERFLY ACO AT OR ABOVE 3000 HOLD AT ACO RIGHT TURN INBOUNDCOURSE 208 LEGDIST 4 FAF CICEE MAP RNW 05"
            },
            "transitions": [
                {
                    "name": "BSV",
                    "fixes": {
                        "BSV": "BSV",
                        "JUNEX": "OVERFLY JUNEX AT OR ABOVE 3000 HOLD AT JUNEX LEFT TURN INBOUNDCOURSE 054 ALT 3000 LEGDIST 4"
                    }
                }
            ]
        },
        {
            "name": "RNAV19",
            "fixes": {
                "BUKIN": "BUKIN AT OR ABOVE 2800",
                "OXESE": "OXESE 2700 RNW 19 TRK 189 UNTIL 1418",
                "HOMEV": "HOMEV",
                "BSV": "OVERFLY BSV AT OR ABOVE 3000 HOLD AT BSV RIGHT TURN INBOUNDCOURSE 011 LEGDIST 4 FAF OXESE MAP RNW 19"
            },
            "transitions": [
                {
                    "name": "ACO",
                    "fixes": {
                        "ACO": "ACO"
                    }
                }
            ]
        },
        {
            "name": "RNAV23",
            "fixes": {
                "OCUGA": "OCUGA AT OR ABOVE 3000",
                "EGGII": "EGGII 3000",
                "IZERU": "IZERU AT OR ABOVE 1700 RNW 23 TRK 234 UNTIL 1426",
                "CICEE": "CICEE",
                "BSV": "OVERFLY BSV AT OR ABOVE 3000 HOLD AT BSV RIGHT TURN INBOUNDCOURSE 011 LEGDIST 4 FAF EGGII MAP RNW 23"
            },
            "transitions": [
                {
                    "name": "ACO",
                    "fixes": {
                        "ACO": "ACO"
                    }
                }
            ]
        },
        {
            "name": "VOR05",
            "fixes": {
                "JUDIE": "JUDIE 3000",
                "WOXAM": "WOXAM AT OR ABOVE 1680 RNW 05 TRK 048 UNTIL 1630",
                "ACO": "ACO AT OR ABOVE 3000 HOLD AT ACO RIGHT TURN INBOUNDCOURSE 272 LEGTIME 1 FAF JUDIE MAP RNW 05"
            },
            "transitions": [
                {
                    "name": "BSV",
                    "fixes": {
                        "BSV": "BSV"
                    }
                },
                {
                    "name": "JUDIE",
                    "fixes": {
                        "JUDIE": "JUDIE RIGHT TURN INBOUNDCOURSE 048 ALT 3000 LEGTIME 1"
                    }
                }
            ]
        },
        {
            "name": "VOR23",
            "fixes": {
                "ACO": "ACO AT OR ABOVE 3000",
                "YOSTE": "YOSTE 3000 RNW 23 TRK 227 UNTIL 3000",
                "BSV": "BSV HOLD AT BSV RIGHT TURN INBOUNDCOURSE 008 LEGTIME 1 FAF YOSTE MAP RNW 23"
            },
            "transitions": [
                {
                    "name": "ACO",
                    "fixes": {
                        "ACO": "ACO RIGHT TURN INBOUNDCOURSE 205 ALT 3000 LEGTIME 1"
                    }
                }
            ]
        }
    ]
}