{
    "fixes": [
        {
            "name": "CETUV",
            "lat": 46.599975,
            "lon": 123.35576388333334
        },
        {
            "name": "DOCRA",
            "lat": 46.96711388333333,
            "lon": 123.19379721666667
        },
        {
            "name": "DUMBS",
            "lat": 46.9315,
            "lon": 123.09436388333333
        },
        {
            "name": "MCKEN",
            "lat": 46.867694433333334,
            "lon": 122.56261666666667
        },
        {
            "name": "NOYID",
            "lat": 46.77765556666667,
            "lon": 122.98839721666667
        },
        {
            "name": "OLM",
            "lat": 46.971638883333334,
            "lon": 122.90183333333333
        },
        {
            "name": "OPICO",
            "lat": 46.73715,
            "lon": 122.98611943333333
        },
        {
            "name": "RELTE",
            "lat": 46.895797216666665,
            "lon": 122.99506111666666
        },
        {
            "name": "ZUMET",
            "lat": 46.914883333333336,
            "lon": 122.80405556666666
        }
    ],
    "rnws": [
        "RNW 16",
        "RNW 34"
    ],
    "sids": [],
    "stars": [],
    "approaches": [
        {
            "name": "RNAV16",
            "fixes": {
                "RELTE": "RELTE 4000",
                "NOYID": "NOYID 2000",
                "OPICO": "OPICO AT OR ABOVE 1220 RNW 16 TRK 162 UNTIL 900 TURN RIGHT DIRECT",
                "CETUV": "OVERFLY CETUV AT OR ABOVE 5000 HOLD AT CETUV RIGHT TURN INBOUNDCOURSE 074 LEGDIST 4 FAF NOYID MAP RNW 16"
            },
            "transitions": [
                {
                    "name": "DOCRA",
                    "fixes": {
                        "DOCRA": "DOCRA",
                        "DUMBS": "DUMBS AT OR ABOVE 4300"
                    }
                },
                {
                    "name": "MCKEN",
                    "fixes": {
                        "MCKEN": "MCKEN",
                        "ZUMET": "ZUMET AT OR ABOVE 4200"
                    }
                },
                {
                    "name": "OLM",
                    "fixes": {
                        "OLM": "OLM"
                    }
                },
                {
                    "name": "RELTE",
                    "fixes": {
                        "RELTE": "RELTE RIGHT TURN INBOUNDCOURSE 162 ALT 4000 LEGDIST 4"
                    }
                }
            ]
        }
    ]
}