{
    "fixes": [
        {
            "name": "AHN",
            "lat": 33.947594433333336,
            "lon": 83.32475833333334
        },
        {
            "name": "APOWE",
            "lat": 33.67304166666667,
            "lon": 83.17825556666666
        },
        {
            "name": "AVSEW",
            "lat": 33.558875,
            "lon": 83.23435833333333
        },
        {
            "name": "AXAHY",
            "lat": 33.60491666666667,
            "lon": 83.12116388333334
        },
        {
            "name": "AYEPI",
            "lat": 33.63689721666667,
            "lon": 83.04239166666666
        },
        {
            "name": "BEYLO",
            "lat": 33.30608333333333,
            "lon": 83.093425
        },
        {
            "name": "CFBXC",
            "lat": 33.68932778333333,
            "lon": 82.91272778333334
        },
        {
            "name": "CORVI",
            "lat": 33.675919433333334,
            "lon": 83.22634166666667
        },
        {
            "name": "ETZOP",
            "lat": 33.50694166666667,
            "lon": 83.36153888333334
        },
        {
            "name": "EXJAN",
            "lat": 33.68585,
            "lon": 82.92134443333333
        },
        {
            "name": "GLOSS",
            "lat": 33.42312221666667,
            "lon": 83.49501666666667
        },
        {
            "name": "GOBYI",
            "lat": 33.43190833333333,
            "lon": 83.31785556666667
        },
        {
            "name": "JEVIN",
            "lat": 33.58195833333333,
            "lon": 83.40529721666667
        },
        {
            "name": "MADDI",
            "lat": 33.66940278333333,
            "lon": 83.41531943333334
        },
        {
            "name": "PI001",
            "lat": 33.67196678333333,
            "lon": 82.95876733333333
        },
        {
            "name": "PI002",
            "lat": 33.739725783333334,
            "lon": 82.93070908333334
        },
        {
            "name": "PI003",
            "lat": 33.71934243333333,
            "lon": 82.84166926666667
        },
        {
            "name": "PRODS",
            "lat": 33.613672216666664,
            "lon": 83.09962221666666
        },
        {
            "name": "SOVOE",
            "lat": 33.59816943333333,
            "lon": 83.13848333333334
        },
        {
            "name": "URTAY",
            "lat": 33.76457778333334,
            "lon": 83.22698333333334
        },
        {
            "name": "VV",
            "lat": 33.64641111666667,
            "lon": 83.02176666666666
        }
    ],
    "rnws": [
        "RNW 07",
        "RNW 25"
    ],
    "sids": [],
    "stars": [],
    "approaches": [
        {
            "name": "LOC25",
            "fixes": {
                "CFBXC": "CFBXC AT OR ABOVE 2700",
                "VV": "VV 2700 VV AT OR ABOVE 2700 HOLD AT VV RIGHT TURN INBOUNDCOURSE 249 ALT 2700 LEGTIME 1 FAF VV MAP AXAHY",
                "AXAHY": "AXAHY 891 RNW 25 TRK 249 UNTIL 1090 TURN RIGHT DIRECT"
            },
            "transitions": [
                {
                    "name": "BEYLO",
                    "fixes": {
                        "BEYLO": "BEYLO",
                        "VV": "VV AT OR ABOVE 2700",
                        "PI001": "PI001 AT OR ABOVE 2700 SPEED 210",
                        "PI002": "OVERFLY PI002 AT OR ABOVE 2700 SPEED 210",
                        "PI003": "PI003 AT OR ABOVE 2700 SPEED 210"
                    }
                },
                {
                    "name": "CORVI",
                    "fixes": {
                        "CORVI": "CORVI",
                        "VV": "VV AT OR ABOVE 2700",
                        "PI001": "PI001 AT OR ABOVE 2700 SPEED 210",
                        "PI002": "OVERFLY PI002 AT OR ABOVE 2700 SPEED 210",
                        "PI003": "PI003 AT OR ABOVE 2700 SPEED 210"
                    }
                }
            ]
        },
        {
            "name": "RNAV07",
            "fixes": {
                "ETZOP": "ETZOP AT OR ABOVE 2300",
                "AVSEW": "AVSEW 2300 RNW 07 TRK 069 UNTIL 1089",
                "EXJAN": "OVERFLY EXJAN AT OR ABOVE 2300 HOLD AT EXJAN RIGHT TURN INBOUNDCOURSE 249 LEGDIST 4 FAF AVSEW MAP RNW 07"
            },
            "transitions": [
                {
                    "name": "BEYLO",
                    "fixes": {
                        "BEYLO": "BEYLO",
                        "GOBYI": "GOBYI AT OR ABOVE 2300"
                    }
                },
                {
                    "name": "ETZOP",
                    "fixes": {
                        "ETZOP": "ETZOP RIGHT TURN INBOUNDCOURSE 069 ALT 2300 LEGDIST 4"
                    }
                },
                {
                    "name": "GLOSS",
                    "fixes": {
                        "GLOSS": "GLOSS"
                    }
                },
                {
                    "name": "MADDI",
                    "fixes": {
                        "MADDI": "MADDI",
                        "JEVIN": "JEVIN AT OR ABOVE 2300"
                    }
                }
            ]
        },
        {
            "name": "RNAV25",
            "fixes": {
                "EXJAN": "EXJAN AT OR ABOVE 2300",
                "AYEPI": "AYEPI 2300",
                "PRODS": "PRODS AT OR ABOVE 1280 RNW 25 TRK 249 UNTIL 981",
                "ETZOP": "OVERFLY ETZOP AT OR ABOVE 2300 HOLD AT ETZOP RIGHT TURN INBOUNDCOURSE 069 LEGDIST 4 FAF AYEPI MAP RNW 25"
            },
            "transitions": [
                {
                    "name": "EXJAN",
                    "fixes": {
                        "EXJAN": "EXJAN RIGHT TURN INBOUNDCOURSE 249 ALT 2300 LEGDIST 4"
                    }
                }
            ]
        },
        {
            "name": "VORB07",
            "fixes": {
                "URTAY": "URTAY AT OR ABOVE 2300 URTAY AT OR ABOVE 2300 HOLD AT URTAY RIGHT TURN INBOUNDCOURSE 156 LEGTIME 1 FAF APOWE MAP SOVOE",
                "APOWE": "APOWE 2300",
                "SOVOE": "SOVOE 1480 RNW 07 TURN LEFT DIRECT"
            },
            "transitions": [
                {
                    "name": "AHN",
                    "fixes": {
                        "AHN": "AHN"
                    }
                },
                {
                    "name": "URTAY",
                    "fixes": {
                        "URTAY": "URTAY RIGHT TURN INBOUNDCOURSE 156 ALT 2300 LEGTIME 1"
                    }
                }
            ]
        },
        {
            "name": "VORB25",
            "fixes": {
                "URTAY": "URTAY AT OR ABOVE 2300 URTAY AT OR ABOVE 2300 HOLD AT URTAY RIGHT TURN INBOUNDCOURSE 156 LEGTIME 1 FAF APOWE MAP SOVOE",
                "APOWE": "APOWE 2300",
                "SOVOE": "SOVOE 1480 RNW 25 TURN LEFT DIRECT"
            },
            "transitions": [
                {
                    "name": "AHN",
                    "fixes": {
                        "AHN": "AHN"
                    }
                },
                {
                    "name": "URTAY",
                    "fixes": {
                        "URTAY": "URTAY RIGHT TURN INBOUNDCOURSE 156 ALT 2300 LEGTIME 1"
                    }
                }
            ]
        }
    ]
}