{
    "fixes": [
        {
            "name": "ADERR",
            "lat": 30.268513883333334,
            "lon": 81.43235
        },
        {
            "name": "ALVAS",
            "lat": 30.402033333333332,
            "lon": 81.59969443333334
        },
        {
            "name": "AMG",
            "lat": 31.536555566666667,
            "lon": 82.50808888333333
        },
        {
            "name": "AMGEJ",
            "lat": 30.407741666666666,
            "lon": 81.59269166666667
        },
        {
            "name": "BASLE",
            "lat": 32.162044433333335,
            "lon": 80.76348056666667
        },
        {
            "name": "BASSS",
            "lat": 29.680611116666668,
            "lon": 81.54563333333333
        },
        {
            "name": "CEBIS",
            "lat": 30.374508333333335,
            "lon": 81.55435833333334
        },
        {
            "name": "CINEP",
            "lat": 30.344672216666666,
            "lon": 81.51815
        },
        {
            "name": "CRG",
            "lat": 30.338880566666667,
            "lon": 81.50992778333334
        },
        {
            "name": "CROPY",
            "lat": 28.792419433333333,
            "lon": 81.35982778333333
        },
        {
            "name": "DIXYN",
            "lat": 30.465238883333335,
            "lon": 81.68971943333334
        },
        {
            "name": "EPXOM",
            "lat": 30.129141666666666,
            "lon": 81.40607778333333
        },
        {
            "name": "GOBDE",
            "lat": 30.405480566666668,
            "lon": 81.75707221666667
        },
        {
            "name": "HOTAR",
            "lat": 30.639811116666667,
            "lon": 81.11269721666666
        },
        {
            "name": "IPTAQ",
            "lat": 30.541336116666667,
            "lon": 81.64994721666666
        },
        {
            "name": "JABOR",
            "lat": 30.814438883333334,
            "lon": 81.09364721666667
        },
        {
            "name": "JEVAG",
            "lat": 30.197486116666667,
            "lon": 81.35080833333333
        },
        {
            "name": "KCRG",
            "lat": 30.336333333333332,
            "lon": 81.51444443333334
        },
        {
            "name": "LESVE",
            "lat": 30.5636,
            "lon": 81.15221943333333
        },
        {
            "name": "LOBLE",
            "lat": 30.245241666666665,
            "lon": 81.27189166666666
        },
        {
            "name": "MOSEL",
            "lat": 30.175444433333332,
            "lon": 81.54992221666667
        },
        {
            "name": "MUDVE",
            "lat": 30.301705566666666,
            "lon": 81.47051666666667
        },
        {
            "name": "OHDEA",
            "lat": 30.987038883333334,
            "lon": 82.23570278333334
        },
        {
            "name": "ORL",
            "lat": 28.542722216666668,
            "lon": 81.33501388333333
        },
        {
            "name": "POGIE",
            "lat": 29.769730566666667,
            "lon": 81.64859443333333
        },
        {
            "name": "SHINR",
            "lat": 29.58870556666667,
            "lon": 81.43973056666667
        },
        {
            "name": "WYTOK",
            "lat": 31.207080566666665,
            "lon": 81.05055833333333
        }
    ],
    "rnws": [
        "RNW 05",
        "RNW 14",
        "RNW 23",
        "RNW 32"
    ],
    "sids": [],
    "stars": [
        {
            "name": "AMG2",
            "runway": "RNW 05 RNW 14 RNW 23 RNW 32",
            "fixes": {
                "AMG": "AMG",
                "OHDEA": "OHDEA",
                "CRG": "CRG"
            }
        },
        {
            "name": "HOTAR1",
            "runway": "RNW 05 RNW 14 RNW 23 RNW 32",
            "fixes": {
                "JABOR": "JABOR",
                "HOTAR": "HOTAR",
                "LESVE": "OVERFLY LESVE HDG 213 VECTORS"
            }
        },
        {
            "name": "POGIE2",
            "runway": "RNW 05 RNW 14 RNW 23 RNW 32",
            "fixes": {
                "ORL": "ORL",
                "CROPY": "CROPY",
                "SHINR": "SHINR",
                "BASSS": "BASSS",
                "POGIE": "POGIE",
                "MOSEL": "MOSEL",
                "CRG": "CRG"
            }
        }
    ],
    "approaches": [
        {
            "name": "ILS32",
            "fixes": {
                "JEVAG": "JEVAG AT OR ABOVE 1900 JEVAG JEVAG AT OR ABOVE 1900 HOLD AT JEVAG LEFT TURN INBOUNDCOURSE 321 LEGTIME 1 FAF ADERR MAP RNW 32",
                "ADERR": "ADERR 1900 RNW 32 TRK 321 UNTIL 700 TURN RIGHT HDG 180 INTERCEPT RADIAL 139 TO"
            },
            "transitions": [
                {
                    "name": "CRG",
                    "fixes": {
                        "CRG": "CRG",
                        "JEVAG": "JEVAG AT OR ABOVE 1900 HOLD AT JEVAG LEFT TURN INBOUNDCOURSE 321 ALT 1900 LEGTIME 1"
                    }
                }
            ]
        },
        {
            "name": "RNAV14",
            "fixes": {
                "DIXYN": "DIXYN AT OR ABOVE 3000",
                "AMGEJ": "AMGEJ 1800",
                "CEBIS": "CEBIS AT OR ABOVE 900 RNW 14 TRK 141 UNTIL 284",
                "JEVAG": "OVERFLY JEVAG AT OR ABOVE 1900 HOLD AT JEVAG LEFT TURN INBOUNDCOURSE 321 LEGDIST 4 FAF AMGEJ MAP RNW 14"
            },
            "transitions": [
                {
                    "name": "GOBDE",
                    "fixes": {
                        "GOBDE": "GOBDE SPEED 210"
                    }
                },
                {
                    "name": "IPTAQ",
                    "fixes": {
                        "IPTAQ": "IPTAQ SPEED 210"
                    }
                }
            ]
        },
        {
            "name": "RNAV32",
            "fixes": {
                "JEVAG": "JEVAG AT OR ABOVE 1900 OVERFLY JEVAG AT OR ABOVE 1900 SPEED 230 HOLD AT JEVAG LEFT TURN INBOUNDCOURSE 321 LEGDIST 4 FAF ADERR MAP RNW 32",
                "ADERR": "ADERR 1900",
                "MUDVE": "MUDVE AT OR ABOVE 1000 RNW 32 TRK 321 UNTIL 700 TURN RIGHT DIRECT"
            },
            "transitions": [
                {
                    "name": "EPXOM",
                    "fixes": {
                        "EPXOM": "EPXOM SPEED 210"
                    }
                },
                {
                    "name": "JEVAG",
                    "fixes": {
                        "JEVAG": "JEVAG LEFT TURN INBOUNDCOURSE 321 ALT 1900 LEGDIST 4"
                    }
                },
                {
                    "name": "LOBLE",
                    "fixes": {
                        "LOBLE": "LOBLE SPEED 210"
                    }
                }
            ]
        },
        {
            "name": "VOR14",
            "fixes": {
                "DIXYN": "DIXYN AT OR ABOVE 3000",
                "ALVAS": "ALVAS 1800",
                "CINEP": "CINEP 76 RNW 14 TRK 132 UNTIL 441 TRK 129 UNTIL 2100 TURN RIGHT DIRECT",
                "CRG": "CRG HOLD AT CRG RIGHT TURN INBOUNDCOURSE 335 LEGTIME 1 FAF ALVAS MAP CINEP"
            },
            "transitions": []
        }
    ]
}