{
    "fixes": [
        {
            "name": "AF001",
            "lat": 34.2214744,
            "lon": 103.46911085
        },
        {
            "name": "AF002",
            "lat": 34.264761066666665,
            "lon": 103.51984926666667
        },
        {
            "name": "AF003",
            "lat": 34.31856695,
            "lon": 103.5527287
        },
        {
            "name": "AF004",
            "lat": 34.37802026666667,
            "lon": 103.56473608333333
        },
        {
            "name": "AF005",
            "lat": 34.43772731666667,
            "lon": 103.55473788333333
        },
        {
            "name": "AF006",
            "lat": 34.580517416666666,
            "lon": 103.32878378333334
        },
        {
            "name": "AF007",
            "lat": 34.57544798333333,
            "lon": 103.37706581666667
        },
        {
            "name": "AF008",
            "lat": 34.562537133333336,
            "lon": 103.42313875
        },
        {
            "name": "AF009",
            "lat": 34.57077451666667,
            "lon": 103.24736871666667
        },
        {
            "name": "AF010",
            "lat": 34.56029885,
            "lon": 103.21596361666667
        },
        {
            "name": "AF011",
            "lat": 34.181868683333335,
            "lon": 103.34979323333333
        },
        {
            "name": "AF012",
            "lat": 34.18207335,
            "lon": 103.29296156666666
        },
        {
            "name": "AF013",
            "lat": 34.19322248333334,
            "lon": 103.23774676666666
        },
        {
            "name": "BOJAY",
            "lat": 34.53618611666667,
            "lon": 103.17007221666667
        },
        {
            "name": "BURNR",
            "lat": 34.55348333333333,
            "lon": 103.12073333333333
        },
        {
            "name": "CEDAV",
            "lat": 34.43782221666667,
            "lon": 103.41415556666666
        },
        {
            "name": "CEGUG",
            "lat": 34.37104721666667,
            "lon": 103.31381943333334
        },
        {
            "name": "CLINK",
            "lat": 34.19229443333333,
            "lon": 103.40488611666666
        },
        {
            "name": "CURAM",
            "lat": 34.235269433333336,
            "lon": 103.50202221666666
        },
        {
            "name": "CUVGO",
            "lat": 34.315325,
            "lon": 103.40585556666667
        },
        {
            "name": "D027L",
            "lat": 34.546602783333334,
            "lon": 103.18703056666666
        },
        {
            "name": "D139L",
            "lat": 34.214413883333336,
            "lon": 103.18756388333334
        },
        {
            "name": "D209L",
            "lat": 34.21841666666667,
            "lon": 103.46418611666667
        },
        {
            "name": "D297L",
            "lat": 34.49245,
            "lon": 103.52302221666666
        },
        {
            "name": "D317L",
            "lat": 34.54258333333333,
            "lon": 103.46473333333333
        },
        {
            "name": "FERAK",
            "lat": 34.264769433333335,
            "lon": 103.51946388333333
        },
        {
            "name": "FESOG",
            "lat": 34.32301666666667,
            "lon": 103.42050278333333
        },
        {
            "name": "FETEP",
            "lat": 34.44231666666667,
            "lon": 103.25265278333333
        },
        {
            "name": "FINDI",
            "lat": 34.301980566666664,
            "lon": 103.42197221666666
        },
        {
            "name": "FOBUR",
            "lat": 34.23675,
            "lon": 103.15435833333333
        },
        {
            "name": "HASRU",
            "lat": 34.387619433333334,
            "lon": 103.33368333333334
        },
        {
            "name": "HEDOB",
            "lat": 34.577875,
            "lon": 103.28036666666667
        },
        {
            "name": "HEKDI",
            "lat": 34.52405278333333,
            "lon": 103.15361666666666
        },
        {
            "name": "HOMEP",
            "lat": 34.312452783333335,
            "lon": 103.24526943333333
        },
        {
            "name": "JARPI",
            "lat": 34.45841111666667,
            "lon": 103.24631943333333
        },
        {
            "name": "JATLA",
            "lat": 34.31162221666666,
            "lon": 103.24427221666667
        },
        {
            "name": "JEBES",
            "lat": 34.31211388333333,
            "lon": 103.40971943333334
        },
        {
            "name": "JOPNU",
            "lat": 34.44412221666666,
            "lon": 103.40402778333333
        },
        {
            "name": "LERAY",
            "lat": 34.443319433333336,
            "lon": 103.40305833333333
        },
        {
            "name": "MESBE",
            "lat": 34.501002783333334,
            "lon": 103.51568611666667
        },
        {
            "name": "MINRE",
            "lat": 34.3756,
            "lon": 103.33092778333334
        },
        {
            "name": "OPKUE",
            "lat": 34.442847216666664,
            "lon": 103.25201111666667
        },
        {
            "name": "PIBIE",
            "lat": 34.75351666666667,
            "lon": 103.32483888333333
        },
        {
            "name": "RAPKE",
            "lat": 34.520052783333334,
            "lon": 103.49594166666667
        },
        {
            "name": "RUSLE",
            "lat": 34.27327221666667,
            "lon": 102.96808333333334
        },
        {
            "name": "SOPLE",
            "lat": 34.240330566666664,
            "lon": 103.15863333333333
        },
        {
            "name": "STAFO",
            "lat": 34.38008333333333,
            "lon": 102.88971111666666
        },
        {
            "name": "TOLDE",
            "lat": 34.22006111666666,
            "lon": 103.17793611666667
        },
        {
            "name": "WARGA",
            "lat": 34.300336116666664,
            "lon": 103.25010556666666
        },
        {
            "name": "WIBES",
            "lat": 34.07782778333333,
            "lon": 103.20586666666667
        },
        {
            "name": "ZILEM",
            "lat": 34.240808333333334,
            "lon": 103.49539443333333
        },
        {
            "name": "ZORUB",
            "lat": 34.396155566666664,
            "lon": 103.30721388333333
        },
        {
            "name": "ZUNEN",
            "lat": 34.72948888333333,
            "lon": 103.37973888333333
        }
    ],
    "rnws": [
        "RNW 04",
        "RNW 13",
        "RNW 22",
        "RNW 31"
    ],
    "sids": [],
    "stars": [],
    "approaches": [
        {
            "name": "ILS04",
            "fixes": {
                "ZILEM": "ZILEM AT OR ABOVE 6000",
                "CUVGO": "CUVGO 5700 RNW 04 TRK 038 UNTIL 4700",
                "FETEP": "OVERFLY FETEP AT OR ABOVE 6000 HDG 318 INTERCEPT RADIAL 003 TO",
                "HEDOB": "HEDOB HEDOB AT OR ABOVE 7000 HOLD AT HEDOB RIGHT TURN INBOUNDCOURSE 183 ALT 10000 SPEED 265 LEGDIST 5 FAF CUVGO MAP RNW 04"
            },
            "transitions": [
                {
                    "name": "CLINK",
                    "fixes": {
                        "CLINK": "CLINK AT OR ABOVE 7000",
                        "D209L": "D209L AT OR ABOVE 6000"
                    }
                }
            ]
        },
        {
            "name": "ILS13",
            "fixes": {
                "RAPKE": "RAPKE AT OR ABOVE 7000",
                "JOPNU": "JOPNU 5900 RNW 13 TRK 128 UNTIL 4700",
                "HOMEP": "OVERFLY HOMEP AT OR ABOVE 6000",
                "CLINK": "CLINK AT OR ABOVE 7000 HOLD AT CLINK RIGHT TURN INBOUNDCOURSE 013 ALT 10000 SPEED 265 LEGDIST 5 FAF JOPNU MAP RNW 13"
            },
            "transitions": [
                {
                    "name": "CLINK",
                    "fixes": {
                        "CLINK": "CLINK AT OR ABOVE 7000",
                        "AF001": "AF001",
                        "AF002": "AF002",
                        "AF003": "AF003",
                        "AF004": "AF004",
                        "AF005": "AF005",
                        "D297L": "D297L AT OR ABOVE 7000"
                    }
                },
                {
                    "name": "HEDOB",
                    "fixes": {
                        "HEDOB": "HEDOB AT OR ABOVE 7000",
                        "AF006": "AF006",
                        "AF007": "AF007",
                        "AF008": "AF008",
                        "D317L": "D317L AT OR ABOVE 7000"
                    }
                }
            ]
        },
        {
            "name": "ILS22",
            "fixes": {
                "HEKDI": "HEKDI AT OR ABOVE 6000",
                "OPKUE": "OPKUE 5600 RNW 22 TRK 218 UNTIL 4700",
                "JEBES": "OVERFLY JEBES AT OR ABOVE 6000",
                "CLINK": "CLINK AT OR ABOVE 7000 HOLD AT CLINK RIGHT TURN INBOUNDCOURSE 013 ALT 10000 SPEED 265 LEGDIST 5 FAF OPKUE MAP RNW 22"
            },
            "transitions": [
                {
                    "name": "HEDOB",
                    "fixes": {
                        "HEDOB": "HEDOB AT OR ABOVE 7000",
                        "AF009": "AF009",
                        "AF010": "AF010",
                        "D027L": "D027L AT OR ABOVE 6000"
                    }
                }
            ]
        },
        {
            "name": "ILS31",
            "fixes": {
                "FOBUR": "FOBUR AT OR ABOVE 6000",
                "JATLA": "JATLA 5900 RNW 31 TRK 308 UNTIL 4700",
                "LERAY": "OVERFLY LERAY AT OR ABOVE 6000 TURN LEFT DIRECT",
                "CLINK": "CLINK AT OR ABOVE 7000 HOLD AT CLINK RIGHT TURN INBOUNDCOURSE 013 ALT 10000 SPEED 265 LEGDIST 5 FAF JATLA MAP RNW 31"
            },
            "transitions": [
                {
                    "name": "CLINK",
                    "fixes": {
                        "CLINK": "CLINK AT OR ABOVE 7000",
                        "AF011": "AF011",
                        "AF012": "AF012",
                        "AF013": "AF013",
                        "D139L": "D139L"
                    }
                }
            ]
        },
        {
            "name": "RNAV04",
            "fixes": {
                "CURAM": "CURAM 7000",
                "FINDI": "FINDI 6000 RNW 04 TRK 038 UNTIL 4695",
                "FETEP": "FETEP",
                "HEKDI": "HEKDI AT OR ABOVE 7000 HOLD AT HEKDI RIGHT TURN INBOUNDCOURSE 218 ALT 10000 SPEED 265 LEGDIST 5 FAF FINDI MAP RNW 04"
            },
            "transitions": [
                {
                    "name": "CURAM",
                    "fixes": {
                        "CURAM": "CURAM RIGHT TURN INBOUNDCOURSE 000 ALT 7000 SPEED 265 LEGDIST 5"
                    }
                }
            ]
        },
        {
            "name": "RNAV13",
            "fixes": {
                "RAPKE": "RAPKE AT OR ABOVE 7000",
                "LERAY": "LERAY 5900 RNW 13 TRK 128 UNTIL 4695",
                "HOMEP": "HOMEP",
                "SOPLE": "OVERFLY SOPLE AT OR ABOVE 7000 HOLD AT SOPLE RIGHT TURN INBOUNDCOURSE 308 ALT 10000 SPEED 230 LEGDIST 4 FAF LERAY MAP RNW 13"
            },
            "transitions": [
                {
                    "name": "ZUNEN",
                    "fixes": {
                        "ZUNEN": "ZUNEN AT OR ABOVE 8000"
                    }
                }
            ]
        },
        {
            "name": "RNAV22",
            "fixes": {
                "BURNR": "BURNR AT OR ABOVE 7000",
                "FETEP": "FETEP 5600 RNW 22 TRK 218 UNTIL 4695",
                "JEBES": "JEBES",
                "CLINK": "OVERFLY CLINK AT OR ABOVE 7000 HOLD AT CLINK RIGHT TURN INBOUNDCOURSE 013 ALT 10000 SPEED 265 LEGDIST 5 FAF FETEP MAP RNW 22"
            },
            "transitions": [
                {
                    "name": "PIBIE",
                    "fixes": {
                        "PIBIE": "PIBIE AT OR ABOVE 7000"
                    }
                },
                {
                    "name": "STAFO",
                    "fixes": {
                        "STAFO": "STAFO AT OR ABOVE 7000"
                    }
                }
            ]
        },
        {
            "name": "RNAV31",
            "fixes": {
                "FOBUR": "FOBUR AT OR ABOVE 7000",
                "HOMEP": "HOMEP 5900 RNW 31 TRK 308 UNTIL 4695",
                "RAPKE": "RAPKE",
                "ZUNEN": "OVERFLY ZUNEN AT OR ABOVE 7000 HOLD AT ZUNEN RIGHT TURN INBOUNDCOURSE 220 ALT 10000 SPEED 230 LEGDIST 4 FAF HOMEP MAP RNW 31"
            },
            "transitions": [
                {
                    "name": "RUSLE",
                    "fixes": {
                        "RUSLE": "RUSLE AT OR ABOVE 8000"
                    }
                },
                {
                    "name": "WIBES",
                    "fixes": {
                        "WIBES": "WIBES AT OR ABOVE 8000"
                    }
                }
            ]
        },
        {
            "name": "VOR04",
            "fixes": {
                "FERAK": "FERAK AT OR ABOVE 6000",
                "FESOG": "FESOG 5800",
                "MINRE": "MINRE 4316 RNW 04",
                "FETEP": "OVERFLY FETEP 6000 HDG 318 INTERCEPT RADIAL 003 TO",
                "HEDOB": "HEDOB HEDOB AT OR ABOVE 7000 HOLD AT HEDOB RIGHT TURN INBOUNDCOURSE 183 ALT 10000 SPEED 265 LEGTIME 1 FAF FESOG MAP MINRE"
            },
            "transitions": [
                {
                    "name": "CLINK",
                    "fixes": {
                        "CLINK": "CLINK AT OR ABOVE 7000"
                    }
                }
            ]
        },
        {
            "name": "VOR13",
            "fixes": {
                "MESBE": "MESBE AT OR ABOVE 6100",
                "CEDAV": "CEDAV 6000",
                "HASRU": "HASRU 4341 RNW 13",
                "HOMEP": "OVERFLY HOMEP AT OR ABOVE 6000 TURN RIGHT HDG 238 INTERCEPT RADIAL 193 TO",
                "CLINK": "CLINK CLINK AT OR ABOVE 7000 HOLD AT CLINK RIGHT TURN INBOUNDCOURSE 013 ALT 10000 SPEED 265 LEGDIST 5 FAF CEDAV MAP HASRU"
            },
            "transitions": [
                {
                    "name": "CLINK",
                    "fixes": {
                        "CLINK": "CLINK AT OR ABOVE 7000"
                    }
                },
                {
                    "name": "HEDOB",
                    "fixes": {
                        "HEDOB": "HEDOB AT OR ABOVE 7000"
                    }
                }
            ]
        },
        {
            "name": "VOR22",
            "fixes": {
                "BOJAY": "BOJAY AT OR ABOVE 6000",
                "JARPI": "JARPI 5700",
                "ZORUB": "ZORUB 4340 RNW 22",
                "JEBES": "JEBES AT OR ABOVE 6000",
                "CLINK": "CLINK AT OR ABOVE 7000 HOLD AT CLINK RIGHT TURN INBOUNDCOURSE 013 ALT 10000 SPEED 265 LEGDIST 5 FAF JARPI MAP ZORUB"
            },
            "transitions": [
                {
                    "name": "HEDOB",
                    "fixes": {
                        "HEDOB": "HEDOB AT OR ABOVE 7000"
                    }
                }
            ]
        },
        {
            "name": "VOR31",
            "fixes": {
                "TOLDE": "TOLDE AT OR ABOVE 6100",
                "WARGA": "WARGA 5900",
                "CEGUG": "CEGUG 4307 RNW 31",
                "LERAY": "OVERFLY LERAY AT OR ABOVE 6000 TURN LEFT HDG 148 INTERCEPT RADIAL 193 TO",
                "CLINK": "CLINK OVERFLY CLINK AT OR ABOVE 7000 HOLD AT CLINK RIGHT TURN INBOUNDCOURSE 013 ALT 10000 SPEED 265 LEGDIST 5 FAF WARGA MAP CEGUG"
            },
            "transitions": [
                {
                    "name": "CLINK",
                    "fixes": {
                        "CLINK": "CLINK AT OR ABOVE 6100"
                    }
                }
            ]
        }
    ]
}