{
    "fixes": [
        {
            "name": "AF001",
            "lat": 29.180531433333332,
            "lon": 81.38402551666667
        },
        {
            "name": "AF002",
            "lat": 29.132825633333333,
            "lon": 81.34769853333333
        },
        {
            "name": "AF003",
            "lat": 28.992116366666668,
            "lon": 81.0563609
        },
        {
            "name": "AF004",
            "lat": 28.989970333333332,
            "lon": 81.15033998333334
        },
        {
            "name": "AF005",
            "lat": 29.009110133333333,
            "lon": 81.24177661666667
        },
        {
            "name": "AF006",
            "lat": 29.553164116666668,
            "lon": 81.12022018333333
        },
        {
            "name": "AF007",
            "lat": 29.538137183333333,
            "lon": 81.01441896666667
        },
        {
            "name": "AF008",
            "lat": 29.490354016666668,
            "lon": 80.92238535
        },
        {
            "name": "AF009",
            "lat": 29.388484266666666,
            "lon": 80.84307721666667
        },
        {
            "name": "AF010",
            "lat": 29.359196816666667,
            "lon": 80.83320778333334
        },
        {
            "name": "AF011",
            "lat": 29.078370616666668,
            "lon": 80.88524218333333
        },
        {
            "name": "AF012",
            "lat": 29.148415716666666,
            "lon": 80.8182598
        },
        {
            "name": "AF013",
            "lat": 29.2328002,
            "lon": 80.77841228333334
        },
        {
            "name": "BANNR",
            "lat": 29.205644433333333,
            "lon": 80.99603888333333
        },
        {
            "name": "BARBS",
            "lat": 29.30745556666667,
            "lon": 81.40875556666667
        },
        {
            "name": "BIKEZ",
            "lat": 29.52195,
            "lon": 81.16669721666666
        },
        {
            "name": "BULLI",
            "lat": 29.567255566666667,
            "lon": 81.21316666666667
        },
        {
            "name": "CELAB",
            "lat": 29.200772216666667,
            "lon": 80.99591111666666
        },
        {
            "name": "CEPDA",
            "lat": 29.357477783333334,
            "lon": 81.13643888333333
        },
        {
            "name": "COCAD",
            "lat": 29.098361116666666,
            "lon": 81.26044443333333
        },
        {
            "name": "CRG",
            "lat": 30.338880566666667,
            "lon": 81.50992778333334
        },
        {
            "name": "CUKNU",
            "lat": 29.396875,
            "lon": 80.84733611666667
        },
        {
            "name": "D089O",
            "lat": 29.307319433333333,
            "lon": 80.82678333333334
        },
        {
            "name": "D223P",
            "lat": 29.107566666666667,
            "lon": 81.32031388333333
        },
        {
            "name": "DIYAK",
            "lat": 29.217869433333334,
            "lon": 80.96578611666666
        },
        {
            "name": "DOGRE",
            "lat": 29.225652783333334,
            "lon": 81.07302778333333
        },
        {
            "name": "EYORE",
            "lat": 29.102036116666667,
            "lon": 81.01373888333333
        },
        {
            "name": "FEMBA",
            "lat": 29.263566666666666,
            "lon": 81.09124721666667
        },
        {
            "name": "FOLIG",
            "lat": 29.140025,
            "lon": 81.15798056666667
        },
        {
            "name": "FOMRO",
            "lat": 29.256533333333334,
            "lon": 80.85820833333334
        },
        {
            "name": "GILNE",
            "lat": 29.259572216666665,
            "lon": 80.86244443333334
        },
        {
            "name": "GUANO",
            "lat": 29.099647216666668,
            "lon": 81.38859166666667
        },
        {
            "name": "HANAV",
            "lat": 29.256491666666665,
            "lon": 81.41293056666666
        },
        {
            "name": "HATAD",
            "lat": 29.162941666666665,
            "lon": 80.79199721666667
        },
        {
            "name": "HERLO",
            "lat": 29.145025,
            "lon": 81.03433611666667
        },
        {
            "name": "JAGGZ",
            "lat": 30.273230566666665,
            "lon": 81.26430278333333
        },
        {
            "name": "JODAB",
            "lat": 29.541041666666665,
            "lon": 81.20313888333334
        },
        {
            "name": "JUSAD",
            "lat": 29.142711116666668,
            "lon": 81.138775
        },
        {
            "name": "KAPDE",
            "lat": 29.19515,
            "lon": 81.02198056666667
        },
        {
            "name": "KESLR",
            "lat": 29.009019433333332,
            "lon": 80.96923056666667
        },
        {
            "name": "KYLEG",
            "lat": 30.826225,
            "lon": 81.64608888333333
        },
        {
            "name": "LPERD",
            "lat": 30.60255,
            "lon": 81.28115556666667
        },
        {
            "name": "MIKBE",
            "lat": 29.019644433333333,
            "lon": 80.99863056666666
        },
        {
            "name": "OAKIE",
            "lat": 28.851183333333335,
            "lon": 80.93120833333333
        },
        {
            "name": "OMN",
            "lat": 29.30325,
            "lon": 81.11269721666666
        },
        {
            "name": "PASIY",
            "lat": 29.369411116666665,
            "lon": 80.90014721666667
        },
        {
            "name": "RINEE",
            "lat": 29.273086116666665,
            "lon": 80.82887221666667
        },
        {
            "name": "ROLKE",
            "lat": 29.213091666666667,
            "lon": 80.96553333333334
        },
        {
            "name": "ROYES",
            "lat": 29.540558333333333,
            "lon": 81.43135
        },
        {
            "name": "SMYRA",
            "lat": 29.005411116666668,
            "lon": 80.99291943333333
        },
        {
            "name": "TACUR",
            "lat": 29.100491666666667,
            "lon": 81.24233056666667
        },
        {
            "name": "TIGAE",
            "lat": 29.08615,
            "lon": 81.29043611666667
        },
        {
            "name": "TTHOR",
            "lat": 29.664777783333335,
            "lon": 81.23334166666666
        },
        {
            "name": "WAMAL",
            "lat": 29.063177783333334,
            "lon": 81.3466
        },
        {
            "name": "WEEEK",
            "lat": 29.921891666666667,
            "lon": 81.24271388333334
        },
        {
            "name": "WISPO",
            "lat": 29.296911116666667,
            "lon": 80.76965
        },
        {
            "name": "WOGAD",
            "lat": 29.257963883333332,
            "lon": 80.86515833333333
        },
        {
            "name": "ZOPRI",
            "lat": 29.160036116666667,
            "lon": 81.10866388333334
        }
    ],
    "rnws": [
        "RNW 07L",
        "RNW 07R",
        "RNW 16",
        "RNW 25L",
        "RNW 25R",
        "RNW 34"
    ],
    "sids": [
        {
            "name": "ROYES7",
            "rnw": "27",
            "fixes": {
                "BARBS": "BARBS",
                "ROYES": "ROYES",
                "CRG": "CRG"
            },
            "sub_fixes": [
                {
                    "rwy": "RNW 07L",
                    "fixes": {
                        "RNW 07L": "RNW 07L HDG 070 UNTIL 4000 HDG 070 VECTORS"
                    }
                },
                {
                    "rwy": "RNW 07R",
                    "fixes": {
                        "RNW 07R": "RNW 07R HDG 070 UNTIL 4000 HDG 070 VECTORS"
                    }
                },
                {
                    "rwy": "RNW 16",
                    "fixes": {
                        "RNW 16": "RNW 16 HDG 162 UNTIL 4000 HDG 162 VECTORS"
                    }
                },
                {
                    "rwy": "RNW 25L",
                    "fixes": {
                        "RNW 25L": "RNW 25L HDG 250 UNTIL 4000 HDG 250 VECTORS"
                    }
                },
                {
                    "rwy": "RNW 25R",
                    "fixes": {
                        "RNW 25R": "RNW 25R HDG 250 UNTIL 4000 HDG 250 VECTORS"
                    }
                },
                {
                    "rwy": "RNW 34",
                    "fixes": {
                        "RNW 34": "RNW 34 HDG 342 UNTIL 4000 HDG 342 VECTORS"
                    }
                }
            ],
            "transitions": []
        }
    ],
    "stars": [
        {
            "name": "TTHOR3",
            "runway": "RNW 07L RNW 07R RNW 16 RNW 25L RNW 25R RNW 34",
            "fixes": {
                "TTHOR": "TTHOR 12000",
                "BIKEZ": "OVERFLY BIKEZ 12000 TRK 165 VECTORS"
            }
        }
    ],
    "approaches": [
        {
            "name": "ILS07L",
            "fixes": {
                "TIGAE": "TIGAE AT OR ABOVE 1600",
                "FOLIG": "FOLIG 1600 RNW 07L TRK 070 UNTIL 700 TURN RIGHT HDG 175 INTERCEPT RADIAL 213 TO",
                "SMYRA": "SMYRA SMYRA AT OR ABOVE 3000 HOLD AT SMYRA RIGHT TURN INBOUNDCOURSE 033 LEGTIME 1 FAF FOLIG MAP RNW 07L"
            },
            "transitions": [
                {
                    "name": "OMN",
                    "fixes": {
                        "OMN": "OMN",
                        "HANAV": "HANAV AT OR ABOVE 1600",
                        "AF001": "AF001",
                        "AF002": "AF002",
                        "D223P": "D223P AT OR ABOVE 1600"
                    }
                },
                {
                    "name": "SMYRA",
                    "fixes": {
                        "SMYRA": "SMYRA",
                        "AF003": "AF003",
                        "AF004": "AF004",
                        "AF005": "AF005",
                        "WAMAL": "WAMAL AT OR ABOVE 1900"
                    }
                }
            ]
        },
        {
            "name": "ILS25R",
            "fixes": {
                "RINEE": "RINEE AT OR ABOVE 2700",
                "DIYAK": "DIYAK 1600 RNW 25R TRK 250 UNTIL 500 TURN LEFT HDG 150 INTERCEPT RADIAL 161 TO",
                "SMYRA": "SMYRA SMYRA AT OR ABOVE 3000 HOLD AT SMYRA LEFT TURN INBOUNDCOURSE 341 LEGTIME 1 FAF DIYAK MAP RNW 25R"
            },
            "transitions": [
                {
                    "name": "JODAB",
                    "fixes": {
                        "JODAB": "JODAB",
                        "AF006": "AF006",
                        "AF007": "AF007",
                        "AF008": "AF008",
                        "CUKNU": "CUKNU AT OR ABOVE 2800",
                        "AF009": "AF009",
                        "AF010": "AF010",
                        "D089O": "D089O AT OR ABOVE 2700"
                    }
                },
                {
                    "name": "MIKBE",
                    "fixes": {
                        "MIKBE": "MIKBE",
                        "AF011": "AF011",
                        "AF012": "AF012",
                        "AF013": "AF013",
                        "WISPO": "WISPO AT OR ABOVE 2800"
                    }
                },
                {
                    "name": "OMN",
                    "fixes": {
                        "OMN": "OMN",
                        "CUKNU": "CUKNU AT OR ABOVE 2800",
                        "AF009": "AF009",
                        "AF010": "AF010",
                        "D089O": "D089O AT OR ABOVE 2700"
                    }
                }
            ]
        },
        {
            "name": "RNAV07L",
            "fixes": {
                "COCAD": "COCAD AT OR ABOVE 1700",
                "FOLIG": "FOLIG 1600",
                "ZOPRI": "ZOPRI AT OR ABOVE 680 RNW 07L TRK 070 UNTIL 228",
                "GILNE": "OVERFLY GILNE AT OR ABOVE 1600 HOLD AT GILNE LEFT TURN INBOUNDCOURSE 250 LEGDIST 4 FAF FOLIG MAP RNW 07L"
            },
            "transitions": [
                {
                    "name": "GUANO",
                    "fixes": {
                        "GUANO": "GUANO"
                    }
                },
                {
                    "name": "OMN",
                    "fixes": {
                        "OMN": "OMN",
                        "COCAD": "OVERFLY COCAD AT OR ABOVE 1700 HOLD AT COCAD LEFT TURN INBOUNDCOURSE 070 ALT 1700 LEGDIST 4"
                    }
                }
            ]
        },
        {
            "name": "RNAV07R",
            "fixes": {
                "TACUR": "TACUR AT OR ABOVE 1700",
                "JUSAD": "JUSAD 1600 RNW 07R TRK 070 UNTIL 440",
                "FOMRO": "OVERFLY FOMRO AT OR ABOVE 1600 HOLD AT FOMRO LEFT TURN INBOUNDCOURSE 250 LEGDIST 4 FAF JUSAD MAP RNW 07R"
            },
            "transitions": [
                {
                    "name": "GUANO",
                    "fixes": {
                        "GUANO": "GUANO"
                    }
                },
                {
                    "name": "OMN",
                    "fixes": {
                        "OMN": "OMN",
                        "TACUR": "TACUR AT OR ABOVE 1700 HOLD AT TACUR LEFT TURN INBOUNDCOURSE 070 ALT 1700 LEGDIST 4"
                    }
                }
            ]
        },
        {
            "name": "RNAV16",
            "fixes": {
                "CEPDA": "CEPDA AT OR ABOVE 2000",
                "FEMBA": "FEMBA 1600",
                "DOGRE": "DOGRE AT OR ABOVE 800 RNW 16 TRK 162 UNTIL 324",
                "KESLR": "OVERFLY KESLR AT OR ABOVE 1700 HOLD AT KESLR RIGHT TURN INBOUNDCOURSE 342 LEGDIST 4 FAF FEMBA MAP RNW 16"
            },
            "transitions": [
                {
                    "name": "BARBS",
                    "fixes": {
                        "BARBS": "BARBS"
                    }
                },
                {
                    "name": "OMN",
                    "fixes": {
                        "OMN": "OMN",
                        "CEPDA": "CEPDA AT OR ABOVE 2000 HOLD AT CEPDA LEFT TURN INBOUNDCOURSE 162 ALT 2000 LEGDIST 4"
                    }
                }
            ]
        },
        {
            "name": "RNAV25L",
            "fixes": {
                "FOMRO": "FOMRO AT OR ABOVE 1600",
                "ROLKE": "ROLKE 1600",
                "CELAB": "CELAB AT OR ABOVE 1020 RNW 25L TRK 250 UNTIL 434",
                "TACUR": "OVERFLY TACUR AT OR ABOVE 1700 HOLD AT TACUR LEFT TURN INBOUNDCOURSE 070 LEGDIST 4 FAF ROLKE MAP RNW 25L"
            },
            "transitions": [
                {
                    "name": "OAKIE",
                    "fixes": {
                        "OAKIE": "OAKIE",
                        "FOMRO": "OVERFLY FOMRO AT OR ABOVE 1600 HOLD AT FOMRO LEFT TURN INBOUNDCOURSE 250 ALT 1600 LEGDIST 4"
                    }
                },
                {
                    "name": "OMN",
                    "fixes": {
                        "OMN": "OMN",
                        "FOMRO": "OVERFLY FOMRO AT OR ABOVE 1600 HOLD AT FOMRO LEFT TURN INBOUNDCOURSE 250 ALT 1600 LEGDIST 4"
                    }
                }
            ]
        },
        {
            "name": "RNAV25R",
            "fixes": {
                "WOGAD": "WOGAD AT OR ABOVE 1600",
                "DIYAK": "DIYAK 1600",
                "BANNR": "BANNR AT OR ABOVE 1040",
                "KAPDE": "KAPDE AT OR ABOVE 560 RNW 25R TRK 250 UNTIL 434",
                "COCAD": "OVERFLY COCAD AT OR ABOVE 1700 HOLD AT COCAD LEFT TURN INBOUNDCOURSE 070 LEGDIST 4 FAF DIYAK MAP RNW 25R"
            },
            "transitions": [
                {
                    "name": "BULLI",
                    "fixes": {
                        "BULLI": "BULLI",
                        "PASIY": "PASIY AT OR ABOVE 1600"
                    }
                },
                {
                    "name": "OAKIE",
                    "fixes": {
                        "OAKIE": "OAKIE",
                        "HATAD": "HATAD AT OR ABOVE 1600"
                    }
                }
            ]
        },
        {
            "name": "RNAV34",
            "fixes": {
                "KESLR": "KESLR AT OR ABOVE 1700",
                "EYORE": "EYORE 1600",
                "HERLO": "HERLO AT OR ABOVE 700 RNW 34 TRK 342 UNTIL 380",
                "CEPDA": "OVERFLY CEPDA AT OR ABOVE 2000 HOLD AT CEPDA LEFT TURN INBOUNDCOURSE 162 LEGDIST 4 FAF EYORE MAP RNW 34"
            },
            "transitions": [
                {
                    "name": "BARBS",
                    "fixes": {
                        "BARBS": "BARBS",
                        "KESLR": "OVERFLY KESLR AT OR ABOVE 1700 HOLD AT KESLR RIGHT TURN INBOUNDCOURSE 342 ALT 1700 LEGDIST 4"
                    }
                },
                {
                    "name": "OAKIE",
                    "fixes": {
                        "OAKIE": "OAKIE"
                    }
                }
            ]
        }
    ]
}