{
    "fixes": [
        {
            "name": "BARBS",
            "lat": 29.30745556666667,
            "lon": 81.40875556666667
        },
        {
            "name": "BIKEZ",
            "lat": 29.52195,
            "lon": 81.16669721666666
        },
        {
            "name": "CUGAK",
            "lat": 28.977538883333334,
            "lon": 81.08118056666666
        },
        {
            "name": "HOSOK",
            "lat": 29.11959166666667,
            "lon": 81.21188056666666
        },
        {
            "name": "IDROF",
            "lat": 29.107319433333334,
            "lon": 81.37069721666667
        },
        {
            "name": "JAGGZ",
            "lat": 30.273230566666665,
            "lon": 81.26430278333333
        },
        {
            "name": "KYLEG",
            "lat": 30.826225,
            "lon": 81.64608888333333
        },
        {
            "name": "LPERD",
            "lat": 30.60255,
            "lon": 81.28115556666667
        },
        {
            "name": "MAMBO",
            "lat": 28.74838056666667,
            "lon": 81.62167778333334
        },
        {
            "name": "OAKIE",
            "lat": 28.851183333333335,
            "lon": 80.93120833333333
        },
        {
            "name": "OMN",
            "lat": 29.30325,
            "lon": 81.11269721666666
        },
        {
            "name": "RUXZO",
            "lat": 28.996786116666666,
            "lon": 81.371125
        },
        {
            "name": "SEVAE",
            "lat": 29.033297216666668,
            "lon": 81.32384166666667
        },
        {
            "name": "SMYRA",
            "lat": 29.005411116666668,
            "lon": 80.99291943333333
        },
        {
            "name": "TTHOR",
            "lat": 29.664777783333335,
            "lon": 81.23334166666666
        },
        {
            "name": "UFIPI",
            "lat": 28.928486116666665,
            "lon": 81.45942778333334
        },
        {
            "name": "WEEEK",
            "lat": 29.921891666666667,
            "lon": 81.24271388333334
        },
        {
            "name": "WEKLU",
            "lat": 29.189802783333334,
            "lon": 81.12056666666666
        },
        {
            "name": "XEHMO",
            "lat": 29.155722216666668,
            "lon": 81.47919443333333
        },
        {
            "name": "YEBBU",
            "lat": 29.029877783333333,
            "lon": 81.19769443333334
        }
    ],
    "rnws": [
        "RNW 05",
        "RNW 12",
        "RNW 23",
        "RNW 30"
    ],
    "sids": [],
    "stars": [
        {
            "name": "TTHOR3",
            "runway": "RNW 05 RNW 12 RNW 23 RNW 30",
            "fixes": {
                "TTHOR": "TTHOR 12000",
                "BIKEZ": "OVERFLY BIKEZ 12000 TRK 165 VECTORS"
            }
        }
    ],
    "approaches": [
        {
            "name": "RNAV05",
            "fixes": {
                "UFIPI": "UFIPI AT OR ABOVE 2000",
                "RUXZO": "RUXZO 2000",
                "SEVAE": "SEVAE AT OR ABOVE 900 RNW 05 TRK 054 UNTIL 385",
                "HOSOK": "HOSOK TURN LEFT DIRECT",
                "BARBS": "OVERFLY BARBS AT OR ABOVE 3000 HOLD AT BARBS LEFT TURN INBOUNDCOURSE 175 LEGDIST 5 FAF RUXZO MAP RNW 05"
            },
            "transitions": [
                {
                    "name": "MAMBO",
                    "fixes": {
                        "MAMBO": "MAMBO"
                    }
                }
            ]
        },
        {
            "name": "RNAV12",
            "fixes": {
                "XEHMO": "XEHMO AT OR ABOVE 1600",
                "IDROF": "IDROF 1600 RNW 12 TRK 122 UNTIL 404",
                "CUGAK": "CUGAK",
                "OAKIE": "OVERFLY OAKIE AT OR ABOVE 2000 HOLD AT OAKIE RIGHT TURN INBOUNDCOURSE 167 LEGDIST 4 FAF IDROF MAP RNW 12"
            },
            "transitions": [
                {
                    "name": "BARBS",
                    "fixes": {
                        "BARBS": "BARBS"
                    }
                }
            ]
        },
        {
            "name": "RNAV23",
            "fixes": {
                "WEKLU": "WEKLU AT OR ABOVE 1600",
                "HOSOK": "HOSOK 1600 RNW 23 TRK 234 UNTIL 374",
                "RUXZO": "RUXZO",
                "MAMBO": "OVERFLY MAMBO AT OR ABOVE 3000 HOLD AT MAMBO LEFT TURN INBOUNDCOURSE 134 LEGDIST 4 FAF HOSOK MAP RNW 23"
            },
            "transitions": [
                {
                    "name": "OMN",
                    "fixes": {
                        "OMN": "OMN"
                    }
                }
            ]
        },
        {
            "name": "RNAV30",
            "fixes": {
                "CUGAK": "CUGAK AT OR ABOVE 2000",
                "YEBBU": "YEBBU 1600 RNW 30 TRK 302 UNTIL 480",
                "XEHMO": "XEHMO",
                "BARBS": "OVERFLY BARBS AT OR ABOVE 3000 HOLD AT BARBS LEFT TURN INBOUNDCOURSE 175 LEGDIST 5 FAF YEBBU MAP RNW 30"
            },
            "transitions": [
                {
                    "name": "OAKIE",
                    "fixes": {
                        "OAKIE": "OAKIE"
                    }
                },
                {
                    "name": "SMYRA",
                    "fixes": {
                        "SMYRA": "SMYRA"
                    }
                }
            ]
        }
    ]
}