{
    "fixes": [
        {
            "name": "AMENN",
            "lat": 33.98400556666667,
            "lon": 82.22555
        },
        {
            "name": "ANNAN",
            "lat": 33.45840556666667,
            "lon": 82.742775
        },
        {
            "name": "AZALA",
            "lat": 34.25394721666667,
            "lon": 82.29556943333333
        },
        {
            "name": "BOGII",
            "lat": 33.75108611666667,
            "lon": 81.84664166666667
        },
        {
            "name": "BRDYE",
            "lat": 33.85446666666667,
            "lon": 82.06749443333334
        },
        {
            "name": "CABOM",
            "lat": 33.40131111666667,
            "lon": 82.11048333333333
        },
        {
            "name": "CHATT",
            "lat": 34.15267778333333,
            "lon": 81.87464443333333
        },
        {
            "name": "EBANS",
            "lat": 33.553525,
            "lon": 82.08442778333334
        },
        {
            "name": "EMRNB",
            "lat": 33.462808333333335,
            "lon": 81.99685556666667
        },
        {
            "name": "FAMGO",
            "lat": 33.59573056666667,
            "lon": 81.89386666666667
        },
        {
            "name": "FOGOB",
            "lat": 33.40820278333333,
            "lon": 82.28392778333334
        },
        {
            "name": "GARFI",
            "lat": 33.48354166666667,
            "lon": 82.143025
        },
        {
            "name": "GSO",
            "lat": 36.04569166666667,
            "lon": 79.97637221666666
        },
        {
            "name": "HADOC",
            "lat": 33.1205,
            "lon": 83.02714443333333
        },
        {
            "name": "HARLE",
            "lat": 33.378763883333335,
            "lon": 82.64895833333334
        },
        {
            "name": "HOGAP",
            "lat": 35.21454166666667,
            "lon": 81.64910556666666
        },
        {
            "name": "HOGUV",
            "lat": 33.50736666666667,
            "lon": 82.06119166666667
        },
        {
            "name": "INIKE",
            "lat": 33.61594443333333,
            "lon": 82.22395556666666
        },
        {
            "name": "IRQ",
            "lat": 33.707352783333334,
            "lon": 82.16206388333333
        },
        {
            "name": "JITOL",
            "lat": 33.48571388333333,
            "lon": 82.12420556666666
        },
        {
            "name": "JODVU",
            "lat": 33.51207778333333,
            "lon": 82.25397778333334
        },
        {
            "name": "JUTEL",
            "lat": 33.64582778333333,
            "lon": 82.13097778333334
        },
        {
            "name": "MAFLU",
            "lat": 33.47078056666667,
            "lon": 82.04279166666667
        },
        {
            "name": "MISTY",
            "lat": 33.24624721666667,
            "lon": 82.84350556666666
        },
        {
            "name": "NDINA",
            "lat": 33.45548611666667,
            "lon": 82.93576111666667
        },
        {
            "name": "NKLAS",
            "lat": 33.82338611666667,
            "lon": 82.36446388333333
        },
        {
            "name": "PI001",
            "lat": 33.49365208333333,
            "lon": 82.21191081666667
        },
        {
            "name": "PI002",
            "lat": 33.552348216666665,
            "lon": 82.26123555
        },
        {
            "name": "PI003",
            "lat": 33.51232743333333,
            "lon": 82.3398842
        },
        {
            "name": "PMPAS",
            "lat": 33.461244433333334,
            "lon": 82.52725278333334
        },
        {
            "name": "SAMMI",
            "lat": 33.77864443333333,
            "lon": 81.644625
        },
        {
            "name": "STWRT",
            "lat": 33.635319433333336,
            "lon": 81.47711666666666
        },
        {
            "name": "SWANG",
            "lat": 34.001505566666665,
            "lon": 81.9726
        },
        {
            "name": "TASPE",
            "lat": 33.313036116666666,
            "lon": 82.16694443333333
        },
        {
            "name": "TRPLE",
            "lat": 33.721105566666665,
            "lon": 82.06352778333333
        }
    ],
    "rnws": [
        "RNW 05",
        "RNW 11",
        "RNW 23",
        "RNW 29"
    ],
    "sids": [
        {
            "name": "AZALA4",
            "rnw": "05",
            "fixes": {
                "NKLAS": "NKLAS",
                "AMENN": "AMENN",
                "AZALA": "OVERFLY AZALA HDG 352 VECTORS"
            },
            "sub_fixes": [],
            "transitions": []
        },
        {
            "name": "CHATT6",
            "rnw": "05",
            "fixes": {
                "BRDYE": "BRDYE",
                "SWANG": "SWANG",
                "CHATT": "CHATT"
            },
            "sub_fixes": [],
            "transitions": [
                {
                    "name": "GSO",
                    "fixes": [
                        "GSO"
                    ]
                },
                {
                    "name": "HOGAP",
                    "fixes": [
                        "HOGAP"
                    ]
                }
            ]
        },
        {
            "name": "MISTY6",
            "rnw": "05",
            "fixes": {
                "PMPAS": "PMPAS",
                "HARLE": "HARLE",
                "MISTY": "MISTY",
                "HADOC": "OVERFLY HADOC HDG 235 VECTORS"
            },
            "sub_fixes": [],
            "transitions": []
        },
        {
            "name": "NDINA5",
            "rnw": "05",
            "fixes": {
                "PMPAS": "PMPAS",
                "ANNAN": "ANNAN",
                "NDINA": "OVERFLY NDINA HDG 273 VECTORS"
            },
            "sub_fixes": [],
            "transitions": []
        },
        {
            "name": "SAMMI4",
            "rnw": "05",
            "fixes": {
                "TRPLE": "TRPLE",
                "BOGII": "BOGII",
                "SAMMI": "OVERFLY SAMMI HDG 085 VECTORS"
            },
            "sub_fixes": [],
            "transitions": []
        }
    ],
    "stars": [],
    "approaches": [
        {
            "name": "VORDB05",
            "fixes": {
                "JUTEL": "JUTEL AT OR ABOVE 2100",
                "EBANS": "EBANS 2100",
                "HOGUV": "HOGUV AT OR ABOVE 1160",
                "MAFLU": "OVERFLY MAFLU 1020 RNW 05 TURN LEFT DIRECT",
                "IRQ": "IRQ AT OR ABOVE 2100 HOLD AT IRQ RIGHT TURN INBOUNDCOURSE 161 LEGTIME 1 FAF EBANS MAP MAFLU"
            },
            "transitions": [
                {
                    "name": "IRQ",
                    "fixes": {
                        "IRQ": "IRQ"
                    }
                }
            ]
        },
        {
            "name": "VORDB11",
            "fixes": {
                "JUTEL": "JUTEL AT OR ABOVE 2100",
                "EBANS": "EBANS 2100",
                "HOGUV": "HOGUV AT OR ABOVE 1160",
                "MAFLU": "OVERFLY MAFLU 1020 RNW 11 TURN LEFT DIRECT",
                "IRQ": "IRQ AT OR ABOVE 2100 HOLD AT IRQ RIGHT TURN INBOUNDCOURSE 161 LEGTIME 1 FAF EBANS MAP MAFLU"
            },
            "transitions": [
                {
                    "name": "IRQ",
                    "fixes": {
                        "IRQ": "IRQ"
                    }
                }
            ]
        },
        {
            "name": "VORDB23",
            "fixes": {
                "JUTEL": "JUTEL AT OR ABOVE 2100",
                "EBANS": "EBANS 2100",
                "HOGUV": "HOGUV AT OR ABOVE 1160",
                "MAFLU": "OVERFLY MAFLU 1020 RNW 23 TURN LEFT DIRECT",
                "IRQ": "IRQ AT OR ABOVE 2100 HOLD AT IRQ RIGHT TURN INBOUNDCOURSE 161 LEGTIME 1 FAF EBANS MAP MAFLU"
            },
            "transitions": [
                {
                    "name": "IRQ",
                    "fixes": {
                        "IRQ": "IRQ"
                    }
                }
            ]
        },
        {
            "name": "VORDB29",
            "fixes": {
                "JUTEL": "JUTEL AT OR ABOVE 2100",
                "EBANS": "EBANS 2100",
                "HOGUV": "HOGUV AT OR ABOVE 1160",
                "MAFLU": "OVERFLY MAFLU 1020 RNW 29 TURN LEFT DIRECT",
                "IRQ": "IRQ AT OR ABOVE 2100 HOLD AT IRQ RIGHT TURN INBOUNDCOURSE 161 LEGTIME 1 FAF EBANS MAP MAFLU"
            },
            "transitions": [
                {
                    "name": "IRQ",
                    "fixes": {
                        "IRQ": "IRQ"
                    }
                }
            ]
        },
        {
            "name": "NDB11",
            "fixes": {
                "GARFI": "GARFI 2000 RNW 11 TRK 104 UNTIL 830 TURN RIGHT HDG 335 INTERCEPT RADIAL 284 TO GARFI GARFI AT OR ABOVE 2100 HOLD AT GARFI RIGHT TURN INBOUNDCOURSE 104 LEGTIME 1 FAF GARFI MAP RNW 11"
            },
            "transitions": [
                {
                    "name": "IRQ",
                    "fixes": {
                        "IRQ": "IRQ",
                        "GARFI": "GARFI AT OR ABOVE 2100",
                        "PI001": "PI001 AT OR ABOVE 2100 SPEED 210",
                        "PI002": "OVERFLY PI002 AT OR ABOVE 2100 SPEED 210",
                        "PI003": "PI003 AT OR ABOVE 2100 SPEED 210"
                    }
                },
                {
                    "name": "STWRT",
                    "fixes": {
                        "STWRT": "STWRT",
                        "EMRNB": "EMRNB AT OR ABOVE 3000",
                        "GARFI": "GARFI AT OR ABOVE 2100",
                        "PI001": "PI001 AT OR ABOVE 2100 SPEED 210",
                        "PI002": "OVERFLY PI002 AT OR ABOVE 2100 SPEED 210",
                        "PI003": "PI003 AT OR ABOVE 2100 SPEED 210"
                    }
                }
            ]
        },
        {
            "name": "RNAV05",
            "fixes": {
                "TASPE": "TASPE AT OR ABOVE 2700",
                "CABOM": "CABOM 2000 RNW 05 TRK 047 UNTIL 661",
                "FAMGO": "OVERFLY FAMGO AT OR ABOVE 3400 HOLD AT FAMGO RIGHT TURN INBOUNDCOURSE 047 ALT 3400 LEGDIST 4 FAF CABOM MAP RNW 05"
            },
            "transitions": []
        },
        {
            "name": "RNAVY11",
            "fixes": {
                "JODVU": "JODVU AT OR ABOVE 2100 OVERFLY JODVU AT OR ABOVE 2100 HOLD AT JODVU RIGHT TURN INBOUNDCOURSE 108 LEGDIST 4 FAF JITOL MAP RNW 11",
                "JITOL": "JITOL 2000 RNW 11 TRK 108 UNTIL 1400 TURN LEFT DIRECT"
            },
            "transitions": [
                {
                    "name": "FOGOB",
                    "fixes": {
                        "FOGOB": "FOGOB"
                    }
                },
                {
                    "name": "INIKE",
                    "fixes": {
                        "INIKE": "INIKE"
                    }
                },
                {
                    "name": "JODVU",
                    "fixes": {
                        "JODVU": "JODVU RIGHT TURN INBOUNDCOURSE 108 ALT 2100 LEGDIST 4"
                    }
                }
            ]
        }
    ]
}