{
    "fixes": [
        {
            "name": "COPDO",
            "lat": 46.89403333333333,
            "lon": 95.96889443333333
        },
        {
            "name": "DTL",
            "lat": 46.825525,
            "lon": 95.88732221666666
        },
        {
            "name": "DUWIZ",
            "lat": 46.78618888333333,
            "lon": 95.83223611666666
        },
        {
            "name": "FEMAV",
            "lat": 46.89395556666667,
            "lon": 96.19804443333334
        },
        {
            "name": "FF32",
            "lat": 46.748441666666665,
            "lon": 95.77948333333333
        },
        {
            "name": "GUKLE",
            "lat": 47.04889721666667,
            "lon": 95.93049166666667
        },
        {
            "name": "HUSES",
            "lat": 46.67213056666667,
            "lon": 95.69711943333333
        },
        {
            "name": "JUSAT",
            "lat": 46.748691666666666,
            "lon": 95.79054721666667
        },
        {
            "name": "LEMDE",
            "lat": 46.59498611666667,
            "lon": 95.83046666666667
        },
        {
            "name": "PEYOK",
            "lat": 46.749116666666666,
            "lon": 95.56338888333333
        },
        {
            "name": "PI001",
            "lat": 46.78354825,
            "lon": 95.82814535
        },
        {
            "name": "PI002",
            "lat": 46.71189248333334,
            "lon": 95.82996948333333
        },
        {
            "name": "PI003",
            "lat": 46.705510716666666,
            "lon": 95.71849003333334
        },
        {
            "name": "ROLAG",
            "lat": 46.80371111666667,
            "lon": 96.23459166666666
        },
        {
            "name": "STARR",
            "lat": 46.5036,
            "lon": 95.87411388333334
        },
        {
            "name": "ZUTIP",
            "lat": 46.971505566666664,
            "lon": 96.06446111666666
        }
    ],
    "rnws": [
        "RNW 14",
        "RNW 18",
        "RNW 32",
        "RNW 36"
    ],
    "sids": [],
    "stars": [],
    "approaches": [
        {
            "name": "RNAV14",
            "fixes": {
                "ZUTIP": "ZUTIP AT OR ABOVE 3100",
                "COPDO": "COPDO 3100 RNW 14 TRK 138 UNTIL 1643",
                "HUSES": "OVERFLY HUSES AT OR ABOVE 3100 HOLD AT HUSES RIGHT TURN INBOUNDCOURSE 318 LEGDIST 4 FAF COPDO MAP RNW 14"
            },
            "transitions": [
                {
                    "name": "FEMAV",
                    "fixes": {
                        "FEMAV": "FEMAV"
                    }
                },
                {
                    "name": "GUKLE",
                    "fixes": {
                        "GUKLE": "GUKLE"
                    }
                },
                {
                    "name": "ZUTIP",
                    "fixes": {
                        "ZUTIP": "ZUTIP RIGHT TURN INBOUNDCOURSE 138 ALT 3100 LEGDIST 4"
                    }
                }
            ]
        },
        {
            "name": "RNAV32",
            "fixes": {
                "HUSES": "HUSES AT OR ABOVE 3100",
                "JUSAT": "JUSAT 3100 RNW 32 TRK 318 UNTIL 1622",
                "ZUTIP": "OVERFLY ZUTIP AT OR ABOVE 3100 HOLD AT ZUTIP RIGHT TURN INBOUNDCOURSE 138 LEGDIST 4 FAF JUSAT MAP RNW 32"
            },
            "transitions": [
                {
                    "name": "HUSES",
                    "fixes": {
                        "HUSES": "HUSES RIGHT TURN INBOUNDCOURSE 318 ALT 3100 LEGDIST 4"
                    }
                },
                {
                    "name": "LEMDE",
                    "fixes": {
                        "LEMDE": "LEMDE"
                    }
                },
                {
                    "name": "PEYOK",
                    "fixes": {
                        "PEYOK": "PEYOK"
                    }
                }
            ]
        },
        {
            "name": "VOR32",
            "fixes": {
                "FF32": "FF32 3200",
                "DUWIZ": "DUWIZ AT OR ABOVE 2200 RNW 32",
                "DTL": "OVERFLY DTL TRK 314 UNTIL 2500 TURN LEFT DIRECT DTL AT OR ABOVE 3200 HOLD AT DTL RIGHT TURN INBOUNDCOURSE 144 ALT 3200 LEGTIME 1 FAF FF32 MAP RNW 32"
            },
            "transitions": [
                {
                    "name": "ROLAG",
                    "fixes": {
                        "ROLAG": "ROLAG",
                        "DTL": "DTL AT OR ABOVE 3200",
                        "PI001": "PI001 AT OR ABOVE 3200 SPEED 210",
                        "PI002": "OVERFLY PI002 AT OR ABOVE 3200 SPEED 210",
                        "PI003": "PI003 AT OR ABOVE 3200 SPEED 210"
                    }
                },
                {
                    "name": "STARR",
                    "fixes": {
                        "STARR": "STARR",
                        "DTL": "DTL AT OR ABOVE 3200",
                        "PI001": "PI001 AT OR ABOVE 3200 SPEED 210",
                        "PI002": "OVERFLY PI002 AT OR ABOVE 3200 SPEED 210",
                        "PI003": "PI003 AT OR ABOVE 3200 SPEED 210"
                    }
                }
            ]
        }
    ]
}