{
    "fixes": [
        {
            "name": "CREPY",
            "lat": 32.291927783333335,
            "lon": 93.70677778333334
        },
        {
            "name": "EIC",
            "lat": 32.771363883333336,
            "lon": 93.80993056666667
        },
        {
            "name": "EMG",
            "lat": 32.40040556666667,
            "lon": 93.59514721666666
        },
        {
            "name": "GOCTE",
            "lat": 32.47525,
            "lon": 93.68126666666667
        },
        {
            "name": "JENNA",
            "lat": 32.42500278333333,
            "lon": 93.28652221666667
        },
        {
            "name": "JUVES",
            "lat": 32.67666943333333,
            "lon": 93.87860278333333
        },
        {
            "name": "KANNE",
            "lat": 32.61658056666667,
            "lon": 94.22608611666666
        },
        {
            "name": "LEANS",
            "lat": 32.72329166666667,
            "lon": 93.93981943333333
        },
        {
            "name": "MOKPE",
            "lat": 32.16174443333333,
            "lon": 93.81449443333334
        },
        {
            "name": "NAILS",
            "lat": 32.67627778333333,
            "lon": 93.88940278333334
        },
        {
            "name": "PEPOE",
            "lat": 32.37711388333334,
            "lon": 93.58554443333334
        },
        {
            "name": "PHONS",
            "lat": 32.49633888333334,
            "lon": 93.84664721666667
        },
        {
            "name": "PITBE",
            "lat": 32.65536111666667,
            "lon": 93.54651943333333
        },
        {
            "name": "SHOED",
            "lat": 32.462183333333336,
            "lon": 93.46408333333333
        },
        {
            "name": "SOMUE",
            "lat": 32.613844433333334,
            "lon": 93.81694166666666
        },
        {
            "name": "WAFER",
            "lat": 32.601022216666664,
            "lon": 93.80883611666667
        },
        {
            "name": "WEGON",
            "lat": 32.467469433333335,
            "lon": 93.67367778333333
        },
        {
            "name": "WRONG",
            "lat": 32.59752221666667,
            "lon": 93.64561666666667
        },
        {
            "name": "WUMAP",
            "lat": 32.53070278333333,
            "lon": 93.75977221666666
        },
        {
            "name": "WUMDU",
            "lat": 32.550505566666665,
            "lon": 93.754875
        },
        {
            "name": "YOORR",
            "lat": 32.45316388333333,
            "lon": 93.9555
        },
        {
            "name": "ZOROD",
            "lat": 32.71776388333333,
            "lon": 93.91900556666667
        }
    ],
    "rnws": [
        "RNW 05",
        "RNW 14",
        "RNW 23",
        "RNW 32"
    ],
    "sids": [],
    "stars": [],
    "approaches": [
        {
            "name": "LOC14",
            "fixes": {
                "NAILS": "NAILS AT OR ABOVE 3100",
                "WAFER": "WAFER 1700",
                "WUMDU": "OVERFLY WUMDU 350 RNW 14",
                "EMG": "EMG AT OR ABOVE 2000 HOLD AT EMG RIGHT TURN INBOUNDCOURSE 323 LEGTIME 1 FAF WAFER MAP WUMDU"
            },
            "transitions": [
                {
                    "name": "EIC",
                    "fixes": {
                        "EIC": "EIC"
                    }
                },
                {
                    "name": "KANNE",
                    "fixes": {
                        "KANNE": "KANNE",
                        "LEANS": "LEANS AT OR ABOVE 3100"
                    }
                }
            ]
        },
        {
            "name": "RNAV05",
            "fixes": {
                "YOORR": "YOORR AT OR ABOVE 2100",
                "PHONS": "PHONS 2000",
                "WUMAP": "OVERFLY WUMAP 437 RNW 05 TRK 064 UNTIL 579",
                "PITBE": "OVERFLY PITBE AT OR ABOVE 2000 HOLD AT PITBE RIGHT TURN INBOUNDCOURSE 234 LEGDIST 4 FAF PHONS MAP WUMAP"
            },
            "transitions": [
                {
                    "name": "YOORR",
                    "fixes": {
                        "YOORR": "YOORR LEFT TURN INBOUNDCOURSE 064 ALT 2100 LEGDIST 4"
                    }
                }
            ]
        },
        {
            "name": "RNAV14",
            "fixes": {
                "ZOROD": "ZOROD AT OR ABOVE 3100",
                "JUVES": "JUVES AT OR ABOVE 2600",
                "SOMUE": "SOMUE 1900 RNW 14 TRK 139 UNTIL 429",
                "GOCTE": "GOCTE",
                "EMG": "OVERFLY EMG AT OR ABOVE 3000 HOLD AT EMG RIGHT TURN INBOUNDCOURSE 323 LEGDIST 4 FAF SOMUE MAP RNW 14"
            },
            "transitions": [
                {
                    "name": "EIC",
                    "fixes": {
                        "EIC": "EIC",
                        "ZOROD": "OVERFLY ZOROD AT OR ABOVE 3100 HOLD AT ZOROD LEFT TURN INBOUNDCOURSE 139 ALT 3100 LEGDIST 4"
                    }
                },
                {
                    "name": "KANNE",
                    "fixes": {
                        "KANNE": "KANNE"
                    }
                }
            ]
        },
        {
            "name": "RNAV23",
            "fixes": {
                "PITBE": "PITBE AT OR ABOVE 2000",
                "WRONG": "WRONG 2000 RNW 23 TRK 234 UNTIL 579 TURN RIGHT DIRECT",
                "ZOROD": "OVERFLY ZOROD AT OR ABOVE 3100 HOLD AT ZOROD LEFT TURN INBOUNDCOURSE 139 LEGDIST 4 FAF WRONG MAP RNW 23"
            },
            "transitions": [
                {
                    "name": "PITBE",
                    "fixes": {
                        "PITBE": "PITBE RIGHT TURN INBOUNDCOURSE 234 ALT 2000 LEGDIST 4"
                    }
                }
            ]
        },
        {
            "name": "RNAV32",
            "fixes": {
                "PEPOE": "PEPOE AT OR ABOVE 3100",
                "WEGON": "WEGON 1900 RNW 32 TRK 319 UNTIL 579",
                "ZOROD": "OVERFLY ZOROD AT OR ABOVE 3100 HOLD AT ZOROD LEFT TURN INBOUNDCOURSE 139 LEGDIST 4 FAF WEGON MAP RNW 32"
            },
            "transitions": [
                {
                    "name": "JENNA",
                    "fixes": {
                        "JENNA": "JENNA",
                        "SHOED": "SHOED AT OR ABOVE 3100"
                    }
                },
                {
                    "name": "MOKPE",
                    "fixes": {
                        "MOKPE": "MOKPE",
                        "CREPY": "CREPY AT OR ABOVE 4000"
                    }
                }
            ]
        }
    ]
}