{
    "fixes": [
        {
            "name": "CELSY",
            "lat": 41.31223611666667,
            "lon": 78.55713888333334
        },
        {
            "name": "DUBOI",
            "lat": 41.218716666666666,
            "lon": 78.79600833333333
        },
        {
            "name": "EEYES",
            "lat": 41.090925,
            "lon": 79.11913888333333
        },
        {
            "name": "ETG",
            "lat": 41.21495,
            "lon": 78.14275556666666
        },
        {
            "name": "HONLU",
            "lat": 41.19140556666667,
            "lon": 78.62751666666666
        },
        {
            "name": "JIMUM",
            "lat": 41.21711388333333,
            "lon": 78.80011943333334
        },
        {
            "name": "KASTY",
            "lat": 41.199641666666665,
            "lon": 78.48004721666666
        },
        {
            "name": "PEEDR",
            "lat": 41.42477778333333,
            "lon": 78.63449443333333
        },
        {
            "name": "PLEAZ",
            "lat": 41.137422216666664,
            "lon": 79.00198888333334
        },
        {
            "name": "RYCHL",
            "lat": 41.161222216666665,
            "lon": 78.94184443333333
        },
        {
            "name": "TNKEE",
            "lat": 41.20308333333333,
            "lon": 79.19722221666666
        },
        {
            "name": "WNKEE",
            "lat": 40.978713883333334,
            "lon": 79.04132221666667
        }
    ],
    "rnws": [
        "RNW 07",
        "RNW 25"
    ],
    "sids": [],
    "stars": [],
    "approaches": [
        {
            "name": "ILS25",
            "fixes": {
                "CELSY": "CELSY AT OR ABOVE 4200",
                "JIMUM": "JIMUM 3352 RNW 25 TRK 252 UNTIL 2900 TURN LEFT HDG 060 INTERCEPT RADIAL 096 TO",
                "HONLU": "HONLU HONLU AT OR ABOVE 4200 HOLD AT HONLU RIGHT TURN INBOUNDCOURSE 096 LEGTIME 1 FAF JIMUM MAP RNW 25"
            },
            "transitions": [
                {
                    "name": "ETG",
                    "fixes": {
                        "ETG": "ETG"
                    }
                }
            ]
        },
        {
            "name": "RNAV07",
            "fixes": {
                "EEYES": "EEYES AT OR ABOVE 4200",
                "PLEAZ": "PLEAZ 3400",
                "RYCHL": "RYCHL AT OR ABOVE 2420 RNW 07 TRK 072 UNTIL 2017",
                "CELSY": "OVERFLY CELSY AT OR ABOVE 4200 HOLD AT CELSY RIGHT TURN INBOUNDCOURSE 253 LEGDIST 5 FAF PLEAZ MAP RNW 07"
            },
            "transitions": [
                {
                    "name": "EEYES",
                    "fixes": {
                        "EEYES": "EEYES RIGHT TURN INBOUNDCOURSE 072 ALT 4200 LEGDIST 5"
                    }
                },
                {
                    "name": "TNKEE",
                    "fixes": {
                        "TNKEE": "TNKEE"
                    }
                },
                {
                    "name": "WNKEE",
                    "fixes": {
                        "WNKEE": "WNKEE"
                    }
                }
            ]
        },
        {
            "name": "RNAV25",
            "fixes": {
                "CELSY": "CELSY AT OR ABOVE 4200",
                "DUBOI": "DUBOI 3400 RNW 25 TRK 252 UNTIL 2017",
                "EEYES": "OVERFLY EEYES AT OR ABOVE 4200 HOLD AT EEYES RIGHT TURN INBOUNDCOURSE 072 LEGDIST 5 FAF DUBOI MAP RNW 25"
            },
            "transitions": [
                {
                    "name": "CELSY",
                    "fixes": {
                        "CELSY": "CELSY RIGHT TURN INBOUNDCOURSE 253 ALT 4200 LEGDIST 5"
                    }
                },
                {
                    "name": "KASTY",
                    "fixes": {
                        "KASTY": "KASTY"
                    }
                },
                {
                    "name": "PEEDR",
                    "fixes": {
                        "PEEDR": "PEEDR"
                    }
                }
            ]
        }
    ]
}