{
    "fixes": [
        {
            "name": "EYEJI",
            "lat": 38.223641666666666,
            "lon": 122.60308056666666
        },
        {
            "name": "GOVLE",
            "lat": 38.15105,
            "lon": 122.56261943333334
        },
        {
            "name": "ORIBY",
            "lat": 38.29535,
            "lon": 122.64443056666667
        },
        {
            "name": "RACFE",
            "lat": 38.440336116666664,
            "lon": 122.75716111666667
        },
        {
            "name": "ROZZA",
            "lat": 38.508183333333335,
            "lon": 122.81061388333333
        },
        {
            "name": "SGD",
            "lat": 38.17936111666667,
            "lon": 122.37315278333334
        }
    ],
    "rnws": [
        "RNW 13",
        "RNW 31"
    ],
    "sids": [],
    "stars": [],
    "approaches": [
        {
            "name": "RNAV13",
            "fixes": {
                "ORIBY": "ORIBY AT OR ABOVE 3000",
                "EYEJI": "EYEJI 2000",
                "GOVLE": "OVERFLY GOVLE 136 RNW 13 TRK 140 UNTIL 404 TURN LEFT DIRECT",
                "SGD": "OVERFLY SGD AT OR ABOVE 4200 HOLD AT SGD RIGHT TURN INBOUNDCOURSE 180 ALT 4200 LEGDIST 5 FAF EYEJI MAP GOVLE"
            },
            "transitions": [
                {
                    "name": "ROZZA",
                    "fixes": {
                        "ROZZA": "ROZZA",
                        "RACFE": "RACFE AT OR ABOVE 5000"
                    }
                }
            ]
        }
    ]
}