{
    "fixes": [
        {
            "name": "CCR",
            "lat": 38.044919433333334,
            "lon": 122.04520833333333
        },
        {
            "name": "COUPS",
            "lat": 38.31627221666667,
            "lon": 121.65262221666667
        },
        {
            "name": "DOWUN",
            "lat": 38.54444721666667,
            "lon": 121.85725
        },
        {
            "name": "ELEGY",
            "lat": 38.85629721666667,
            "lon": 122.08065556666666
        },
        {
            "name": "EMBER",
            "lat": 38.27975,
            "lon": 121.82514443333334
        },
        {
            "name": "GAAAS",
            "lat": 38.615977783333335,
            "lon": 121.85662778333334
        },
        {
            "name": "GHEER",
            "lat": 38.78781111666667,
            "lon": 121.85513333333333
        },
        {
            "name": "ILA",
            "lat": 39.071175,
            "lon": 122.02726943333333
        },
        {
            "name": "OAKEY",
            "lat": 38.05661943333333,
            "lon": 121.67183056666667
        },
        {
            "name": "PROAP",
            "lat": 38.45892778333333,
            "lon": 121.85799166666666
        },
        {
            "name": "TRIMM",
            "lat": 38.34925,
            "lon": 121.85893611666667
        },
        {
            "name": "YOLOH",
            "lat": 38.68515,
            "lon": 121.85602778333333
        }
    ],
    "rnws": [
        "RNW 16",
        "RNW 34"
    ],
    "sids": [],
    "stars": [],
    "approaches": [
        {
            "name": "RNAV16",
            "fixes": {
                "GHEER": "GHEER AT OR ABOVE 3000",
                "YOLOH": "YOLOH 2000",
                "GAAAS": "GAAAS AT OR ABOVE 680 RNW 16 TRK 164 UNTIL 359",
                "PROAP": "OVERFLY PROAP AT OR ABOVE 3600 HOLD AT PROAP RIGHT TURN INBOUNDCOURSE 164 LEGDIST 4 FAF YOLOH MAP RNW 16"
            },
            "transitions": [
                {
                    "name": "COUPS",
                    "fixes": {
                        "COUPS": "COUPS",
                        "GHEER": "OVERFLY GHEER AT OR ABOVE 3000 HOLD AT GHEER RIGHT TURN INBOUNDCOURSE 164 ALT 3000 LEGDIST 4"
                    }
                },
                {
                    "name": "ELEGY",
                    "fixes": {
                        "ELEGY": "ELEGY"
                    }
                },
                {
                    "name": "ILA",
                    "fixes": {
                        "ILA": "ILA"
                    }
                }
            ]
        },
        {
            "name": "RNAV34",
            "fixes": {
                "TRIMM": "TRIMM AT OR ABOVE 4000",
                "PROAP": "PROAP 2300",
                "DOWUN": "DOWUN AT OR ABOVE 660 RNW 34 TRK 344 UNTIL 415",
                "GHEER": "OVERFLY GHEER AT OR ABOVE 3000 HOLD AT GHEER RIGHT TURN INBOUNDCOURSE 164 LEGDIST 4 FAF PROAP MAP RNW 34"
            },
            "transitions": [
                {
                    "name": "CCR",
                    "fixes": {
                        "CCR": "CCR",
                        "EMBER": "EMBER AT OR ABOVE 4000"
                    }
                },
                {
                    "name": "COUPS",
                    "fixes": {
                        "COUPS": "COUPS"
                    }
                },
                {
                    "name": "OAKEY",
                    "fixes": {
                        "OAKEY": "OAKEY",
                        "EMBER": "EMBER AT OR ABOVE 4000"
                    }
                }
            ]
        }
    ]
}