{
    "fixes": [
        {
            "name": "APUKE",
            "lat": 36.970616666666665,
            "lon": 90.03731943333334
        },
        {
            "name": "EDATE",
            "lat": 36.96514166666667,
            "lon": 89.82945556666667
        },
        {
            "name": "GADLE",
            "lat": 36.576738883333334,
            "lon": 89.94934443333334
        },
        {
            "name": "GENTE",
            "lat": 36.967925,
            "lon": 89.93338333333334
        },
        {
            "name": "JANIT",
            "lat": 36.677591666666665,
            "lon": 89.94524721666667
        },
        {
            "name": "MALTO",
            "lat": 36.57397221666667,
            "lon": 89.84594443333333
        },
        {
            "name": "WINZY",
            "lat": 36.57941666666667,
            "lon": 90.05275278333333
        },
        {
            "name": "YIXYU",
            "lat": 36.866961116666666,
            "lon": 89.93751943333334
        }
    ],
    "rnws": [
        "RNW 18",
        "RNW 36"
    ],
    "sids": [],
    "stars": [],
    "approaches": [
        {
            "name": "RNAV18",
            "fixes": {
                "GENTE": "GENTE AT OR ABOVE 2500",
                "YIXYU": "YIXYU 2200 RNW 18",
                "GADLE": "OVERFLY GADLE AT OR ABOVE 2500 HOLD AT GADLE RIGHT TURN INBOUNDCOURSE 002 LEGDIST 4 FAF YIXYU MAP RNW 18"
            },
            "transitions": [
                {
                    "name": "APUKE",
                    "fixes": {
                        "APUKE": "APUKE AT OR ABOVE 2500"
                    }
                },
                {
                    "name": "EDATE",
                    "fixes": {
                        "EDATE": "EDATE AT OR ABOVE 2500"
                    }
                },
                {
                    "name": "GENTE",
                    "fixes": {
                        "GENTE": "GENTE RIGHT TURN INBOUNDCOURSE 182 ALT 2500 LEGDIST 4"
                    }
                }
            ]
        },
        {
            "name": "RNAV36",
            "fixes": {
                "GADLE": "GADLE AT OR ABOVE 2500",
                "JANIT": "JANIT 2100 RNW 36",
                "GENTE": "OVERFLY GENTE AT OR ABOVE 2500 HOLD AT GENTE RIGHT TURN INBOUNDCOURSE 182 LEGDIST 4 FAF JANIT MAP RNW 36"
            },
            "transitions": [
                {
                    "name": "GADLE",
                    "fixes": {
                        "GADLE": "GADLE RIGHT TURN INBOUNDCOURSE 002 ALT 2500 LEGDIST 4"
                    }
                },
                {
                    "name": "MALTO",
                    "fixes": {
                        "MALTO": "MALTO AT OR ABOVE 2500"
                    }
                },
                {
                    "name": "WINZY",
                    "fixes": {
                        "WINZY": "WINZY AT OR ABOVE 2600"
                    }
                }
            ]
        }
    ]
}