{
    "fixes": [
        {
            "name": "KUVNY",
            "lat": 37.833536116666664,
            "lon": 81.90267778333333
        },
        {
            "name": "NEGVE",
            "lat": 37.75505,
            "lon": 81.86702778333333
        },
        {
            "name": "OCPAH",
            "lat": 37.676552783333335,
            "lon": 81.83145278333333
        },
        {
            "name": "PAADS",
            "lat": 37.71710278333333,
            "lon": 81.99938888333334
        },
        {
            "name": "QIGUZ",
            "lat": 37.70061388333333,
            "lon": 82.05670278333334
        },
        {
            "name": "RUJAP",
            "lat": 37.686261116666664,
            "lon": 82.41271666666667
        },
        {
            "name": "SEPBU",
            "lat": 37.60792778333333,
            "lon": 82.37660278333334
        },
        {
            "name": "TAULS",
            "lat": 37.52958056666667,
            "lon": 82.34056666666666
        },
        {
            "name": "UBIRE",
            "lat": 37.645325,
            "lon": 82.24798611666667
        }
    ],
    "rnws": [
        "RNW 08",
        "RNW 26"
    ],
    "sids": [],
    "stars": [],
    "approaches": [
        {
            "name": "RNAV08",
            "fixes": {
                "SEPBU": "SEPBU AT OR ABOVE 5000",
                "UBIRE": "UBIRE 3800 RNW 08 TRK 077 UNTIL 2282",
                "NEGVE": "OVERFLY NEGVE AT OR ABOVE 5000 HOLD AT NEGVE RIGHT TURN INBOUNDCOURSE 257 LEGDIST 5 FAF UBIRE MAP RNW 08"
            },
            "transitions": [
                {
                    "name": "RUJAP",
                    "fixes": {
                        "RUJAP": "RUJAP AT OR ABOVE 5000"
                    }
                },
                {
                    "name": "SEPBU",
                    "fixes": {
                        "SEPBU": "SEPBU RIGHT TURN INBOUNDCOURSE 077 ALT 5000 LEGDIST 5"
                    }
                },
                {
                    "name": "TAULS",
                    "fixes": {
                        "TAULS": "TAULS AT OR ABOVE 5400"
                    }
                }
            ]
        },
        {
            "name": "RNAV26",
            "fixes": {
                "NEGVE": "NEGVE AT OR ABOVE 5000",
                "PAADS": "PAADS 3800",
                "QIGUZ": "QIGUZ AT OR ABOVE 2840 RNW 26 TRK 257 UNTIL 2282",
                "SEPBU": "OVERFLY SEPBU AT OR ABOVE 5000 HOLD AT SEPBU RIGHT TURN INBOUNDCOURSE 077 LEGDIST 5 FAF PAADS MAP RNW 26"
            },
            "transitions": [
                {
                    "name": "KUVNY",
                    "fixes": {
                        "KUVNY": "KUVNY AT OR ABOVE 5000"
                    }
                },
                {
                    "name": "NEGVE",
                    "fixes": {
                        "NEGVE": "NEGVE RIGHT TURN INBOUNDCOURSE 257 ALT 5000 LEGDIST 5"
                    }
                },
                {
                    "name": "OCPAH",
                    "fixes": {
                        "OCPAH": "OCPAH AT OR ABOVE 5000"
                    }
                }
            ]
        }
    ]
}