{
    "fixes": [
        {
            "name": "BESRE",
            "lat": 36.34616943333333,
            "lon": 76.17423333333333
        },
        {
            "name": "CEGRU",
            "lat": 36.101705566666666,
            "lon": 76.12381666666667
        },
        {
            "name": "CF10",
            "lat": 36.30088333333333,
            "lon": 76.45291666666667
        },
        {
            "name": "CF19",
            "lat": 36.424244433333335,
            "lon": 76.18643056666667
        },
        {
            "name": "CVI",
            "lat": 36.37291388333333,
            "lon": 76.87154443333333
        },
        {
            "name": "D311J",
            "lat": 36.350780566666664,
            "lon": 76.346675
        },
        {
            "name": "ECG",
            "lat": 36.25757221666667,
            "lon": 76.17559721666667
        },
        {
            "name": "FOSOP",
            "lat": 36.19664443333333,
            "lon": 76.16309443333333
        },
        {
            "name": "GEDLE",
            "lat": 36.44614721666667,
            "lon": 76.16897778333333
        },
        {
            "name": "GUDLE",
            "lat": 36.25711388333333,
            "lon": 76.06160833333334
        },
        {
            "name": "HEGUX",
            "lat": 36.368819433333336,
            "lon": 76.10288888333334
        },
        {
            "name": "ISUBE",
            "lat": 36.26867778333333,
            "lon": 76.40741666666666
        },
        {
            "name": "LIBLE",
            "lat": 36.25271943333333,
            "lon": 75.93801943333334
        },
        {
            "name": "LLWNB",
            "lat": 36.26299721666667,
            "lon": 76.29803333333334
        },
        {
            "name": "MAHWO",
            "lat": 36.2592,
            "lon": 76.15926111666667
        },
        {
            "name": "MOTUE",
            "lat": 36.26460278333333,
            "lon": 76.28183333333334
        },
        {
            "name": "NETUE",
            "lat": 36.336086116666664,
            "lon": 75.93343056666667
        },
        {
            "name": "NEWRO",
            "lat": 36.29924166666667,
            "lon": 76.17832221666667
        },
        {
            "name": "NORTN",
            "lat": 36.04606943333334,
            "lon": 75.87446388333333
        },
        {
            "name": "OCSIP",
            "lat": 36.137486116666665,
            "lon": 76.00429166666666
        },
        {
            "name": "ODGOE",
            "lat": 36.449638883333336,
            "lon": 76.27217778333333
        },
        {
            "name": "PI001",
            "lat": 36.28054035,
            "lon": 76.34861731666666
        },
        {
            "name": "PI002",
            "lat": 36.33700196666667,
            "lon": 76.40339061666667
        },
        {
            "name": "PI003",
            "lat": 36.293589016666665,
            "lon": 76.48203711666666
        },
        {
            "name": "PI004",
            "lat": 36.31547041666666,
            "lon": 76.18441991666667
        },
        {
            "name": "PI005",
            "lat": 36.35957235,
            "lon": 76.25454686666667
        },
        {
            "name": "PI006",
            "lat": 36.42299393333333,
            "lon": 76.20083973333334
        },
        {
            "name": "PI007",
            "lat": 36.26297543333333,
            "lon": 76.37037931666667
        },
        {
            "name": "PI008",
            "lat": 36.31363496666667,
            "lon": 76.43326933333333
        },
        {
            "name": "PI009",
            "lat": 36.2628194,
            "lon": 76.50473586666666
        },
        {
            "name": "REXUE",
            "lat": 36.16935,
            "lon": 75.9426
        },
        {
            "name": "RIDDS",
            "lat": 36.27345278333333,
            "lon": 76.27679443333334
        },
        {
            "name": "SAGOE",
            "lat": 36.35206388333334,
            "lon": 76.40334721666666
        },
        {
            "name": "SOFIE",
            "lat": 36.267716666666665,
            "lon": 76.07334443333333
        },
        {
            "name": "SUNNS",
            "lat": 36.44020556666667,
            "lon": 76.50783611666667
        },
        {
            "name": "SWOPE",
            "lat": 36.51856943333333,
            "lon": 76.31563333333334
        },
        {
            "name": "WAXUB",
            "lat": 36.25710278333333,
            "lon": 76.06065278333334
        },
        {
            "name": "WINAL",
            "lat": 36.153294433333336,
            "lon": 76.42733333333334
        },
        {
            "name": "YOSTR",
            "lat": 36.275333333333336,
            "lon": 76.62193611666666
        },
        {
            "name": "ZAGIV",
            "lat": 36.27973611666667,
            "lon": 75.95056666666666
        }
    ],
    "rnws": [
        "RNW 01",
        "RNW 10",
        "RNW 19",
        "RNW 28"
    ],
    "sids": [],
    "stars": [],
    "approaches": [
        {
            "name": "VORD10",
            "fixes": {
                "CF10": "CF10 AT OR ABOVE 1600",
                "RIDDS": "RIDDS 1600 RNW 10 TRK 108 UNTIL 1600 TURN LEFT DIRECT",
                "ECG": "ECG HOLD AT ECG LEFT TURN INBOUNDCOURSE 091 LEGTIME 1 FAF RIDDS MAP RNW 10"
            },
            "transitions": [
                {
                    "name": "ECG",
                    "fixes": {
                        "ECG": "ECG",
                        "RIDDS": "RIDDS AT OR ABOVE 1600",
                        "PI001": "PI001 AT OR ABOVE 1600 SPEED 210",
                        "PI002": "OVERFLY PI002 AT OR ABOVE 1600 SPEED 210",
                        "PI003": "PI003 AT OR ABOVE 1600 SPEED 210"
                    }
                },
                {
                    "name": "WINAL",
                    "fixes": {
                        "WINAL": "WINAL"
                    }
                }
            ]
        },
        {
            "name": "VORD19",
            "fixes": {
                "CF19": "CF19 AT OR ABOVE 1600",
                "NEWRO": "NEWRO 800 RNW 19 TRK 184 UNTIL 1600 TURN LEFT DIRECT",
                "ECG": "ECG HOLD AT ECG RIGHT TURN INBOUNDCOURSE 184 LEGTIME 1 FAF NEWRO MAP RNW 19"
            },
            "transitions": [
                {
                    "name": "SUNNS",
                    "fixes": {
                        "SUNNS": "SUNNS",
                        "D311J": "D311J AT OR ABOVE 1600"
                    }
                },
                {
                    "name": "SWOPE",
                    "fixes": {
                        "SWOPE": "SWOPE",
                        "ECG": "ECG AT OR BELOW 6000 AT OR ABOVE 2100",
                        "PI004": "PI004 AT OR ABOVE 1600 SPEED 210",
                        "PI005": "OVERFLY PI005 AT OR ABOVE 1600 SPEED 210",
                        "PI006": "PI006 AT OR ABOVE 1600 SPEED 210"
                    }
                },
                {
                    "name": "WINAL",
                    "fixes": {
                        "WINAL": "WINAL",
                        "ECG": "ECG AT OR BELOW 6000 AT OR ABOVE 1600",
                        "PI004": "PI004 AT OR ABOVE 1600 SPEED 210",
                        "PI005": "OVERFLY PI005 AT OR ABOVE 1600 SPEED 210",
                        "PI006": "PI006 AT OR ABOVE 1600 SPEED 210"
                    }
                }
            ]
        },
        {
            "name": "VORD28",
            "fixes": {
                "ZAGIV": "ZAGIV AT OR ABOVE 1500",
                "SOFIE": "SOFIE 1400 SOFIE AT OR ABOVE 1500 HOLD AT SOFIE LEFT TURN INBOUNDCOURSE 270 LEGTIME 1 FAF SOFIE MAP MAHWO",
                "MAHWO": "MAHWO 65 RNW 28 TRK 270 UNTIL 1000 TURN LEFT DIRECT"
            },
            "transitions": [
                {
                    "name": "ECG",
                    "fixes": {
                        "ECG": "ECG",
                        "SOFIE": "SOFIE AT OR ABOVE 1500 HOLD AT SOFIE LEFT TURN INBOUNDCOURSE 270 ALT 1500 LEGTIME 1"
                    }
                },
                {
                    "name": "OCSIP",
                    "fixes": {
                        "OCSIP": "OCSIP"
                    }
                }
            ]
        },
        {
            "name": "ILS10",
            "fixes": {
                "ISUBE": "ISUBE AT OR ABOVE 2000",
                "MOTUE": "MOTUE 1600 RNW 10 TRK 103 UNTIL 500 TURN LEFT HDG 281 INTERCEPT RADIAL 311 TO",
                "SUNNS": "SUNNS SUNNS AT OR ABOVE 3000 HOLD AT SUNNS RIGHT TURN INBOUNDCOURSE 311 LEGTIME 1 FAF MOTUE MAP RNW 10"
            },
            "transitions": [
                {
                    "name": "CVI",
                    "fixes": {
                        "CVI": "CVI",
                        "YOSTR": "YOSTR AT OR ABOVE 2000"
                    }
                },
                {
                    "name": "ECG",
                    "fixes": {
                        "ECG": "ECG",
                        "ISUBE": "ISUBE AT OR ABOVE 2000 HOLD AT ISUBE RIGHT TURN INBOUNDCOURSE 103 ALT 2000 LEGTIME 1"
                    }
                }
            ]
        },
        {
            "name": "NDB10",
            "fixes": {
                "LLWNB": "LLWNB 1600 RNW 10 TRK 101 UNTIL 1600 TURN LEFT DIRECT LLWNB HOLD AT LLWNB LEFT TURN INBOUNDCOURSE 101 LEGTIME 1 FAF LLWNB MAP RNW 10"
            },
            "transitions": [
                {
                    "name": "ECG",
                    "fixes": {
                        "ECG": "ECG",
                        "LLWNB": "LLWNB AT OR ABOVE 1600",
                        "PI007": "PI007 AT OR ABOVE 1600 SPEED 210",
                        "PI008": "OVERFLY PI008 AT OR ABOVE 1600 SPEED 210",
                        "PI009": "PI009 AT OR ABOVE 1600 SPEED 210"
                    }
                },
                {
                    "name": "SWOPE",
                    "fixes": {
                        "SWOPE": "SWOPE",
                        "LLWNB": "LLWNB AT OR ABOVE 2100",
                        "PI007": "PI007 AT OR ABOVE 1600 SPEED 210",
                        "PI008": "OVERFLY PI008 AT OR ABOVE 1600 SPEED 210",
                        "PI009": "PI009 AT OR ABOVE 1600 SPEED 210"
                    }
                },
                {
                    "name": "WINAL",
                    "fixes": {
                        "WINAL": "WINAL",
                        "LLWNB": "LLWNB AT OR ABOVE 1600",
                        "PI007": "PI007 AT OR ABOVE 1600 SPEED 210",
                        "PI008": "OVERFLY PI008 AT OR ABOVE 1600 SPEED 210",
                        "PI009": "PI009 AT OR ABOVE 1600 SPEED 210"
                    }
                }
            ]
        },
        {
            "name": "RNAV01",
            "fixes": {
                "CEGRU": "CEGRU AT OR ABOVE 2000",
                "FOSOP": "FOSOP 1200 RNW 01 TRK 358 UNTIL 411",
                "GEDLE": "OVERFLY GEDLE AT OR ABOVE 2100 HOLD AT GEDLE RIGHT TURN INBOUNDCOURSE 193 LEGDIST 4 FAF FOSOP MAP RNW 01"
            },
            "transitions": [
                {
                    "name": "NORTN",
                    "fixes": {
                        "NORTN": "NORTN"
                    }
                }
            ]
        },
        {
            "name": "RNAV10",
            "fixes": {
                "ISUBE": "ISUBE AT OR ABOVE 2000",
                "MOTUE": "MOTUE 1600 RNW 10 TRK 103 UNTIL 261",
                "WAXUB": "WAXUB TURN LEFT DIRECT",
                "HEGUX": "HEGUX",
                "SUNNS": "OVERFLY SUNNS AT OR ABOVE 2000 HOLD AT SUNNS RIGHT TURN INBOUNDCOURSE 047 LEGDIST 4 FAF MOTUE MAP RNW 10"
            },
            "transitions": [
                {
                    "name": "ISUBE",
                    "fixes": {
                        "ISUBE": "ISUBE RIGHT TURN INBOUNDCOURSE 103 ALT 2000 LEGDIST 4"
                    }
                },
                {
                    "name": "SUNNS",
                    "fixes": {
                        "SUNNS": "SUNNS",
                        "SAGOE": "SAGOE AT OR ABOVE 2000"
                    }
                },
                {
                    "name": "WINAL",
                    "fixes": {
                        "WINAL": "WINAL"
                    }
                }
            ]
        },
        {
            "name": "RNAV19",
            "fixes": {
                "GEDLE": "GEDLE AT OR ABOVE 2100 OVERFLY GEDLE AT OR ABOVE 2100 HOLD AT GEDLE RIGHT TURN INBOUNDCOURSE 193 LEGDIST 4 FAF BESRE MAP RNW 19",
                "BESRE": "BESRE 1600 RNW 19 TRK 193 UNTIL 900 TURN LEFT DIRECT"
            },
            "transitions": [
                {
                    "name": "ECG",
                    "fixes": {
                        "ECG": "ECG",
                        "GEDLE": "OVERFLY GEDLE AT OR ABOVE 2100 HOLD AT GEDLE RIGHT TURN INBOUNDCOURSE 193 ALT 2100 LEGDIST 4"
                    }
                },
                {
                    "name": "SUNNS",
                    "fixes": {
                        "SUNNS": "SUNNS",
                        "ODGOE": "ODGOE AT OR ABOVE 2100"
                    }
                }
            ]
        },
        {
            "name": "RNAV28",
            "fixes": {
                "LIBLE": "LIBLE AT OR ABOVE 2000",
                "GUDLE": "GUDLE 1600 RNW 28 TRK 283 UNTIL 800 TURN RIGHT DIRECT",
                "NETUE": "OVERFLY NETUE AT OR ABOVE 2000 HOLD AT NETUE RIGHT TURN INBOUNDCOURSE 194 LEGDIST 4 FAF GUDLE MAP RNW 28"
            },
            "transitions": [
                {
                    "name": "NORTN",
                    "fixes": {
                        "NORTN": "NORTN",
                        "REXUE": "REXUE AT OR ABOVE 2000"
                    }
                },
                {
                    "name": "SUNNS",
                    "fixes": {
                        "SUNNS": "SUNNS",
                        "NETUE": "NETUE AT OR ABOVE 2000"
                    }
                }
            ]
        }
    ]
}