{
    "fixes": [
        {
            "name": "EKR",
            "lat": 40.06744166666667,
            "lon": 107.92495
        },
        {
            "name": "HAPRA",
            "lat": 39.76806666666667,
            "lon": 108.185875
        },
        {
            "name": "HORIX",
            "lat": 40.214705566666666,
            "lon": 108.06768056666667
        },
        {
            "name": "ITANE",
            "lat": 40.176436116666665,
            "lon": 108.02564443333333
        },
        {
            "name": "JODUG",
            "lat": 40.125430566666665,
            "lon": 107.96971666666667
        },
        {
            "name": "LEBME",
            "lat": 40.050038883333336,
            "lon": 107.88725833333334
        },
        {
            "name": "MA107",
            "lat": 40.04944166666667,
            "lon": 107.88734721666667
        },
        {
            "name": "PETOY",
            "lat": 39.928277783333336,
            "lon": 108.01510556666666
        },
        {
            "name": "PI001",
            "lat": 40.08832468333333,
            "lon": 107.99613316666667
        },
        {
            "name": "PI002",
            "lat": 40.059143766666665,
            "lon": 108.08167331666667
        },
        {
            "name": "PI003",
            "lat": 40.126991733333334,
            "lon": 108.12844621666666
        },
        {
            "name": "RACER",
            "lat": 40.10810278333334,
            "lon": 108.88289721666666
        },
        {
            "name": "RIL",
            "lat": 39.528322216666666,
            "lon": 107.71965833333333
        },
        {
            "name": "STRIM",
            "lat": 40.489438883333335,
            "lon": 107.840825
        },
        {
            "name": "WAGOK",
            "lat": 39.95055833333333,
            "lon": 107.99127221666667
        },
        {
            "name": "ZALIS",
            "lat": 39.81012221666667,
            "lon": 108.14114443333334
        }
    ],
    "rnws": [
        "RNW 03",
        "RNW 21"
    ],
    "sids": [],
    "stars": [],
    "approaches": [
        {
            "name": "RNAV03",
            "fixes": {
                "ZALIS": "ZALIS AT OR ABOVE 11000 OVERFLY ZALIS AT OR ABOVE 11000 HOLD AT ZALIS RIGHT TURN INBOUNDCOURSE 025 LEGDIST 7 FAF PETOY MAP RNW 03",
                "PETOY": "PETOY 9300",
                "WAGOK": "WAGOK AT OR ABOVE 8720 RNW 03 TRK 025 UNTIL 6815 TURN RIGHT DIRECT"
            },
            "transitions": [
                {
                    "name": "EKR",
                    "fixes": {
                        "EKR": "EKR",
                        "ZALIS": "OVERFLY ZALIS AT OR ABOVE 11000 HOLD AT ZALIS RIGHT TURN INBOUNDCOURSE 025 ALT 11000 LEGDIST 7"
                    }
                },
                {
                    "name": "HAPRA",
                    "fixes": {
                        "HAPRA": "HAPRA"
                    }
                },
                {
                    "name": "RACER",
                    "fixes": {
                        "RACER": "RACER"
                    }
                },
                {
                    "name": "RIL",
                    "fixes": {
                        "RIL": "RIL"
                    }
                }
            ]
        },
        {
            "name": "RNAVB03",
            "fixes": {
                "HORIX": "HORIX AT OR ABOVE 10300 HORIX AT OR ABOVE 10300 HOLD AT HORIX RIGHT TURN INBOUNDCOURSE 126 LEGDIST 6 FAF JODUG MAP LEBME",
                "ITANE": "ITANE AT OR ABOVE 10000",
                "JODUG": "JODUG 9600",
                "LEBME": "LEBME 8440 RNW 03 TRK 126 UNTIL 8440 TURN RIGHT DIRECT"
            },
            "transitions": [
                {
                    "name": "EKR",
                    "fixes": {
                        "EKR": "EKR",
                        "HORIX": "HORIX AT OR ABOVE 10300 HOLD AT HORIX RIGHT TURN INBOUNDCOURSE 126 ALT 10300 LEGDIST 6"
                    }
                },
                {
                    "name": "STRIM",
                    "fixes": {
                        "STRIM": "STRIM"
                    }
                }
            ]
        },
        {
            "name": "RNAVB21",
            "fixes": {
                "HORIX": "HORIX AT OR ABOVE 10300 HORIX AT OR ABOVE 10300 HOLD AT HORIX RIGHT TURN INBOUNDCOURSE 126 LEGDIST 6 FAF JODUG MAP LEBME",
                "ITANE": "ITANE AT OR ABOVE 10000",
                "JODUG": "JODUG 9600",
                "LEBME": "LEBME 8440 RNW 21 TRK 126 UNTIL 8440 TURN RIGHT DIRECT"
            },
            "transitions": [
                {
                    "name": "EKR",
                    "fixes": {
                        "EKR": "EKR",
                        "HORIX": "HORIX AT OR ABOVE 10300 HOLD AT HORIX RIGHT TURN INBOUNDCOURSE 126 ALT 10300 LEGDIST 6"
                    }
                },
                {
                    "name": "STRIM",
                    "fixes": {
                        "STRIM": "STRIM"
                    }
                }
            ]
        },
        {
            "name": "VORA03",
            "fixes": {
                "EKR": "EKR 8800 EKR AT OR ABOVE 10000 HOLD AT EKR RIGHT TURN INBOUNDCOURSE 090 LEGTIME 1 FAF EKR MAP MA107",
                "MA107": "MA107 8440 RNW 03 TRK 107 UNTIL 8600 TURN LEFT DIRECT"
            },
            "transitions": [
                {
                    "name": "EKR",
                    "fixes": {
                        "PI001": "PI001 AT OR ABOVE 9900 SPEED 210",
                        "PI002": "OVERFLY PI002 AT OR ABOVE 9900 SPEED 210",
                        "PI003": "PI003 AT OR ABOVE 9900 SPEED 210"
                    }
                }
            ]
        },
        {
            "name": "VORA21",
            "fixes": {
                "EKR": "EKR 8800 EKR AT OR ABOVE 10000 HOLD AT EKR RIGHT TURN INBOUNDCOURSE 090 LEGTIME 1 FAF EKR MAP MA107",
                "MA107": "MA107 8440 RNW 21 TRK 107 UNTIL 8600 TURN LEFT DIRECT"
            },
            "transitions": [
                {
                    "name": "EKR",
                    "fixes": {
                        "PI001": "PI001 AT OR ABOVE 9900 SPEED 210",
                        "PI002": "OVERFLY PI002 AT OR ABOVE 9900 SPEED 210",
                        "PI003": "PI003 AT OR ABOVE 9900 SPEED 210"
                    }
                }
            ]
        }
    ]
}