{
    "fixes": [
        {
            "name": "OZZOP",
            "lat": 41.93331666666667,
            "lon": 94.26530278333334
        },
        {
            "name": "PELEA",
            "lat": 41.85504721666667,
            "lon": 94.18615
        },
        {
            "name": "QAREP",
            "lat": 41.804780566666665,
            "lon": 94.27508056666667
        },
        {
            "name": "REBIF",
            "lat": 41.90524443333334,
            "lon": 94.09708056666666
        },
        {
            "name": "SUGDY",
            "lat": 42.085180566666665,
            "lon": 94.41958056666667
        },
        {
            "name": "TEZOB",
            "lat": 42.16531943333333,
            "lon": 94.50136666666667
        },
        {
            "name": "UDIXY",
            "lat": 42.215744433333334,
            "lon": 94.41209721666667
        },
        {
            "name": "WOKIP",
            "lat": 42.114825,
            "lon": 94.59049443333333
        },
        {
            "name": "WOMAD",
            "lat": 41.98255833333333,
            "lon": 94.315225
        }
    ],
    "rnws": [
        "RNW 14",
        "RNW 18",
        "RNW 32",
        "RNW 36"
    ],
    "sids": [],
    "stars": [],
    "approaches": [
        {
            "name": "RNAV14",
            "fixes": {
                "TEZOB": "TEZOB AT OR ABOVE 3100",
                "SUGDY": "SUGDY 2800 RNW 14 TRK 140 UNTIL 1330",
                "PELEA": "OVERFLY PELEA AT OR ABOVE 3100 HOLD AT PELEA RIGHT TURN INBOUNDCOURSE 320 LEGDIST 4 FAF SUGDY MAP RNW 14"
            },
            "transitions": [
                {
                    "name": "TEZOB",
                    "fixes": {
                        "TEZOB": "TEZOB RIGHT TURN INBOUNDCOURSE 140 ALT 3100 LEGDIST 4"
                    }
                },
                {
                    "name": "UDIXY",
                    "fixes": {
                        "UDIXY": "UDIXY"
                    }
                },
                {
                    "name": "WOKIP",
                    "fixes": {
                        "WOKIP": "WOKIP"
                    }
                }
            ]
        },
        {
            "name": "RNAV32",
            "fixes": {
                "PELEA": "PELEA AT OR ABOVE 3100",
                "OZZOP": "OZZOP 2800",
                "WOMAD": "WOMAD AT OR ABOVE 1620 RNW 32 TRK 320 UNTIL 1297",
                "TEZOB": "OVERFLY TEZOB AT OR ABOVE 3100 HOLD AT TEZOB RIGHT TURN INBOUNDCOURSE 140 LEGDIST 4 FAF OZZOP MAP RNW 32"
            },
            "transitions": [
                {
                    "name": "PELEA",
                    "fixes": {
                        "PELEA": "PELEA RIGHT TURN INBOUNDCOURSE 320 ALT 3100 LEGDIST 4"
                    }
                },
                {
                    "name": "QAREP",
                    "fixes": {
                        "QAREP": "QAREP"
                    }
                },
                {
                    "name": "REBIF",
                    "fixes": {
                        "REBIF": "REBIF"
                    }
                }
            ]
        }
    ]
}