{
    "fixes": [
        {
            "name": "ASIGY",
            "lat": 39.714058333333334,
            "lon": 75.67594721666667
        },
        {
            "name": "BLARE",
            "lat": 39.41291666666667,
            "lon": 75.55280556666666
        },
        {
            "name": "BRLSN",
            "lat": 39.59410833333333,
            "lon": 75.74601388333333
        },
        {
            "name": "CEXEL",
            "lat": 39.506486116666665,
            "lon": 75.71561111666666
        },
        {
            "name": "CURVY",
            "lat": 39.625336116666666,
            "lon": 76.01611388333333
        },
        {
            "name": "DQO",
            "lat": 39.67813888333333,
            "lon": 75.60708611666666
        },
        {
            "name": "ENO",
            "lat": 39.231647216666666,
            "lon": 75.51596943333334
        },
        {
            "name": "EPKAW",
            "lat": 39.692419433333335,
            "lon": 75.78022221666667
        },
        {
            "name": "HIRSI",
            "lat": 39.48463056666667,
            "lon": 75.69584166666667
        },
        {
            "name": "IYBAY",
            "lat": 39.47899721666667,
            "lon": 75.70608888333334
        },
        {
            "name": "JIPKE",
            "lat": 39.43376666666666,
            "lon": 75.69043611666666
        },
        {
            "name": "MA064",
            "lat": 39.51676388333333,
            "lon": 75.72870556666666
        },
        {
            "name": "OGHUF",
            "lat": 39.670688883333334,
            "lon": 75.88443333333333
        },
        {
            "name": "REULE",
            "lat": 39.444819433333336,
            "lon": 75.65986943333333
        },
        {
            "name": "TACKS",
            "lat": 39.28944166666667,
            "lon": 75.83268611666666
        },
        {
            "name": "USTIN",
            "lat": 39.47288888333333,
            "lon": 75.80651943333334
        },
        {
            "name": "WENDS",
            "lat": 39.33705,
            "lon": 75.65703611666666
        },
        {
            "name": "WYNOS",
            "lat": 39.362802783333336,
            "lon": 75.585925
        }
    ],
    "rnws": [
        "RNW 11",
        "RNW 17",
        "RNW 29",
        "RNW 35"
    ],
    "sids": [],
    "stars": [],
    "approaches": [
        {
            "name": "NDBA11",
            "fixes": {
                "USTIN": "USTIN 1700 USTIN USTIN AT OR ABOVE 2000 HOLD AT USTIN RIGHT TURN INBOUNDCOURSE 064 ALT 2000 LEGTIME 1 FAF USTIN MAP MA064",
                "MA064": "MA064 700 RNW 11 TURN RIGHT HDG 288 INTERCEPT RADIAL 244 TO"
            },
            "transitions": [
                {
                    "name": "DQO",
                    "fixes": {
                        "DQO": "DQO",
                        "USTIN": "USTIN AT OR ABOVE 3000 HOLD AT USTIN RIGHT TURN INBOUNDCOURSE 064 ALT 2000 LEGTIME 1"
                    }
                },
                {
                    "name": "ENO",
                    "fixes": {
                        "ENO": "ENO",
                        "USTIN": "USTIN AT OR ABOVE 2000 HOLD AT USTIN RIGHT TURN INBOUNDCOURSE 064 ALT 2000 LEGTIME 1"
                    }
                }
            ]
        },
        {
            "name": "NDBA17",
            "fixes": {
                "USTIN": "USTIN 1700 USTIN USTIN AT OR ABOVE 2000 HOLD AT USTIN RIGHT TURN INBOUNDCOURSE 064 ALT 2000 LEGTIME 1 FAF USTIN MAP MA064",
                "MA064": "MA064 700 RNW 17 TURN RIGHT HDG 288 INTERCEPT RADIAL 244 TO"
            },
            "transitions": [
                {
                    "name": "DQO",
                    "fixes": {
                        "DQO": "DQO",
                        "USTIN": "USTIN AT OR ABOVE 3000 HOLD AT USTIN RIGHT TURN INBOUNDCOURSE 064 ALT 2000 LEGTIME 1"
                    }
                },
                {
                    "name": "ENO",
                    "fixes": {
                        "ENO": "ENO",
                        "USTIN": "USTIN AT OR ABOVE 2000 HOLD AT USTIN RIGHT TURN INBOUNDCOURSE 064 ALT 2000 LEGTIME 1"
                    }
                }
            ]
        },
        {
            "name": "NDBA29",
            "fixes": {
                "USTIN": "USTIN 1700 USTIN USTIN AT OR ABOVE 2000 HOLD AT USTIN RIGHT TURN INBOUNDCOURSE 064 ALT 2000 LEGTIME 1 FAF USTIN MAP MA064",
                "MA064": "MA064 700 RNW 29 TURN RIGHT HDG 288 INTERCEPT RADIAL 244 TO"
            },
            "transitions": [
                {
                    "name": "DQO",
                    "fixes": {
                        "DQO": "DQO",
                        "USTIN": "USTIN AT OR ABOVE 3000 HOLD AT USTIN RIGHT TURN INBOUNDCOURSE 064 ALT 2000 LEGTIME 1"
                    }
                },
                {
                    "name": "ENO",
                    "fixes": {
                        "ENO": "ENO",
                        "USTIN": "USTIN AT OR ABOVE 2000 HOLD AT USTIN RIGHT TURN INBOUNDCOURSE 064 ALT 2000 LEGTIME 1"
                    }
                }
            ]
        },
        {
            "name": "NDBA35",
            "fixes": {
                "USTIN": "USTIN 1700 USTIN USTIN AT OR ABOVE 2000 HOLD AT USTIN RIGHT TURN INBOUNDCOURSE 064 ALT 2000 LEGTIME 1 FAF USTIN MAP MA064",
                "MA064": "MA064 700 RNW 35 TURN RIGHT HDG 288 INTERCEPT RADIAL 244 TO"
            },
            "transitions": [
                {
                    "name": "DQO",
                    "fixes": {
                        "DQO": "DQO",
                        "USTIN": "USTIN AT OR ABOVE 3000 HOLD AT USTIN RIGHT TURN INBOUNDCOURSE 064 ALT 2000 LEGTIME 1"
                    }
                },
                {
                    "name": "ENO",
                    "fixes": {
                        "ENO": "ENO",
                        "USTIN": "USTIN AT OR ABOVE 2000 HOLD AT USTIN RIGHT TURN INBOUNDCOURSE 064 ALT 2000 LEGTIME 1"
                    }
                }
            ]
        },
        {
            "name": "RNAV17",
            "fixes": {
                "EPKAW": "EPKAW AT OR ABOVE 2000",
                "BRLSN": "BRLSN 1700 RNW 17 TRK 175 UNTIL 470",
                "WENDS": "OVERFLY WENDS AT OR ABOVE 2000 HOLD AT WENDS LEFT TURN INBOUNDCOURSE 355 LEGDIST 4 FAF BRLSN MAP RNW 17"
            },
            "transitions": [
                {
                    "name": "CURVY",
                    "fixes": {
                        "CURVY": "CURVY",
                        "OGHUF": "OGHUF AT OR ABOVE 2000"
                    }
                },
                {
                    "name": "DQO",
                    "fixes": {
                        "DQO": "DQO",
                        "ASIGY": "ASIGY AT OR ABOVE 2000"
                    }
                }
            ]
        },
        {
            "name": "RNAVY35",
            "fixes": {
                "WYNOS": "WYNOS AT OR ABOVE 2000",
                "REULE": "REULE 1700",
                "HIRSI": "HIRSI AT OR ABOVE 760",
                "CEXEL": "OVERFLY CEXEL 256 RNW 35 TRK 335 UNTIL 440 TURN LEFT DIRECT",
                "WENDS": "OVERFLY WENDS AT OR ABOVE 2000 HOLD AT WENDS LEFT TURN INBOUNDCOURSE 355 LEGDIST 4 FAF REULE MAP CEXEL"
            },
            "transitions": [
                {
                    "name": "ENO",
                    "fixes": {
                        "ENO": "ENO"
                    }
                }
            ]
        },
        {
            "name": "RNAVZ35",
            "fixes": {
                "WENDS": "WENDS AT OR ABOVE 2000",
                "JIPKE": "JIPKE 1700",
                "IYBAY": "IYBAY AT OR ABOVE 800 RNW 35 TRK 355 UNTIL 320",
                "EPKAW": "OVERFLY EPKAW AT OR ABOVE 2000 HOLD AT EPKAW LEFT TURN INBOUNDCOURSE 355 LEGDIST 4 FAF JIPKE MAP RNW 35"
            },
            "transitions": [
                {
                    "name": "BLARE",
                    "fixes": {
                        "BLARE": "BLARE",
                        "WENDS": "OVERFLY WENDS AT OR ABOVE 2000 HOLD AT WENDS LEFT TURN INBOUNDCOURSE 355 ALT 2000 LEGDIST 4"
                    }
                },
                {
                    "name": "ENO",
                    "fixes": {
                        "ENO": "ENO"
                    }
                },
                {
                    "name": "TACKS",
                    "fixes": {
                        "TACKS": "TACKS"
                    }
                }
            ]
        }
    ]
}