{
    "fixes": [
        {
            "name": "CISID",
            "lat": 32.35997221666667,
            "lon": 95.73073888333333
        },
        {
            "name": "CUMAX",
            "lat": 31.968219433333335,
            "lon": 95.72963333333334
        },
        {
            "name": "FITUB",
            "lat": 32.35941666666667,
            "lon": 95.92750278333334
        },
        {
            "name": "FZT",
            "lat": 32.07460556666667,
            "lon": 95.53079166666667
        },
        {
            "name": "HEKEV",
            "lat": 32.35973333333333,
            "lon": 95.82912221666666
        },
        {
            "name": "HUGBI",
            "lat": 32.09092221666667,
            "lon": 95.828075
        },
        {
            "name": "IDYAZ",
            "lat": 32.212530566666665,
            "lon": 95.82855
        },
        {
            "name": "NARCS",
            "lat": 31.809372216666667,
            "lon": 96.12876111666667
        },
        {
            "name": "UBUTE",
            "lat": 31.967980566666668,
            "lon": 95.82759443333333
        },
        {
            "name": "WAMAM",
            "lat": 32.259791666666665,
            "lon": 95.82873333333333
        },
        {
            "name": "ZALUS",
            "lat": 31.967666666666666,
            "lon": 95.92555556666667
        }
    ],
    "rnws": [
        "RNW 18",
        "RNW 36"
    ],
    "sids": [],
    "stars": [],
    "approaches": [
        {
            "name": "RNAV18",
            "fixes": {
                "HEKEV": "HEKEV AT OR ABOVE 3000",
                "WAMAM": "WAMAM 2200",
                "IDYAZ": "IDYAZ AT OR ABOVE 1320 RNW 18 TRK 178 UNTIL 844",
                "UBUTE": "OVERFLY UBUTE AT OR ABOVE 3000 HOLD AT UBUTE RIGHT TURN INBOUNDCOURSE 358 LEGDIST 4 FAF WAMAM MAP RNW 18"
            },
            "transitions": [
                {
                    "name": "FITUB",
                    "fixes": {
                        "FITUB": "FITUB"
                    }
                },
                {
                    "name": "FZT",
                    "fixes": {
                        "FZT": "FZT",
                        "CISID": "CISID AT OR ABOVE 3000"
                    }
                },
                {
                    "name": "HEKEV",
                    "fixes": {
                        "HEKEV": "HEKEV RIGHT TURN INBOUNDCOURSE 178 ALT 3000 LEGDIST 4"
                    }
                }
            ]
        },
        {
            "name": "RNAV36",
            "fixes": {
                "UBUTE": "UBUTE AT OR ABOVE 3000",
                "HUGBI": "HUGBI 2200 RNW 36 TRK 358 UNTIL 844",
                "HEKEV": "OVERFLY HEKEV AT OR ABOVE 3000 HOLD AT HEKEV RIGHT TURN INBOUNDCOURSE 178 LEGDIST 4 FAF HUGBI MAP RNW 36"
            },
            "transitions": [
                {
                    "name": "FZT",
                    "fixes": {
                        "FZT": "FZT",
                        "CUMAX": "CUMAX AT OR ABOVE 3000"
                    }
                },
                {
                    "name": "NARCS",
                    "fixes": {
                        "NARCS": "NARCS",
                        "ZALUS": "ZALUS AT OR ABOVE 3000"
                    }
                },
                {
                    "name": "UBUTE",
                    "fixes": {
                        "UBUTE": "UBUTE RIGHT TURN INBOUNDCOURSE 358 ALT 3000 LEGDIST 4"
                    }
                }
            ]
        }
    ]
}