{
    "fixes": [
        {
            "name": "CENKO",
            "lat": 35.067377783333335,
            "lon": 78.66300556666667
        },
        {
            "name": "CFBBS",
            "lat": 35.15863888333333,
            "lon": 78.75851666666667
        },
        {
            "name": "CINLO",
            "lat": 34.910863883333334,
            "lon": 78.94098056666667
        },
        {
            "name": "EP04",
            "lat": 34.98134721666667,
            "lon": 78.88208888333334
        },
        {
            "name": "EP22",
            "lat": 35.00096666666666,
            "lon": 78.87039166666666
        },
        {
            "name": "FAY",
            "lat": 34.98555,
            "lon": 78.87506388333334
        },
        {
            "name": "FF04",
            "lat": 34.923791666666666,
            "lon": 78.97819443333333
        },
        {
            "name": "FF22",
            "lat": 35.09720278333333,
            "lon": 78.84118888333333
        },
        {
            "name": "FF28",
            "lat": 35.00217778333333,
            "lon": 78.76008056666667
        },
        {
            "name": "FIDBO",
            "lat": 34.988444433333335,
            "lon": 78.92618611666667
        },
        {
            "name": "FIKUL",
            "lat": 34.98575278333333,
            "lon": 78.76666666666667
        },
        {
            "name": "GANDS",
            "lat": 34.838141666666665,
            "lon": 78.63981111666666
        },
        {
            "name": "HEDUR",
            "lat": 34.98798611666667,
            "lon": 78.89818333333334
        },
        {
            "name": "JAGOB",
            "lat": 34.98393333333333,
            "lon": 78.66527221666666
        },
        {
            "name": "JONSI",
            "lat": 35.010225,
            "lon": 78.867975
        },
        {
            "name": "MORGY",
            "lat": 35.07315,
            "lon": 78.82164443333333
        },
        {
            "name": "NISIE",
            "lat": 34.900483333333334,
            "lon": 78.66753611666667
        },
        {
            "name": "PI001",
            "lat": 35.123145883333336,
            "lon": 78.78491226666667
        },
        {
            "name": "PI002",
            "lat": 35.14045393333333,
            "lon": 78.69987598333333
        },
        {
            "name": "PI003",
            "lat": 35.21596593333334,
            "lon": 78.71657558333334
        },
        {
            "name": "PI004",
            "lat": 34.9488271,
            "lon": 78.93037133333333
        },
        {
            "name": "PI005",
            "lat": 34.95628731666667,
            "lon": 79.01733448333333
        },
        {
            "name": "PI006",
            "lat": 34.880561033333336,
            "lon": 79.03295375
        },
        {
            "name": "PI007",
            "lat": 35.042810833333334,
            "lon": 78.86146891666667
        },
        {
            "name": "PI008",
            "lat": 35.0828647,
            "lon": 78.78886376666667
        },
        {
            "name": "PI009",
            "lat": 35.149148333333336,
            "lon": 78.83617046666667
        },
        {
            "name": "PI010",
            "lat": 34.998652416666665,
            "lon": 78.80567833333333
        },
        {
            "name": "PI011",
            "lat": 34.96065231666667,
            "lon": 78.73151921666667
        },
        {
            "name": "PI012",
            "lat": 35.022880666666666,
            "lon": 78.67676061666667
        },
        {
            "name": "ROWEL",
            "lat": 34.69491111666667,
            "lon": 79.17936943333333
        },
        {
            "name": "SUGAE",
            "lat": 34.932433333333336,
            "lon": 79.161
        },
        {
            "name": "UJORO",
            "lat": 35.172927783333336,
            "lon": 78.74800833333333
        },
        {
            "name": "WALEX",
            "lat": 34.849133333333334,
            "lon": 79.16745278333333
        },
        {
            "name": "YISBU",
            "lat": 34.96004166666667,
            "lon": 78.90487221666666
        },
        {
            "name": "ZITMO",
            "lat": 34.97102221666667,
            "lon": 79.00571388333333
        },
        {
            "name": "ZODGI",
            "lat": 34.81086666666667,
            "lon": 79.01424166666666
        }
    ],
    "rnws": [
        "RNW 04",
        "RNW 10",
        "RNW 22",
        "RNW 28"
    ],
    "sids": [
        {
            "name": "MTY5",
            "rnw": "09",
            "fixes": {},
            "sub_fixes": [
                {
                    "rwy": "RNW 04",
                    "fixes": {
                        "RNW 04": "RNW 04 HDG 038 UNTIL 590 HDG 038 VECTORS"
                    }
                },
                {
                    "rwy": "RNW 10",
                    "fixes": {
                        "RNW 10": "RNW 10 HDG 098 UNTIL 590 HDG 098 VECTORS"
                    }
                },
                {
                    "rwy": "RNW 22",
                    "fixes": {
                        "RNW 22": "RNW 22 HDG 218 UNTIL 590 HDG 218 VECTORS"
                    }
                },
                {
                    "rwy": "RNW 28",
                    "fixes": {
                        "RNW 28": "RNW 28 HDG 278 UNTIL 590 HDG 278 VECTORS"
                    }
                }
            ],
            "transitions": []
        }
    ],
    "stars": [],
    "approaches": [
        {
            "name": "LOCB22",
            "fixes": {
                "CFBBS": "CFBBS AT OR ABOVE 2100",
                "MORGY": "MORGY 1800",
                "JONSI": "JONSI 400 RNW 22 TRK 218 UNTIL 900 TURN LEFT HDG 100 INTERCEPT RADIAL 131 TO",
                "GANDS": "GANDS GANDS AT OR ABOVE 3000 HOLD AT GANDS RIGHT TURN INBOUNDCOURSE 311 LEGTIME 1 FAF MORGY MAP JONSI"
            },
            "transitions": [
                {
                    "name": "FAY",
                    "fixes": {
                        "FAY": "FAY",
                        "MORGY": "MORGY AT OR ABOVE 2100",
                        "PI001": "PI001 AT OR ABOVE 2100 SPEED 210",
                        "PI002": "OVERFLY PI002 AT OR ABOVE 2100 SPEED 210",
                        "PI003": "PI003 AT OR ABOVE 2100 SPEED 210"
                    }
                }
            ]
        },
        {
            "name": "VORD04",
            "fixes": {
                "FF04": "FF04 2100",
                "EP04": "OVERFLY EP04 230",
                "FAY": "OVERFLY FAY AT OR ABOVE 590 RNW 04 TRK 058 UNTIL 1100",
                "GANDS": "GANDS AT OR ABOVE 3000 HOLD AT GANDS RIGHT TURN INBOUNDCOURSE 311 LEGTIME 1 FAF FF04 MAP FAY"
            },
            "transitions": [
                {
                    "name": "FAY",
                    "fixes": {
                        "FAY": "FAY AT OR BELOW 4700",
                        "PI004": "PI004 AT OR ABOVE 2100 SPEED 210",
                        "PI005": "OVERFLY PI005 AT OR ABOVE 2100 SPEED 210",
                        "PI006": "PI006 AT OR ABOVE 2100 SPEED 210"
                    }
                }
            ]
        },
        {
            "name": "VORD22",
            "fixes": {
                "FF22": "FF22 2100",
                "EP22": "OVERFLY EP22 208",
                "FAY": "OVERFLY FAY AT OR ABOVE 590 RNW 22 TRK 198 UNTIL 1300 TURN LEFT HDG 100 INTERCEPT RADIAL 131 TO",
                "GANDS": "GANDS GANDS AT OR ABOVE 3000 HOLD AT GANDS RIGHT TURN INBOUNDCOURSE 311 LEGTIME 1 FAF FF22 MAP FAY"
            },
            "transitions": [
                {
                    "name": "FAY",
                    "fixes": {
                        "PI007": "PI007 AT OR ABOVE 2100 SPEED 210",
                        "PI008": "OVERFLY PI008 AT OR ABOVE 2100 SPEED 210",
                        "PI009": "PI009 AT OR ABOVE 2100 SPEED 210"
                    }
                }
            ]
        },
        {
            "name": "VORD28",
            "fixes": {
                "FF28": "FF28 2000 RNW 28",
                "FAY": "OVERFLY FAY AT OR ABOVE 590 TRK 264 UNTIL 1100 TURN LEFT DIRECT",
                "GANDS": "GANDS AT OR ABOVE 3000 HOLD AT GANDS RIGHT TURN INBOUNDCOURSE 311 LEGTIME 1 FAF FF28 MAP RNW 28"
            },
            "transitions": [
                {
                    "name": "FAY",
                    "fixes": {
                        "PI010": "PI010 AT OR ABOVE 2000 SPEED 210",
                        "PI011": "OVERFLY PI011 AT OR ABOVE 2000 SPEED 210",
                        "PI012": "PI012 AT OR ABOVE 2000 SPEED 210"
                    }
                }
            ]
        },
        {
            "name": "ILS04",
            "fixes": {
                "ZODGI": "ZODGI AT OR ABOVE 2300",
                "CINLO": "CINLO 1900 RNW 04 TRK 038 UNTIL 1100 TURN RIGHT DIRECT",
                "GANDS": "GANDS AT OR ABOVE 3000 HOLD AT GANDS RIGHT TURN INBOUNDCOURSE 311 LEGTIME 1 FAF CINLO MAP RNW 04"
            },
            "transitions": [
                {
                    "name": "FAY",
                    "fixes": {
                        "FAY": "FAY",
                        "ZODGI": "ZODGI AT OR ABOVE 2300 HOLD AT ZODGI RIGHT TURN INBOUNDCOURSE 038 ALT 2300 LEGTIME 1"
                    }
                }
            ]
        },
        {
            "name": "RNAV04",
            "fixes": {
                "ZODGI": "ZODGI AT OR ABOVE 2300",
                "CINLO": "CINLO 1900",
                "YISBU": "YISBU AT OR ABOVE 800 RNW 04 TRK 038 UNTIL 389",
                "UJORO": "OVERFLY UJORO AT OR ABOVE 2300 HOLD AT UJORO RIGHT TURN INBOUNDCOURSE 218 LEGDIST 4 FAF CINLO MAP RNW 04"
            },
            "transitions": [
                {
                    "name": "ZODGI",
                    "fixes": {
                        "ZODGI": "ZODGI RIGHT TURN INBOUNDCOURSE 038 ALT 2300 LEGDIST 4"
                    }
                }
            ]
        },
        {
            "name": "RNAV10",
            "fixes": {
                "SUGAE": "SUGAE AT OR ABOVE 2600",
                "ZITMO": "ZITMO 2100",
                "HEDUR": "OVERFLY HEDUR 383 RNW 10 TRK 086 UNTIL 589",
                "JAGOB": "OVERFLY JAGOB AT OR ABOVE 2600 HOLD AT JAGOB RIGHT TURN INBOUNDCOURSE 278 LEGDIST 4 FAF ZITMO MAP HEDUR"
            },
            "transitions": [
                {
                    "name": "ROWEL",
                    "fixes": {
                        "ROWEL": "ROWEL",
                        "WALEX": "WALEX AT OR ABOVE 2600"
                    }
                },
                {
                    "name": "SUGAE",
                    "fixes": {
                        "SUGAE": "SUGAE RIGHT TURN INBOUNDCOURSE 080 ALT 2600 LEGDIST 4"
                    }
                }
            ]
        },
        {
            "name": "RNAV22",
            "fixes": {
                "UJORO": "UJORO AT OR ABOVE 2300",
                "MORGY": "MORGY 1800 RNW 22 TRK 218 UNTIL 360",
                "ZODGI": "OVERFLY ZODGI AT OR ABOVE 2300 HOLD AT ZODGI RIGHT TURN INBOUNDCOURSE 038 LEGDIST 4 FAF MORGY MAP RNW 22"
            },
            "transitions": [
                {
                    "name": "UJORO",
                    "fixes": {
                        "UJORO": "UJORO RIGHT TURN INBOUNDCOURSE 218 ALT 2300 LEGDIST 4"
                    }
                }
            ]
        },
        {
            "name": "RNAV28",
            "fixes": {
                "JAGOB": "JAGOB AT OR ABOVE 2600",
                "FIKUL": "FIKUL 1900 RNW 28 TRK 278 UNTIL 500",
                "FIDBO": "FIDBO",
                "SUGAE": "OVERFLY SUGAE AT OR ABOVE 2600 HOLD AT SUGAE RIGHT TURN INBOUNDCOURSE 080 LEGDIST 4 FAF FIKUL MAP RNW 28"
            },
            "transitions": [
                {
                    "name": "CENKO",
                    "fixes": {
                        "CENKO": "CENKO"
                    }
                },
                {
                    "name": "JAGOB",
                    "fixes": {
                        "JAGOB": "JAGOB RIGHT TURN INBOUNDCOURSE 278 ALT 2600 LEGDIST 4"
                    }
                },
                {
                    "name": "NISIE",
                    "fixes": {
                        "NISIE": "NISIE"
                    }
                }
            ]
        }
    ]
}