{
    "fixes": [
        {
            "name": "AF001",
            "lat": 39.729505583333335,
            "lon": 83.82274896666667
        },
        {
            "name": "AF002",
            "lat": 39.6725721,
            "lon": 83.87827036666667
        },
        {
            "name": "AF003",
            "lat": 39.63415941666667,
            "lon": 83.95609958333333
        },
        {
            "name": "AF004",
            "lat": 39.619099266666666,
            "lon": 84.04641931666667
        },
        {
            "name": "AF005",
            "lat": 39.62928386666667,
            "lon": 84.13787716666667
        },
        {
            "name": "AF006",
            "lat": 39.84190911666666,
            "lon": 83.7967621
        },
        {
            "name": "AF007",
            "lat": 39.884930966666666,
            "lon": 83.80953558333333
        },
        {
            "name": "AKATE",
            "lat": 39.78616666666667,
            "lon": 84.10448056666667
        },
        {
            "name": "AMOUR",
            "lat": 39.68860278333333,
            "lon": 84.25225
        },
        {
            "name": "ANNEE",
            "lat": 39.882666666666665,
            "lon": 83.964075
        },
        {
            "name": "APE",
            "lat": 40.151063883333336,
            "lon": 82.5883
        },
        {
            "name": "ARAKE",
            "lat": 39.86796666666667,
            "lon": 83.96791943333334
        },
        {
            "name": "BENJJ",
            "lat": 39.674880566666666,
            "lon": 84.23546388333334
        },
        {
            "name": "BEYCH",
            "lat": 39.885016666666665,
            "lon": 83.96675278333333
        },
        {
            "name": "BOXEY",
            "lat": 39.80917221666667,
            "lon": 84.07297778333333
        },
        {
            "name": "BRANN",
            "lat": 39.761552783333336,
            "lon": 84.16175278333333
        },
        {
            "name": "BRYNN",
            "lat": 39.203155566666666,
            "lon": 84.55575556666666
        },
        {
            "name": "CLACK",
            "lat": 39.797797216666666,
            "lon": 83.79746111666667
        },
        {
            "name": "COOJO",
            "lat": 40.18459443333333,
            "lon": 83.24865556666667
        },
        {
            "name": "CUBUS",
            "lat": 39.85801111666667,
            "lon": 83.99071943333334
        },
        {
            "name": "CUSAD",
            "lat": 39.81300556666667,
            "lon": 84.06303888333333
        },
        {
            "name": "D062L",
            "lat": 39.92405556666667,
            "lon": 83.83409443333333
        },
        {
            "name": "D223L",
            "lat": 39.662525,
            "lon": 84.21754443333333
        },
        {
            "name": "DANEI",
            "lat": 40.202677783333336,
            "lon": 83.63931666666667
        },
        {
            "name": "DINGY",
            "lat": 39.843333333333334,
            "lon": 84.02284166666666
        },
        {
            "name": "DUKNE",
            "lat": 39.75335,
            "lon": 84.14940278333333
        },
        {
            "name": "FERLO",
            "lat": 39.70400278333334,
            "lon": 84.2678
        },
        {
            "name": "FLM",
            "lat": 38.64944166666667,
            "lon": 84.31060278333334
        },
        {
            "name": "FLYRR",
            "lat": 39.90331666666667,
            "lon": 83.93335
        },
        {
            "name": "FOVER",
            "lat": 39.83748611666667,
            "lon": 84.02483888333333
        },
        {
            "name": "GLIMM",
            "lat": 39.681986116666664,
            "lon": 84.25509443333333
        },
        {
            "name": "GRIFF",
            "lat": 39.75898888333333,
            "lon": 84.13059166666666
        },
        {
            "name": "HAGIO",
            "lat": 39.593994433333336,
            "lon": 84.15582221666666
        },
        {
            "name": "HFFMN",
            "lat": 39.67770556666667,
            "lon": 84.26854721666666
        },
        {
            "name": "HHAWK",
            "lat": 39.58972778333333,
            "lon": 84.16926111666666
        },
        {
            "name": "HOGID",
            "lat": 39.873663883333336,
            "lon": 83.97379166666667
        },
        {
            "name": "HOLKU",
            "lat": 39.878975,
            "lon": 83.98033333333333
        },
        {
            "name": "JELAK",
            "lat": 39.76979721666667,
            "lon": 84.35476111666667
        },
        {
            "name": "JOLOM",
            "lat": 39.859141666666666,
            "lon": 83.99205278333334
        },
        {
            "name": "KEKEE",
            "lat": 39.53816666666667,
            "lon": 84.28924721666667
        },
        {
            "name": "KFFO",
            "lat": 39.825969433333334,
            "lon": 84.04610278333334
        },
        {
            "name": "KITTI",
            "lat": 39.68546666666667,
            "lon": 84.41932778333333
        },
        {
            "name": "KUSSH",
            "lat": 39.89744721666667,
            "lon": 83.93487221666666
        },
        {
            "name": "LODLL",
            "lat": 38.80723888333333,
            "lon": 84.38005833333334
        },
        {
            "name": "LOOMP",
            "lat": 39.951619433333335,
            "lon": 83.86090278333333
        },
        {
            "name": "MEMOE",
            "lat": 39.957897216666666,
            "lon": 83.86843333333333
        },
        {
            "name": "MESUE",
            "lat": 39.88024443333333,
            "lon": 83.72924721666666
        },
        {
            "name": "NARGE",
            "lat": 40.056694433333334,
            "lon": 83.92803333333333
        },
        {
            "name": "ORRVL",
            "lat": 39.88613611666667,
            "lon": 83.7277
        },
        {
            "name": "PRARY",
            "lat": 39.749088883333336,
            "lon": 84.16288333333334
        },
        {
            "name": "SKIPE",
            "lat": 39.755663883333334,
            "lon": 84.15302221666667
        },
        {
            "name": "WINBO",
            "lat": 39.96851388333333,
            "lon": 83.82851388333333
        },
        {
            "name": "WLLBA",
            "lat": 39.966591666666666,
            "lon": 83.68645
        },
        {
            "name": "WRIIT",
            "lat": 39.97439166666667,
            "lon": 83.82699443333334
        },
        {
            "name": "YANKO",
            "lat": 39.880575,
            "lon": 83.95316388333333
        },
        {
            "name": "ZUMVO",
            "lat": 39.94202778333333,
            "lon": 83.85057221666666
        }
    ],
    "rnws": [
        "RNW 05L",
        "RNW 05R",
        "RNW 23L",
        "RNW 23R"
    ],
    "sids": [],
    "stars": [
        {
            "name": "DANEI3",
            "runway": "RNW 05L RNW 05R RNW 23L RNW 23R",
            "fixes": {
                "DANEI": "DANEI HDG 253 VECTORS"
            }
        },
        {
            "name": "KEKEE4",
            "runway": "RNW 05L RNW 05R RNW 23L RNW 23R",
            "fixes": {
                "KEKEE": "KEKEE"
            }
        }
    ],
    "approaches": [
        {
            "name": "ILS05L",
            "fixes": {
                "AMOUR": "AMOUR AT OR ABOVE 3100",
                "SKIPE": "SKIPE 2600 RNW 05L TRK 053 UNTIL 1230",
                "HOGID": "OVERFLY HOGID AT OR ABOVE 2000 TURN RIGHT DIRECT",
                "CLACK": "CLACK AT OR ABOVE 3100 HOLD AT CLACK RIGHT TURN INBOUNDCOURSE 280 ALT 5000 SPEED 265 LEGDIST 5 FAF SKIPE MAP RNW 05L"
            },
            "transitions": [
                {
                    "name": "CLACK",
                    "fixes": {
                        "CLACK": "CLACK AT OR BELOW 5000 AT OR ABOVE 3100",
                        "AF001": "AF001",
                        "AF002": "AF002",
                        "AF003": "AF003",
                        "AF004": "AF004",
                        "AF005": "AF005",
                        "D223L": "D223L AT OR ABOVE 3100"
                    }
                }
            ]
        },
        {
            "name": "ILS23R",
            "fixes": {
                "LOOMP": "LOOMP AT OR ABOVE 3000",
                "ANNEE": "ANNEE 2200 RNW 23R TRK 233 UNTIL 1230",
                "AKATE": "OVERFLY AKATE AT OR ABOVE 2000 TURN LEFT DIRECT",
                "CLACK": "CLACK 3000 HOLD AT CLACK RIGHT TURN INBOUNDCOURSE 280 SPEED 265 LEGDIST 5 FAF ANNEE MAP RNW 23R"
            },
            "transitions": [
                {
                    "name": "CLACK",
                    "fixes": {
                        "CLACK": "CLACK AT OR BELOW 6000 AT OR ABOVE 3000",
                        "AF006": "AF006",
                        "AF007": "AF007",
                        "D062L": "D062L AT OR ABOVE 3000"
                    }
                }
            ]
        },
        {
            "name": "RNAV05L",
            "fixes": {
                "HFFMN": "HFFMN AT OR ABOVE 3100",
                "PRARY": "PRARY 2600 RNW 05L TRK 053 UNTIL 1230",
                "CLACK": "OVERFLY CLACK 3100 HOLD AT CLACK RIGHT TURN INBOUNDCOURSE 280 LEGDIST 5 FAF PRARY MAP RNW 05L"
            },
            "transitions": [
                {
                    "name": "HHAWK",
                    "fixes": {
                        "HHAWK": "HHAWK 3100"
                    }
                },
                {
                    "name": "KITTI",
                    "fixes": {
                        "KITTI": "KITTI AT OR ABOVE 3100"
                    }
                }
            ]
        },
        {
            "name": "RNAV05R",
            "fixes": {
                "GLIMM": "GLIMM AT OR ABOVE 3100",
                "DUKNE": "DUKNE 2600 RNW 05R TRK 053 UNTIL 1230",
                "CLACK": "OVERFLY CLACK 3100 HOLD AT CLACK RIGHT TURN INBOUNDCOURSE 280 LEGDIST 5 FAF DUKNE MAP RNW 05R"
            },
            "transitions": [
                {
                    "name": "GLIMM",
                    "fixes": {
                        "GLIMM": "GLIMM RIGHT TURN INBOUNDCOURSE 053 ALT 3100 LEGDIST 5"
                    }
                },
                {
                    "name": "HAGIO",
                    "fixes": {
                        "HAGIO": "HAGIO"
                    }
                },
                {
                    "name": "JELAK",
                    "fixes": {
                        "JELAK": "JELAK"
                    }
                }
            ]
        },
        {
            "name": "RNAV23L",
            "fixes": {
                "WINBO": "WINBO AT OR ABOVE 3000 OVERFLY WINBO 3000 HOLD AT WINBO RIGHT TURN INBOUNDCOURSE 233 LEGDIST 5 FAF KUSSH MAP RNW 23L",
                "KUSSH": "KUSSH 2700",
                "JOLOM": "JOLOM AT OR ABOVE 1620 RNW 23L TRK 233 UNTIL 1230 TURN LEFT DIRECT"
            },
            "transitions": [
                {
                    "name": "MESUE",
                    "fixes": {
                        "MESUE": "MESUE"
                    }
                },
                {
                    "name": "NARGE",
                    "fixes": {
                        "NARGE": "NARGE"
                    }
                },
                {
                    "name": "WINBO",
                    "fixes": {
                        "WINBO": "WINBO RIGHT TURN INBOUNDCOURSE 233 ALT 3000 LEGDIST 5"
                    }
                }
            ]
        },
        {
            "name": "RNAV23R",
            "fixes": {
                "WRIIT": "WRIIT AT OR ABOVE 3000",
                "FLYRR": "FLYRR 2500 RNW 23R TRK 233 UNTIL 1230 TURN LEFT DIRECT",
                "WLLBA": "OVERFLY WLLBA 3000 HOLD AT WLLBA RIGHT TURN INBOUNDCOURSE 278 LEGDIST 5 FAF FLYRR MAP RNW 23R"
            },
            "transitions": [
                {
                    "name": "ORRVL",
                    "fixes": {
                        "ORRVL": "ORRVL"
                    }
                },
                {
                    "name": "WLLBA",
                    "fixes": {
                        "WLLBA": "WLLBA AT OR ABOVE 3000"
                    }
                }
            ]
        },
        {
            "name": "VOR05L",
            "fixes": {
                "FERLO": "FERLO AT OR ABOVE 3100",
                "BRANN": "BRANN 2600",
                "BOXEY": "BOXEY 1011 RNW 05L TURN RIGHT DIRECT",
                "CLACK": "CLACK AT OR ABOVE 3100 HOLD AT CLACK RIGHT TURN INBOUNDCOURSE 280 ALT 6000 SPEED 265 LEGDIST 5 FAF BRANN MAP BOXEY"
            },
            "transitions": [
                {
                    "name": "CLACK",
                    "fixes": {
                        "CLACK": "CLACK AT OR BELOW 6000 AT OR ABOVE 3100"
                    }
                }
            ]
        },
        {
            "name": "VOR05R",
            "fixes": {
                "BENJJ": "BENJJ AT OR ABOVE 3100",
                "GRIFF": "GRIFF 2600",
                "CUSAD": "CUSAD 1074 RNW 05R",
                "HOLKU": "OVERFLY HOLKU AT OR ABOVE 2000",
                "CLACK": "CLACK AT OR ABOVE 3100 HOLD AT CLACK RIGHT TURN INBOUNDCOURSE 280 ALT 6000 SPEED 265 LEGDIST 5 FAF GRIFF MAP CUSAD"
            },
            "transitions": [
                {
                    "name": "CLACK",
                    "fixes": {
                        "CLACK": "CLACK AT OR BELOW 6000 AT OR ABOVE 3100"
                    }
                }
            ]
        },
        {
            "name": "VOR23L",
            "fixes": {
                "ZUMVO": "ZUMVO AT OR ABOVE 3000",
                "YANKO": "YANKO 2200",
                "CUBUS": "CUBUS AT OR ABOVE 1660",
                "FOVER": "FOVER 1028 RNW 23L",
                "AKATE": "OVERFLY AKATE AT OR ABOVE 2000 TURN LEFT DIRECT",
                "CLACK": "CLACK AT OR ABOVE 3000 HOLD AT CLACK RIGHT TURN INBOUNDCOURSE 280 ALT 5000 SPEED 265 LEGDIST 5 FAF YANKO MAP FOVER"
            },
            "transitions": [
                {
                    "name": "CLACK",
                    "fixes": {
                        "CLACK": "CLACK AT OR BELOW 5000 AT OR ABOVE 3000"
                    }
                }
            ]
        },
        {
            "name": "VOR23R",
            "fixes": {
                "MEMOE": "MEMOE AT OR ABOVE 3000",
                "BEYCH": "BEYCH 2400",
                "DINGY": "DINGY 1069 RNW 23R",
                "AKATE": "OVERFLY AKATE AT OR ABOVE 2000 TURN LEFT DIRECT",
                "CLACK": "CLACK 3000 HOLD AT CLACK RIGHT TURN INBOUNDCOURSE 280 SPEED 265 LEGDIST 5 FAF BEYCH MAP DINGY"
            },
            "transitions": [
                {
                    "name": "CLACK",
                    "fixes": {
                        "CLACK": "CLACK AT OR BELOW 6000 AT OR ABOVE 3000"
                    }
                }
            ]
        }
    ]
}