{
    "fixes": [
        {
            "name": "EQAXO",
            "lat": 38.758727783333335,
            "lon": 91.10019166666666
        },
        {
            "name": "ESTUQ",
            "lat": 38.508327783333336,
            "lon": 90.94471666666666
        },
        {
            "name": "FTZ",
            "lat": 38.69433333333333,
            "lon": 90.97126943333333
        },
        {
            "name": "HISZY",
            "lat": 38.546905566666666,
            "lon": 90.96859443333334
        },
        {
            "name": "IMPER",
            "lat": 38.452252783333336,
            "lon": 90.39600556666667
        },
        {
            "name": "IYBEP",
            "lat": 38.79526943333333,
            "lon": 91.00439721666666
        },
        {
            "name": "MA184",
            "lat": 38.59309721666666,
            "lon": 90.99251111666666
        },
        {
            "name": "OJEQY",
            "lat": 38.452733333333335,
            "lon": 90.79246388333334
        },
        {
            "name": "PI001",
            "lat": 38.752444516666664,
            "lon": 90.96475018333334
        },
        {
            "name": "PI002",
            "lat": 38.79848981666667,
            "lon": 90.89430746666666
        },
        {
            "name": "PI003",
            "lat": 38.8603643,
            "lon": 90.95261481666667
        },
        {
            "name": "SADEN",
            "lat": 38.90195833333333,
            "lon": 90.74020556666666
        },
        {
            "name": "STEER",
            "lat": 38.34608888333333,
            "lon": 91.13222221666666
        },
        {
            "name": "TOFGY",
            "lat": 38.637258333333335,
            "lon": 91.02462221666667
        },
        {
            "name": "UHMAM",
            "lat": 38.37988333333333,
            "lon": 90.98324166666667
        },
        {
            "name": "UZAYO",
            "lat": 38.72210833333333,
            "lon": 91.19588888333334
        },
        {
            "name": "WEXJI",
            "lat": 38.416347216666665,
            "lon": 90.8879
        },
        {
            "name": "YIJVO",
            "lat": 38.66657778333333,
            "lon": 91.04283611666666
        }
    ],
    "rnws": [
        "RNW 15",
        "RNW 33"
    ],
    "sids": [],
    "stars": [],
    "approaches": [
        {
            "name": "RNAV15",
            "fixes": {
                "EQAXO": "EQAXO AT OR ABOVE 2700",
                "YIJVO": "YIJVO 2100",
                "TOFGY": "TOFGY AT OR ABOVE 1400 RNW 15",
                "WEXJI": "OVERFLY WEXJI AT OR ABOVE 2700 HOLD AT WEXJI RIGHT TURN INBOUNDCOURSE 333 LEGDIST 4 FAF YIJVO MAP RNW 15"
            },
            "transitions": [
                {
                    "name": "EQAXO",
                    "fixes": {
                        "EQAXO": "EQAXO RIGHT TURN INBOUNDCOURSE 153 ALT 2700 LEGDIST 4"
                    }
                },
                {
                    "name": "SADEN",
                    "fixes": {
                        "SADEN": "SADEN",
                        "IYBEP": "IYBEP AT OR ABOVE 2700"
                    }
                },
                {
                    "name": "STEER",
                    "fixes": {
                        "STEER": "STEER",
                        "UZAYO": "UZAYO AT OR ABOVE 2700"
                    }
                }
            ]
        },
        {
            "name": "RNAV33",
            "fixes": {
                "WEXJI": "WEXJI AT OR ABOVE 2700",
                "ESTUQ": "ESTUQ 2100",
                "HISZY": "HISZY AT OR ABOVE 1260 RNW 33 TRK 333 UNTIL 823",
                "EQAXO": "OVERFLY EQAXO AT OR ABOVE 2700 HOLD AT EQAXO RIGHT TURN INBOUNDCOURSE 153 LEGDIST 4 FAF ESTUQ MAP RNW 33"
            },
            "transitions": [
                {
                    "name": "IMPER",
                    "fixes": {
                        "IMPER": "IMPER",
                        "OJEQY": "OJEQY AT OR ABOVE 2800"
                    }
                },
                {
                    "name": "STEER",
                    "fixes": {
                        "STEER": "STEER",
                        "UHMAM": "UHMAM AT OR ABOVE 2700"
                    }
                },
                {
                    "name": "WEXJI",
                    "fixes": {
                        "WEXJI": "WEXJI RIGHT TURN INBOUNDCOURSE 333 ALT 2700 LEGDIST 4"
                    }
                }
            ]
        },
        {
            "name": "VORA15",
            "fixes": {
                "FTZ": "FTZ 2500 FTZ AT OR ABOVE 2500 HOLD AT FTZ RIGHT TURN INBOUNDCOURSE 184 LEGTIME 1 FAF FTZ MAP MA184",
                "MA184": "MA184 1520 RNW 15 TRK 184 UNTIL 1520 TURN LEFT DIRECT"
            },
            "transitions": [
                {
                    "name": "FTZ",
                    "fixes": {
                        "PI001": "PI001 AT OR ABOVE 2500 SPEED 210",
                        "PI002": "OVERFLY PI002 AT OR ABOVE 2500 SPEED 210",
                        "PI003": "PI003 AT OR ABOVE 2500 SPEED 210"
                    }
                }
            ]
        },
        {
            "name": "VORA33",
            "fixes": {
                "FTZ": "FTZ 2500 FTZ AT OR ABOVE 2500 HOLD AT FTZ RIGHT TURN INBOUNDCOURSE 184 LEGTIME 1 FAF FTZ MAP MA184",
                "MA184": "MA184 1520 RNW 33 TRK 184 UNTIL 1520 TURN LEFT DIRECT"
            },
            "transitions": [
                {
                    "name": "FTZ",
                    "fixes": {
                        "PI001": "PI001 AT OR ABOVE 2500 SPEED 210",
                        "PI002": "OVERFLY PI002 AT OR ABOVE 2500 SPEED 210",
                        "PI003": "PI003 AT OR ABOVE 2500 SPEED 210"
                    }
                }
            ]
        }
    ]
}