{
    "fixes": [
        {
            "name": "AF001",
            "lat": 34.02895818333333,
            "lon": 85.82793618333334
        },
        {
            "name": "AF002",
            "lat": 34.06497256666667,
            "lon": 85.84278475
        },
        {
            "name": "AWELU",
            "lat": 33.898038883333335,
            "lon": 86.246075
        },
        {
            "name": "BLKEY",
            "lat": 34.023780566666666,
            "lon": 85.97669166666667
        },
        {
            "name": "CEGON",
            "lat": 33.917355566666664,
            "lon": 86.20482221666667
        },
        {
            "name": "CFRZN",
            "lat": 34.11675278333333,
            "lon": 85.77613888333333
        },
        {
            "name": "EBAZE",
            "lat": 34.26207221666667,
            "lon": 85.77328056666667
        },
        {
            "name": "EKUTE",
            "lat": 34.082988883333336,
            "lon": 86.0854
        },
        {
            "name": "FIKOX",
            "lat": 34.047297216666664,
            "lon": 85.92608333333334
        },
        {
            "name": "GAD",
            "lat": 33.976402783333334,
            "lon": 86.08355833333333
        },
        {
            "name": "GAYEC",
            "lat": 34.18995833333334,
            "lon": 86.08483888333333
        },
        {
            "name": "GESTS",
            "lat": 34.292716666666664,
            "lon": 86.06860278333333
        },
        {
            "name": "HORPO",
            "lat": 33.86924166666667,
            "lon": 86.08651943333334
        },
        {
            "name": "HUBJU",
            "lat": 34.08127221666667,
            "lon": 85.85283333333334
        },
        {
            "name": "JEFRS",
            "lat": 33.90803056666667,
            "lon": 86.19679721666667
        },
        {
            "name": "JODAT",
            "lat": 33.86497778333333,
            "lon": 86.31656943333333
        },
        {
            "name": "KILEC",
            "lat": 33.94951666666667,
            "lon": 86.13603611666667
        },
        {
            "name": "LEVIC",
            "lat": 33.766013883333336,
            "lon": 86.12014443333334
        },
        {
            "name": "MAYES",
            "lat": 33.97231111666667,
            "lon": 85.82092778333333
        },
        {
            "name": "NOPVE",
            "lat": 33.590916666666665,
            "lon": 86.18105833333334
        },
        {
            "name": "OCOKO",
            "lat": 34.1231,
            "lon": 86.08518888333333
        },
        {
            "name": "PETBE",
            "lat": 33.83701943333333,
            "lon": 86.097025
        },
        {
            "name": "PI001",
            "lat": 33.86974908333333,
            "lon": 86.24981946666666
        },
        {
            "name": "PI002",
            "lat": 33.79825685,
            "lon": 86.25583536666667
        },
        {
            "name": "PI003",
            "lat": 33.798594783333336,
            "lon": 86.34816326666666
        },
        {
            "name": "SNEAR",
            "lat": 34.103127783333335,
            "lon": 86.32385833333333
        },
        {
            "name": "STAMP",
            "lat": 33.875816666666665,
            "lon": 86.243425
        },
        {
            "name": "VUZ",
            "lat": 33.67013333333333,
            "lon": 86.89983611666666
        },
        {
            "name": "WANEB",
            "lat": 34.00170833333333,
            "lon": 86.024125
        },
        {
            "name": "WENDO",
            "lat": 33.855675,
            "lon": 86.27535278333333
        }
    ],
    "rnws": [
        "RNW 06",
        "RNW 18",
        "RNW 24",
        "RNW 36"
    ],
    "sids": [],
    "stars": [],
    "approaches": [
        {
            "name": "VORD06",
            "fixes": {
                "JEFRS": "JEFRS 2500 RNW 06 TRK 052 UNTIL 2000 TURN RIGHT DIRECT JEFRS AT OR ABOVE 3500 HOLD AT JEFRS RIGHT TURN INBOUNDCOURSE 052 LEGTIME 1 FAF JEFRS MAP RNW 06"
            },
            "transitions": [
                {
                    "name": "GAD",
                    "fixes": {
                        "GAD": "GAD",
                        "JEFRS": "JEFRS AT OR ABOVE 3800",
                        "PI001": "PI001 AT OR ABOVE 3100 SPEED 210",
                        "PI002": "OVERFLY PI002 AT OR ABOVE 3100 SPEED 210",
                        "PI003": "PI003 AT OR ABOVE 3100 SPEED 210"
                    }
                }
            ]
        },
        {
            "name": "ILS24",
            "fixes": {
                "FIKOX": "FIKOX AT OR ABOVE 3000",
                "BLKEY": "BLKEY 2500 RNW 24 TRK 244 UNTIL 970",
                "STAMP": "STAMP AT OR ABOVE 3600 HOLD AT STAMP RIGHT TURN INBOUNDCOURSE 231 LEGTIME 1 FAF BLKEY MAP RNW 24"
            },
            "transitions": [
                {
                    "name": "EBAZE",
                    "fixes": {
                        "EBAZE": "EBAZE",
                        "CFRZN": "CFRZN AT OR ABOVE 3600",
                        "HUBJU": "HUBJU AT OR ABOVE 3600"
                    }
                },
                {
                    "name": "GAD",
                    "fixes": {
                        "GAD": "GAD",
                        "HUBJU": "HUBJU AT OR ABOVE 3600 HOLD AT HUBJU RIGHT TURN INBOUNDCOURSE 244 ALT 3600 LEGTIME 1"
                    }
                },
                {
                    "name": "MAYES",
                    "fixes": {
                        "MAYES": "MAYES",
                        "AF001": "AF001",
                        "AF002": "AF002",
                        "HUBJU": "HUBJU AT OR ABOVE 3600"
                    }
                }
            ]
        },
        {
            "name": "RNAV06",
            "fixes": {
                "JODAT": "JODAT AT OR ABOVE 3500",
                "AWELU": "AWELU AT OR ABOVE 3000",
                "CEGON": "CEGON 2500",
                "KILEC": "KILEC AT OR ABOVE 1240 RNW 06 TRK 064 UNTIL 1300 TURN LEFT DIRECT",
                "SNEAR": "OVERFLY SNEAR AT OR ABOVE 3500 HOLD AT SNEAR RIGHT TURN INBOUNDCOURSE 274 LEGDIST 4 FAF CEGON MAP RNW 06"
            },
            "transitions": [
                {
                    "name": "GAD",
                    "fixes": {
                        "GAD": "GAD",
                        "JODAT": "OVERFLY JODAT AT OR ABOVE 3500 HOLD AT JODAT RIGHT TURN INBOUNDCOURSE 064 ALT 3500 LEGDIST 4"
                    }
                },
                {
                    "name": "VUZ",
                    "fixes": {
                        "VUZ": "VUZ"
                    }
                }
            ]
        },
        {
            "name": "RNAV18",
            "fixes": {
                "GAYEC": "GAYEC AT OR ABOVE 3500",
                "OCOKO": "OCOKO AT OR ABOVE 2700",
                "EKUTE": "EKUTE 2500 RNW 18 TRK 183 UNTIL 836",
                "HORPO": "HORPO",
                "WENDO": "OVERFLY WENDO AT OR ABOVE 3600 HOLD AT WENDO RIGHT TURN INBOUNDCOURSE 268 LEGDIST 4 FAF EKUTE MAP RNW 18"
            },
            "transitions": [
                {
                    "name": "GAD",
                    "fixes": {
                        "GAD": "GAD",
                        "GAYEC": "OVERFLY GAYEC AT OR ABOVE 3500 HOLD AT GAYEC RIGHT TURN INBOUNDCOURSE 183 ALT 3500 LEGDIST 4"
                    }
                },
                {
                    "name": "GESTS",
                    "fixes": {
                        "GESTS": "GESTS"
                    }
                }
            ]
        },
        {
            "name": "RNAV24",
            "fixes": {
                "HUBJU": "HUBJU AT OR ABOVE 3600",
                "FIKOX": "FIKOX AT OR ABOVE 3000",
                "BLKEY": "BLKEY 2500",
                "WANEB": "WANEB AT OR ABOVE 1620 RNW 24 TRK 244 UNTIL 770",
                "CEGON": "CEGON",
                "STAMP": "OVERFLY STAMP AT OR ABOVE 3600 HOLD AT STAMP RIGHT TURN INBOUNDCOURSE 218 LEGDIST 4 FAF BLKEY MAP RNW 24"
            },
            "transitions": [
                {
                    "name": "EBAZE",
                    "fixes": {
                        "EBAZE": "EBAZE"
                    }
                },
                {
                    "name": "GAD",
                    "fixes": {
                        "GAD": "GAD",
                        "HUBJU": "OVERFLY HUBJU AT OR ABOVE 3600 HOLD AT HUBJU RIGHT TURN INBOUNDCOURSE 244 ALT 3600 LEGDIST 4"
                    }
                },
                {
                    "name": "MAYES",
                    "fixes": {
                        "MAYES": "MAYES",
                        "HUBJU": "OVERFLY HUBJU AT OR ABOVE 3600 HOLD AT HUBJU RIGHT TURN INBOUNDCOURSE 244 ALT 3600 LEGDIST 4"
                    }
                }
            ]
        },
        {
            "name": "RNAV36",
            "fixes": {
                "LEVIC": "LEVIC AT OR ABOVE 3500",
                "PETBE": "PETBE AT OR ABOVE 2800",
                "HORPO": "HORPO 2500 RNW 36 TRK 003 UNTIL 969",
                "EKUTE": "EKUTE",
                "SNEAR": "OVERFLY SNEAR AT OR ABOVE 3500 HOLD AT SNEAR RIGHT TURN INBOUNDCOURSE 274 LEGDIST 4 FAF HORPO MAP RNW 36"
            },
            "transitions": [
                {
                    "name": "GAD",
                    "fixes": {
                        "GAD": "GAD",
                        "LEVIC": "OVERFLY LEVIC AT OR ABOVE 3500 HOLD AT LEVIC RIGHT TURN INBOUNDCOURSE 018 ALT 3500 LEGDIST 4"
                    }
                },
                {
                    "name": "NOPVE",
                    "fixes": {
                        "NOPVE": "NOPVE"
                    }
                }
            ]
        }
    ]
}