{
    "fixes": [
        {
            "name": "BANJO",
            "lat": 44.11063611666667,
            "lon": 84.17598333333333
        },
        {
            "name": "ICADA",
            "lat": 43.872047216666665,
            "lon": 84.92811111666667
        },
        {
            "name": "JIDUM",
            "lat": 43.975941666666664,
            "lon": 84.33559166666667
        },
        {
            "name": "JOMID",
            "lat": 43.96157221666667,
            "lon": 84.81406666666666
        },
        {
            "name": "MBS",
            "lat": 43.53164721666667,
            "lon": 84.07730278333334
        },
        {
            "name": "MOP",
            "lat": 43.622825,
            "lon": 84.73726666666667
        },
        {
            "name": "WELVI",
            "lat": 43.98086943333333,
            "lon": 84.15368333333333
        },
        {
            "name": "WHIPP",
            "lat": 43.738627783333335,
            "lon": 84.33959443333333
        },
        {
            "name": "YOKLU",
            "lat": 43.96765833333333,
            "lon": 84.61962778333333
        },
        {
            "name": "ZOLOX",
            "lat": 44.210458333333335,
            "lon": 85.19023056666667
        }
    ],
    "rnws": [
        "RNW 09",
        "RNW 15",
        "RNW 27",
        "RNW 33"
    ],
    "sids": [],
    "stars": [],
    "approaches": [
        {
            "name": "RNAV09",
            "fixes": {
                "JOMID": "JOMID AT OR ABOVE 5000",
                "YOKLU": "YOKLU 2700 RNW 09 TRK 092 UNTIL 1174",
                "WELVI": "OVERFLY WELVI AT OR ABOVE 3000 HOLD AT WELVI RIGHT TURN INBOUNDCOURSE 272 LEGDIST 4 FAF YOKLU MAP RNW 09"
            },
            "transitions": [
                {
                    "name": "ICADA",
                    "fixes": {
                        "ICADA": "ICADA"
                    }
                },
                {
                    "name": "JOMID",
                    "fixes": {
                        "JOMID": "JOMID RIGHT TURN INBOUNDCOURSE 091 ALT 5000 LEGDIST 5"
                    }
                },
                {
                    "name": "ZOLOX",
                    "fixes": {
                        "ZOLOX": "ZOLOX"
                    }
                }
            ]
        },
        {
            "name": "RNAV27",
            "fixes": {
                "WELVI": "WELVI AT OR ABOVE 3000",
                "JIDUM": "JIDUM 2600 RNW 27 TRK 272 UNTIL 1174 TURN LEFT DIRECT",
                "WHIPP": "OVERFLY WHIPP AT OR ABOVE 2600 HOLD AT WHIPP RIGHT TURN INBOUNDCOURSE 141 LEGDIST 4 FAF JIDUM MAP RNW 27"
            },
            "transitions": [
                {
                    "name": "BANJO",
                    "fixes": {
                        "BANJO": "BANJO",
                        "WELVI": "OVERFLY WELVI AT OR ABOVE 3000 HOLD AT WELVI RIGHT TURN INBOUNDCOURSE 272 ALT 3000 LEGDIST 4"
                    }
                },
                {
                    "name": "MBS",
                    "fixes": {
                        "MBS": "MBS"
                    }
                },
                {
                    "name": "MOP",
                    "fixes": {
                        "MOP": "MOP",
                        "WELVI": "OVERFLY WELVI AT OR ABOVE 3000 HOLD AT WELVI RIGHT TURN INBOUNDCOURSE 272 ALT 3000 LEGDIST 4"
                    }
                }
            ]
        }
    ]
}