{
    "fixes": [
        {
            "name": "BVT",
            "lat": 40.55617221666667,
            "lon": 87.069375
        },
        {
            "name": "CEAST",
            "lat": 40.7102,
            "lon": 86.49349443333334
        },
        {
            "name": "DATEC",
            "lat": 40.708875,
            "lon": 86.62716666666667
        },
        {
            "name": "DOSAY",
            "lat": 40.710872216666665,
            "lon": 86.41897778333333
        },
        {
            "name": "EJAJY",
            "lat": 40.71220278333333,
            "lon": 86.25208888333333
        },
        {
            "name": "JIPID",
            "lat": 40.71177778333333,
            "lon": 86.30889443333334
        },
        {
            "name": "MONON",
            "lat": 40.833483333333334,
            "lon": 86.91843333333334
        },
        {
            "name": "MZZ",
            "lat": 40.493330566666664,
            "lon": 85.67925
        },
        {
            "name": "TELEY",
            "lat": 41.02531388333333,
            "lon": 85.56799721666667
        },
        {
            "name": "WENGO",
            "lat": 40.71309721666667,
            "lon": 86.11844166666667
        }
    ],
    "rnws": [
        "RNW 09",
        "RNW 27"
    ],
    "sids": [],
    "stars": [],
    "approaches": [
        {
            "name": "RNAV09",
            "fixes": {
                "DATEC": "DATEC AT OR ABOVE 2500",
                "CEAST": "CEAST 2400",
                "DOSAY": "DOSAY AT OR ABOVE 1300 RNW 09 TRK 093 UNTIL 1200 TURN LEFT DIRECT",
                "MONON": "OVERFLY MONON AT OR ABOVE 2500 HOLD AT MONON RIGHT TURN INBOUNDCOURSE 123 LEGDIST 4 FAF CEAST MAP RNW 09"
            },
            "transitions": [
                {
                    "name": "BVT",
                    "fixes": {
                        "BVT": "BVT"
                    }
                },
                {
                    "name": "DATEC",
                    "fixes": {
                        "DATEC": "DATEC LEFT TURN INBOUNDCOURSE 093 ALT 2500 LEGDIST 4"
                    }
                },
                {
                    "name": "MONON",
                    "fixes": {
                        "MONON": "MONON"
                    }
                }
            ]
        },
        {
            "name": "RNAV27",
            "fixes": {
                "WENGO": "WENGO AT OR ABOVE 2400",
                "EJAJY": "EJAJY 2400",
                "JIPID": "JIPID AT OR ABOVE 1560 RNW 27 TRK 273 UNTIL 938",
                "DATEC": "OVERFLY DATEC AT OR ABOVE 2500 HOLD AT DATEC LEFT TURN INBOUNDCOURSE 093 LEGDIST 4 FAF EJAJY MAP RNW 27"
            },
            "transitions": [
                {
                    "name": "MZZ",
                    "fixes": {
                        "MZZ": "MZZ"
                    }
                },
                {
                    "name": "TELEY",
                    "fixes": {
                        "TELEY": "TELEY"
                    }
                }
            ]
        }
    ]
}