{
    "fixes": [
        {
            "name": "AF001",
            "lat": 35.90979913333334,
            "lon": 83.49763075
        },
        {
            "name": "AF002",
            "lat": 35.96558505,
            "lon": 83.50459186666667
        },
        {
            "name": "BOTRE",
            "lat": 35.889275,
            "lon": 83.78113333333333
        },
        {
            "name": "D102S",
            "lat": 35.85441111666667,
            "lon": 83.50335556666667
        },
        {
            "name": "FATTS",
            "lat": 35.87366943333333,
            "lon": 83.65156111666667
        },
        {
            "name": "GAUNT",
            "lat": 35.89190833333333,
            "lon": 83.793375
        },
        {
            "name": "HATEM",
            "lat": 35.8474,
            "lon": 83.44671111666666
        },
        {
            "name": "HOBID",
            "lat": 35.874144433333335,
            "lon": 83.65938056666667
        },
        {
            "name": "IDAXE",
            "lat": 35.972794433333334,
            "lon": 83.42761388333334
        },
        {
            "name": "PENCE",
            "lat": 36.019388883333335,
            "lon": 83.523975
        },
        {
            "name": "VXV",
            "lat": 35.90483888333333,
            "lon": 83.89471943333334
        }
    ],
    "rnws": [
        "RNW 10",
        "RNW 28"
    ],
    "sids": [],
    "stars": [],
    "approaches": [
        {
            "name": "VORD10",
            "fixes": {
                "GAUNT": "GAUNT AT OR ABOVE 3000",
                "FATTS": "FATTS 3000 RNW 10",
                "D102S": "D102S",
                "AF001": "AF001",
                "AF002": "AF002",
                "PENCE": "PENCE AT OR ABOVE 4000 HOLD AT PENCE RIGHT TURN INBOUNDCOURSE 252 LEGTIME 1 FAF FATTS MAP RNW 10"
            },
            "transitions": [
                {
                    "name": "VXV",
                    "fixes": {
                        "VXV": "VXV AT OR ABOVE 3000"
                    }
                }
            ]
        },
        {
            "name": "RNAV10",
            "fixes": {
                "BOTRE": "BOTRE AT OR ABOVE 3000",
                "HOBID": "HOBID 3000 RNW 10",
                "HATEM": "HATEM TURN LEFT DIRECT",
                "IDAXE": "IDAXE",
                "PENCE": "OVERFLY PENCE AT OR ABOVE 4000 HOLD AT PENCE RIGHT TURN INBOUNDCOURSE 252 LEGDIST 5 FAF HOBID MAP RNW 10"
            },
            "transitions": [
                {
                    "name": "VXV",
                    "fixes": {
                        "VXV": "VXV"
                    }
                }
            ]
        }
    ]
}