{
    "fixes": [
        {
            "name": "ADM",
            "lat": 34.211586116666666,
            "lon": 97.16822778333334
        },
        {
            "name": "AEX",
            "lat": 31.25673056666667,
            "lon": 92.50097221666667
        },
        {
            "name": "ALIEF",
            "lat": 28.68715,
            "lon": 96.73842221666666
        },
        {
            "name": "ANKRR",
            "lat": 27.6821,
            "lon": 93.20038611666666
        },
        {
            "name": "BBURT",
            "lat": 29.187291666666667,
            "lon": 93.58070556666667
        },
        {
            "name": "BBYSE",
            "lat": 30.095341666666666,
            "lon": 95.40366388333334
        },
        {
            "name": "BELLR",
            "lat": 29.324847216666665,
            "lon": 96.08865833333333
        },
        {
            "name": "BIGTX",
            "lat": 28.821616666666667,
            "lon": 96.61568888333333
        },
        {
            "name": "BLING",
            "lat": 30.0306,
            "lon": 94.01826388333333
        },
        {
            "name": "BLTWY",
            "lat": 30.605655566666666,
            "lon": 95.49110556666666
        },
        {
            "name": "BLUBL",
            "lat": 30.304561116666665,
            "lon": 96.303025
        },
        {
            "name": "BOBLE",
            "lat": 29.538730566666665,
            "lon": 94.873825
        },
        {
            "name": "BOCCK",
            "lat": 29.936738883333334,
            "lon": 96.20758888333333
        },
        {
            "name": "BOLOS",
            "lat": 29.393066666666666,
            "lon": 94.62354443333334
        },
        {
            "name": "BORRN",
            "lat": 29.901491666666665,
            "lon": 95.75783333333334
        },
        {
            "name": "BOWFN",
            "lat": 28.989166666666666,
            "lon": 91.22805556666667
        },
        {
            "name": "BRWCK",
            "lat": 30.587119433333335,
            "lon": 93.70603056666667
        },
        {
            "name": "BUGZY",
            "lat": 29.762255566666667,
            "lon": 95.23126666666667
        },
        {
            "name": "BUMCO",
            "lat": 30.648438883333334,
            "lon": 95.30041943333333
        },
        {
            "name": "BYP",
            "lat": 33.53748611666666,
            "lon": 96.23409443333334
        },
        {
            "name": "CESAN",
            "lat": 30.538766666666668,
            "lon": 94.20188056666667
        },
        {
            "name": "CEW",
            "lat": 30.826175,
            "lon": 86.67914443333333
        },
        {
            "name": "CFOOD",
            "lat": 29.000441666666667,
            "lon": 92.52625278333333
        },
        {
            "name": "CLAVN",
            "lat": 31.007438883333332,
            "lon": 94.54139721666667
        },
        {
            "name": "CLL",
            "lat": 30.605002783333333,
            "lon": 96.42068056666666
        },
        {
            "name": "CLWSN",
            "lat": 30.073716666666666,
            "lon": 94.91883888333334
        },
        {
            "name": "COLET",
            "lat": 30.449336116666668,
            "lon": 95.16101111666667
        },
        {
            "name": "COSGO",
            "lat": 31.220933333333335,
            "lon": 93.45259721666666
        },
        {
            "name": "COT",
            "lat": 28.462016666666667,
            "lon": 99.11854443333333
        },
        {
            "name": "COWZZ",
            "lat": 30.072794433333332,
            "lon": 96.21278888333333
        },
        {
            "name": "CQY",
            "lat": 32.18572221666667,
            "lon": 96.21810278333334
        },
        {
            "name": "CREPO",
            "lat": 30.281666666666666,
            "lon": 94.24527778333334
        },
        {
            "name": "CRGER",
            "lat": 30.4492,
            "lon": 98.34285
        },
        {
            "name": "CRIED",
            "lat": 31.35396666666667,
            "lon": 95.66141388333334
        },
        {
            "name": "CRP",
            "lat": 27.903766666666666,
            "lon": 97.44488056666667
        },
        {
            "name": "CWK",
            "lat": 30.37855,
            "lon": 97.52984721666667
        },
        {
            "name": "DARTR",
            "lat": 30.403122216666667,
            "lon": 95.00675556666667
        },
        {
            "name": "DELVE",
            "lat": 29.134213883333334,
            "lon": 95.25843333333333
        },
        {
            "name": "DILRE",
            "lat": 29.906655566666668,
            "lon": 95.89941111666667
        },
        {
            "name": "DOCCC",
            "lat": 29.361936116666666,
            "lon": 94.67655
        },
        {
            "name": "DOLEY",
            "lat": 32.189166666666665,
            "lon": 96.38472221666666
        },
        {
            "name": "DPATY",
            "lat": 32.07240278333333,
            "lon": 91.54802778333334
        },
        {
            "name": "DREMR",
            "lat": 30.301311116666668,
            "lon": 95.41868333333333
        },
        {
            "name": "ELD",
            "lat": 33.256152783333334,
            "lon": 92.74394721666667
        },
        {
            "name": "ELLVR",
            "lat": 31.708116666666665,
            "lon": 96.83779166666666
        },
        {
            "name": "ENJOY",
            "lat": 31.278788883333334,
            "lon": 94.33034166666667
        },
        {
            "name": "FOMAH",
            "lat": 29.324111116666668,
            "lon": 95.16642221666666
        },
        {
            "name": "FOWLR",
            "lat": 30.296511116666668,
            "lon": 98.36631111666667
        },
        {
            "name": "FRITZ",
            "lat": 29.706863883333334,
            "lon": 94.46785833333334
        },
        {
            "name": "FST",
            "lat": 30.952108333333335,
            "lon": 102.97571111666667
        },
        {
            "name": "FUZ",
            "lat": 32.88945,
            "lon": 97.179425
        },
        {
            "name": "GESNR",
            "lat": 30.402161116666665,
            "lon": 94.70001666666667
        },
        {
            "name": "GIFFA",
            "lat": 31.381452783333334,
            "lon": 95.25169721666667
        },
        {
            "name": "GUSTI",
            "lat": 29.970927783333334,
            "lon": 92.90980278333333
        },
        {
            "name": "HAWES",
            "lat": 32.96200833333333,
            "lon": 92.84121111666667
        },
        {
            "name": "HAYYY",
            "lat": 30.169488883333333,
            "lon": 97.74625833333333
        },
        {
            "name": "HOODO",
            "lat": 28.996808333333334,
            "lon": 94.35252778333333
        },
        {
            "name": "HOURN",
            "lat": 29.996044433333335,
            "lon": 94.30452221666667
        },
        {
            "name": "HRV",
            "lat": 29.850194433333332,
            "lon": 90.00298333333333
        },
        {
            "name": "HUDIP",
            "lat": 29.188583333333334,
            "lon": 94.78849443333333
        },
        {
            "name": "HUDZY",
            "lat": 30.103558333333332,
            "lon": 94.80879443333333
        },
        {
            "name": "HYDRL",
            "lat": 29.053594433333334,
            "lon": 96.40313056666666
        },
        {
            "name": "IDIYE",
            "lat": 29.098841666666665,
            "lon": 94.70319166666667
        },
        {
            "name": "IDU",
            "lat": 29.956058333333335,
            "lon": 96.56219443333333
        },
        {
            "name": "INDIE",
            "lat": 31.485919433333333,
            "lon": 94.49281943333334
        },
        {
            "name": "JAAYE",
            "lat": 29.862222216666666,
            "lon": 94.32166666666667
        },
        {
            "name": "JAYJO",
            "lat": 30.33715,
            "lon": 96.81501388333334
        },
        {
            "name": "JBULL",
            "lat": 31.315269433333334,
            "lon": 91.31453056666666
        },
        {
            "name": "JCT",
            "lat": 30.598022216666667,
            "lon": 99.81748056666666
        },
        {
            "name": "JEREM",
            "lat": 29.224430566666665,
            "lon": 94.82260556666667
        },
        {
            "name": "JMIKE",
            "lat": 30.783333333333335,
            "lon": 93.81568056666667
        },
        {
            "name": "KAANE",
            "lat": 29.583502783333333,
            "lon": 94.65014166666667
        },
        {
            "name": "KARRR",
            "lat": 29.378452783333334,
            "lon": 95.37540833333334
        },
        {
            "name": "KAVCY",
            "lat": 29.2976,
            "lon": 95.46235833333333
        },
        {
            "name": "KELPP",
            "lat": 27.175591666666666,
            "lon": 91.94926111666666
        },
        {
            "name": "KGLS",
            "lat": 29.265333333333334,
            "lon": 94.86041666666667
        },
        {
            "name": "KICET",
            "lat": 28.991758333333333,
            "lon": 94.84916388333333
        },
        {
            "name": "KIDDZ",
            "lat": 30.2236,
            "lon": 96.21577221666666
        },
        {
            "name": "KLJOY",
            "lat": 30.644755566666667,
            "lon": 95.34883056666666
        },
        {
            "name": "KNTKY",
            "lat": 30.085855566666666,
            "lon": 95.26082221666667
        },
        {
            "name": "KULLE",
            "lat": 29.211894433333335,
            "lon": 94.860125
        },
        {
            "name": "KYANN",
            "lat": 30.258758333333333,
            "lon": 95.23272778333333
        },
        {
            "name": "LCH",
            "lat": 30.14151388333333,
            "lon": 93.10556943333333
        },
        {
            "name": "LEV",
            "lat": 29.175230566666666,
            "lon": 90.10401943333333
        },
        {
            "name": "LEYGI",
            "lat": 29.050536116666667,
            "lon": 95.05305833333334
        },
        {
            "name": "LFK",
            "lat": 31.162441666666666,
            "lon": 94.71683333333333
        },
        {
            "name": "LIT",
            "lat": 34.677672216666664,
            "lon": 92.18052778333333
        },
        {
            "name": "LITLD",
            "lat": 30.504816666666667,
            "lon": 95.46837778333334
        },
        {
            "name": "LLA",
            "lat": 29.663225,
            "lon": 92.37364166666667
        },
        {
            "name": "LLO",
            "lat": 30.796341666666667,
            "lon": 98.78738888333334
        },
        {
            "name": "LMEDA",
            "lat": 28.465761116666666,
            "lon": 96.93946943333333
        },
        {
            "name": "LOA",
            "lat": 31.124016666666666,
            "lon": 95.96795556666666
        },
        {
            "name": "LRD",
            "lat": 27.478736116666667,
            "lon": 99.41767778333333
        },
        {
            "name": "LURIC",
            "lat": 31.781755566666668,
            "lon": 93.93495833333333
        },
        {
            "name": "LYMBO",
            "lat": 30.888908333333333,
            "lon": 93.98184166666667
        },
        {
            "name": "MAJKK",
            "lat": 31.51775,
            "lon": 95.56145833333333
        },
        {
            "name": "MARCS",
            "lat": 29.897788883333334,
            "lon": 97.86130556666667
        },
        {
            "name": "MCB",
            "lat": 31.304452783333332,
            "lon": 90.25820278333333
        },
        {
            "name": "MMALT",
            "lat": 29.870208333333334,
            "lon": 94.78361388333333
        },
        {
            "name": "MMOOW",
            "lat": 29.42925,
            "lon": 94.87338611666667
        },
        {
            "name": "MNURE",
            "lat": 29.993022216666667,
            "lon": 96.56606666666667
        },
        {
            "name": "MONNT",
            "lat": 30.477483333333332,
            "lon": 95.31168333333333
        },
        {
            "name": "MOOKI",
            "lat": 29.868352783333332,
            "lon": 94.61144166666666
        },
        {
            "name": "MUSIQ",
            "lat": 30.552788883333335,
            "lon": 94.89220556666666
        },
        {
            "name": "MUSYL",
            "lat": 28.170430566666667,
            "lon": 94.12920556666667
        },
        {
            "name": "NGP",
            "lat": 27.686277783333335,
            "lon": 97.29474166666667
        },
        {
            "name": "OHIIO",
            "lat": 30.138225,
            "lon": 95.08404166666666
        },
        {
            "name": "OMEHU",
            "lat": 29.482336116666666,
            "lon": 94.85548611666667
        },
        {
            "name": "ORRTH",
            "lat": 32.557775,
            "lon": 92.73882221666666
        },
        {
            "name": "OYALE",
            "lat": 29.048163883333334,
            "lon": 94.86291943333333
        },
        {
            "name": "PABLY",
            "lat": 29.045522216666665,
            "lon": 94.67278888333334
        },
        {
            "name": "PEETY",
            "lat": 30.250480566666667,
            "lon": 95.12924443333333
        },
        {
            "name": "PI001",
            "lat": 29.386515133333333,
            "lon": 94.97758303333333
        },
        {
            "name": "PI002",
            "lat": 29.45790888333333,
            "lon": 94.97040945
        },
        {
            "name": "PI003",
            "lat": 29.469453733333335,
            "lon": 95.05760188333333
        },
        {
            "name": "PI004",
            "lat": 29.388783933333332,
            "lon": 94.95516426666667
        },
        {
            "name": "PI005",
            "lat": 29.459361066666666,
            "lon": 94.94087148333334
        },
        {
            "name": "PI006",
            "lat": 29.545692283333334,
            "lon": 95.08159146666667
        },
        {
            "name": "PICIP",
            "lat": 29.479691666666668,
            "lon": 94.66455
        },
        {
            "name": "PLANB",
            "lat": 31.599794433333333,
            "lon": 93.73098333333333
        },
        {
            "name": "PLEDO",
            "lat": 29.808441666666667,
            "lon": 94.42846111666667
        },
        {
            "name": "PLKTN",
            "lat": 29.618508333333335,
            "lon": 95.22493333333334
        },
        {
            "name": "PNUUT",
            "lat": 30.102672216666665,
            "lon": 95.13549166666667
        },
        {
            "name": "PSTUR",
            "lat": 30.319758333333333,
            "lon": 97.72644166666667
        },
        {
            "name": "PSX",
            "lat": 28.764419433333334,
            "lon": 96.30618056666667
        },
        {
            "name": "PUFER",
            "lat": 30.22402221666667,
            "lon": 97.07558056666667
        },
        {
            "name": "PUSHN",
            "lat": 29.860497216666666,
            "lon": 95.20048888333334
        },
        {
            "name": "RAECN",
            "lat": 30.084588883333332,
            "lon": 95.24910556666667
        },
        {
            "name": "RAWUF",
            "lat": 29.36535556666667,
            "lon": 94.85749443333333
        },
        {
            "name": "RENNK",
            "lat": 30.291319433333335,
            "lon": 95.22252778333333
        },
        {
            "name": "RIIGG",
            "lat": 28.902411116666666,
            "lon": 95.61704443333333
        },
        {
            "name": "RSG",
            "lat": 30.014602783333334,
            "lon": 100.29984443333333
        },
        {
            "name": "SAT",
            "lat": 29.644030566666668,
            "lon": 98.46131666666666
        },
        {
            "name": "SBI",
            "lat": 29.686719433333334,
            "lon": 94.03797778333333
        },
        {
            "name": "SBIRD",
            "lat": 29.0,
            "lon": 93.66666666666667
        },
        {
            "name": "SEPOY",
            "lat": 29.318611116666666,
            "lon": 94.85829721666667
        },
        {
            "name": "SHYNR",
            "lat": 29.92730278333333,
            "lon": 96.04049443333334
        },
        {
            "name": "SKKIP",
            "lat": 31.248572216666666,
            "lon": 94.6575
        },
        {
            "name": "SKUBA",
            "lat": 29.195302783333332,
            "lon": 95.79121388333333
        },
        {
            "name": "SNDAY",
            "lat": 29.940316666666668,
            "lon": 96.16140833333333
        },
        {
            "name": "SNIFY",
            "lat": 30.157677783333334,
            "lon": 96.18066666666667
        },
        {
            "name": "SPICR",
            "lat": 30.27545556666667,
            "lon": 95.50502778333333
        },
        {
            "name": "SPINY",
            "lat": 29.853691666666666,
            "lon": 94.04466666666667
        },
        {
            "name": "SSERA",
            "lat": 29.643552783333334,
            "lon": 94.49237221666667
        },
        {
            "name": "STELL",
            "lat": 30.840138883333335,
            "lon": 95.54415556666666
        },
        {
            "name": "STRYA",
            "lat": 31.305869433333335,
            "lon": 93.84373056666666
        },
        {
            "name": "STYCK",
            "lat": 31.124013883333333,
            "lon": 95.96795833333333
        },
        {
            "name": "SUSHI",
            "lat": 30.591366666666666,
            "lon": 95.07322778333334
        },
        {
            "name": "SWANE",
            "lat": 29.341836116666666,
            "lon": 94.93455
        },
        {
            "name": "SWB",
            "lat": 31.973194433333333,
            "lon": 92.67708888333334
        },
        {
            "name": "SWWAA",
            "lat": 30.008736116666668,
            "lon": 95.15704443333334
        },
        {
            "name": "TARCU",
            "lat": 29.484705566666666,
            "lon": 95.04643056666667
        },
        {
            "name": "THX",
            "lat": 28.504997216666666,
            "lon": 98.15046666666667
        },
        {
            "name": "TKNIQ",
            "lat": 29.239302783333333,
            "lon": 94.46616111666667
        },
        {
            "name": "TPAKK",
            "lat": 32.993875,
            "lon": 93.42453333333333
        },
        {
            "name": "TSHRT",
            "lat": 29.543555566666665,
            "lon": 95.83316388333333
        },
        {
            "name": "UCENU",
            "lat": 29.431502783333332,
            "lon": 95.02027778333333
        },
        {
            "name": "VELCO",
            "lat": 31.177766666666667,
            "lon": 94.40915556666667
        },
        {
            "name": "VUH",
            "lat": 29.269333333333332,
            "lon": 94.867725
        },
        {
            "name": "WAILN",
            "lat": 29.808230566666666,
            "lon": 96.57142221666666
        },
        {
            "name": "WAPPL",
            "lat": 30.2319,
            "lon": 94.33064721666666
        },
        {
            "name": "WATFO",
            "lat": 29.398308333333333,
            "lon": 94.96778333333333
        },
        {
            "name": "WEEED",
            "lat": 29.77920556666667,
            "lon": 96.18192778333334
        },
        {
            "name": "WLLIS",
            "lat": 30.534647216666666,
            "lon": 95.65162778333334
        },
        {
            "name": "WLMOR",
            "lat": 30.152975,
            "lon": 94.62520278333334
        },
        {
            "name": "WTSON",
            "lat": 32.18694166666667,
            "lon": 96.21091943333333
        },
        {
            "name": "WUTAM",
            "lat": 29.165161116666667,
            "lon": 94.86092221666667
        },
        {
            "name": "WWELL",
            "lat": 31.157791666666668,
            "lon": 94.70718888333333
        },
        {
            "name": "WWREN",
            "lat": 28.131663883333335,
            "lon": 96.09860556666666
        },
        {
            "name": "WYLSN",
            "lat": 30.307786116666666,
            "lon": 95.32196388333334
        },
        {
            "name": "XUDDU",
            "lat": 29.278075,
            "lon": 94.87370278333333
        },
        {
            "name": "YOKEM",
            "lat": 29.720833333333335,
            "lon": 94.3425
        },
        {
            "name": "YOMOM",
            "lat": 27.987597216666668,
            "lon": 97.14888333333333
        },
        {
            "name": "YUCUT",
            "lat": 29.205763883333333,
            "lon": 94.55691666666667
        },
        {
            "name": "ZEBBB",
            "lat": 30.621447216666667,
            "lon": 93.96693056666666
        },
        {
            "name": "ZEEKK",
            "lat": 30.535794433333333,
            "lon": 94.50413611666667
        },
        {
            "name": "ZELDA",
            "lat": 29.341005566666666,
            "lon": 94.91676388333333
        },
        {
            "name": "ZUUUU",
            "lat": 30.097894433333334,
            "lon": 96.2393
        }
    ],
    "rnws": [
        "RNW 14",
        "RNW 18",
        "RNW 32",
        "RNW 36"
    ],
    "sids": [
        {
            "name": "AEX3",
            "rnw": "14",
            "fixes": {
                "RAECN": "RAECN",
                "DARTR": "DARTR",
                "MUSIQ": "MUSIQ",
                "VELCO": "VELCO AT OR ABOVE 10000",
                "COSGO": "COSGO",
                "AEX": "AEX"
            },
            "sub_fixes": [],
            "transitions": [
                {
                    "name": "CEW",
                    "fixes": [
                        "MCB",
                        "CEW"
                    ]
                },
                {
                    "name": "MCB",
                    "fixes": [
                        "MCB"
                    ]
                }
            ]
        },
        {
            "name": "BLTWY7",
            "rnw": "14",
            "fixes": {
                "DREMR": "DREMR",
                "LITLD": "LITLD",
                "BLTWY": "BLTWY"
            },
            "sub_fixes": [
                {
                    "rwy": "RNW 14",
                    "fixes": {
                        "RNW 14": "RNW 14 HDG 138 UNTIL 520 HDG 138 VECTORS"
                    }
                },
                {
                    "rwy": "RNW 18",
                    "fixes": {
                        "RNW 18": "RNW 18 HDG 179 UNTIL 520 HDG 179 VECTORS"
                    }
                },
                {
                    "rwy": "RNW 32",
                    "fixes": {
                        "RNW 32": "RNW 32 HDG 318 UNTIL 520 HDG 318 VECTORS"
                    }
                },
                {
                    "rwy": "RNW 36",
                    "fixes": {
                        "RNW 36": "RNW 36 HDG 359 UNTIL 520 HDG 359 VECTORS"
                    }
                }
            ],
            "transitions": [
                {
                    "name": "CRIED",
                    "fixes": [
                        "CRIED"
                    ]
                }
            ]
        },
        {
            "name": "BORRN4",
            "rnw": "14",
            "fixes": {},
            "sub_fixes": [
                {
                    "rwy": "RNW 14",
                    "fixes": {
                        "RNW 14": "RNW 14 HDG 138 UNTIL 520 HDG 138 VECTORS",
                        "BORRN": "BORRN",
                        "DILRE": "DILRE"
                    }
                },
                {
                    "rwy": "RNW 18",
                    "fixes": {
                        "RNW 18": "RNW 18 HDG 179 UNTIL 520 HDG 179 VECTORS",
                        "BORRN": "BORRN",
                        "DILRE": "DILRE"
                    }
                },
                {
                    "rwy": "RNW 32",
                    "fixes": {
                        "RNW 32": "RNW 32 HDG 318 UNTIL 520 HDG 318 VECTORS",
                        "BORRN": "BORRN",
                        "DILRE": "DILRE"
                    }
                },
                {
                    "rwy": "RNW 36",
                    "fixes": {
                        "RNW 36": "RNW 36 HDG 359 UNTIL 520 HDG 359 VECTORS",
                        "BORRN": "BORRN",
                        "DILRE": "DILRE"
                    }
                }
            ],
            "transitions": [
                {
                    "name": "CRGER",
                    "fixes": [
                        "ZUUUU",
                        "PUFER",
                        "PSTUR",
                        "CRGER"
                    ]
                },
                {
                    "name": "JCT",
                    "fixes": [
                        "BOCCK",
                        "MNURE",
                        "HAYYY",
                        "FOWLR",
                        "JCT"
                    ]
                },
                {
                    "name": "MNURE",
                    "fixes": [
                        "BOCCK",
                        "MNURE"
                    ]
                },
                {
                    "name": "SAT",
                    "fixes": [
                        "BOCCK",
                        "MNURE",
                        "MARCS",
                        "SAT"
                    ]
                },
                {
                    "name": "WAILN",
                    "fixes": [
                        "WEEED",
                        "WAILN"
                    ]
                }
            ]
        },
        {
            "name": "CRIED1",
            "rnw": "14",
            "fixes": {
                "LITLD": "LITLD",
                "BLTWY": "BLTWY",
                "STELL": "STELL",
                "CRIED": "CRIED",
                "CQY": "CQY"
            },
            "sub_fixes": [],
            "transitions": []
        },
        {
            "name": "ELD1",
            "rnw": "14",
            "fixes": {
                "RAECN": "RAECN",
                "DARTR": "DARTR",
                "MUSIQ": "MUSIQ",
                "VELCO": "VELCO AT OR ABOVE 10000",
                "ENJOY": "ENJOY",
                "ELD": "ELD"
            },
            "sub_fixes": [],
            "transitions": []
        },
        {
            "name": "GIFFA1",
            "rnw": "14",
            "fixes": {
                "MONNT": "MONNT",
                "BUMCO": "BUMCO",
                "GIFFA": "GIFFA AT OR ABOVE 10000"
            },
            "sub_fixes": [],
            "transitions": []
        },
        {
            "name": "HOODO7",
            "rnw": "14",
            "fixes": {
                "VUH": "VUH",
                "HOODO": "HOODO"
            },
            "sub_fixes": [
                {
                    "rwy": "RNW 14",
                    "fixes": {
                        "RNW 14": "RNW 14 HDG 138 UNTIL 520 HDG 138 VECTORS"
                    }
                },
                {
                    "rwy": "RNW 18",
                    "fixes": {
                        "RNW 18": "RNW 18 HDG 179 UNTIL 520 HDG 179 VECTORS"
                    }
                },
                {
                    "rwy": "RNW 32",
                    "fixes": {
                        "RNW 32": "RNW 32 HDG 318 UNTIL 520 HDG 318 VECTORS"
                    }
                },
                {
                    "rwy": "RNW 36",
                    "fixes": {
                        "RNW 36": "RNW 36 HDG 359 UNTIL 520 HDG 359 VECTORS"
                    }
                }
            ],
            "transitions": [
                {
                    "name": "BOWFN",
                    "fixes": [
                        "SBIRD",
                        "CFOOD",
                        "BOWFN"
                    ]
                },
                {
                    "name": "CFOOD",
                    "fixes": [
                        "SBIRD",
                        "CFOOD"
                    ]
                },
                {
                    "name": "HRV",
                    "fixes": [
                        "SBIRD",
                        "CFOOD",
                        "BOWFN",
                        "HRV"
                    ]
                },
                {
                    "name": "LEV",
                    "fixes": [
                        "SBIRD",
                        "CFOOD",
                        "BOWFN",
                        "LEV"
                    ]
                },
                {
                    "name": "SBIRD",
                    "fixes": [
                        "SBIRD"
                    ]
                }
            ]
        },
        {
            "name": "IDU1",
            "rnw": "14",
            "fixes": {
                "SHYNR": "SHYNR",
                "BOCCK": "BOCCK",
                "IDU": "IDU"
            },
            "sub_fixes": [],
            "transitions": [
                {
                    "name": "CRP",
                    "fixes": [
                        "MARCS",
                        "SAT",
                        "CRP"
                    ]
                },
                {
                    "name": "CWK",
                    "fixes": [
                        "CWK"
                    ]
                },
                {
                    "name": "JCT",
                    "fixes": [
                        "JCT"
                    ]
                },
                {
                    "name": "LRD",
                    "fixes": [
                        "MARCS",
                        "SAT",
                        "LRD"
                    ]
                }
            ]
        },
        {
            "name": "INDIE8",
            "rnw": "14",
            "fixes": {
                "RENNK": "RENNK",
                "COLET": "COLET",
                "SUSHI": "SUSHI",
                "WWELL": "WWELL",
                "INDIE": "INDIE"
            },
            "sub_fixes": [
                {
                    "rwy": "RNW 14",
                    "fixes": {
                        "RNW 14": "RNW 14 HDG 138 UNTIL 520 HDG 138 VECTORS"
                    }
                },
                {
                    "rwy": "RNW 18",
                    "fixes": {
                        "RNW 18": "RNW 18 HDG 179 UNTIL 520 HDG 179 VECTORS"
                    }
                },
                {
                    "rwy": "RNW 32",
                    "fixes": {
                        "RNW 32": "RNW 32 HDG 318 UNTIL 520 HDG 318 VECTORS"
                    }
                },
                {
                    "rwy": "RNW 36",
                    "fixes": {
                        "RNW 36": "RNW 36 HDG 359 UNTIL 520 HDG 359 VECTORS"
                    }
                }
            ],
            "transitions": [
                {
                    "name": "TPAKK",
                    "fixes": [
                        "TPAKK"
                    ]
                }
            ]
        },
        {
            "name": "KARRR7",
            "rnw": "14",
            "fixes": {},
            "sub_fixes": [
                {
                    "rwy": "RNW 14",
                    "fixes": {
                        "RNW 14": "RNW 14 HDG 138 UNTIL 520 HDG 138 VECTORS",
                        "KARRR": "KARRR",
                        "KAVCY": "KAVCY"
                    }
                },
                {
                    "rwy": "RNW 18",
                    "fixes": {
                        "RNW 18": "RNW 18 HDG 179 UNTIL 520 HDG 179 VECTORS",
                        "KARRR": "KARRR",
                        "KAVCY": "KAVCY"
                    }
                },
                {
                    "rwy": "RNW 32",
                    "fixes": {
                        "RNW 32": "RNW 32 HDG 318 UNTIL 520 HDG 318 VECTORS",
                        "KARRR": "KARRR",
                        "KAVCY": "KAVCY"
                    }
                },
                {
                    "rwy": "RNW 36",
                    "fixes": {
                        "RNW 36": "RNW 36 HDG 359 UNTIL 520 HDG 359 VECTORS",
                        "KARRR": "KARRR",
                        "KAVCY": "KAVCY"
                    }
                }
            ],
            "transitions": [
                {
                    "name": "CRP",
                    "fixes": [
                        "SKUBA",
                        "PSX",
                        "YOMOM",
                        "CRP"
                    ]
                },
                {
                    "name": "NGP",
                    "fixes": [
                        "RIIGG",
                        "NGP"
                    ]
                },
                {
                    "name": "PSX",
                    "fixes": [
                        "SKUBA",
                        "PSX"
                    ]
                },
                {
                    "name": "WWREN",
                    "fixes": [
                        "RIIGG",
                        "WWREN"
                    ]
                },
                {
                    "name": "YOMOM",
                    "fixes": [
                        "SKUBA",
                        "PSX",
                        "YOMOM"
                    ]
                }
            ]
        },
        {
            "name": "LFK3",
            "rnw": "14",
            "fixes": {
                "KYANN": "KYANN",
                "COLET": "COLET",
                "SUSHI": "SUSHI",
                "LFK": "LFK"
            },
            "sub_fixes": [],
            "transitions": [
                {
                    "name": "LIT",
                    "fixes": [
                        "SKKIP",
                        "LIT"
                    ]
                }
            ]
        },
        {
            "name": "LOA4",
            "rnw": "14",
            "fixes": {
                "WLLIS": "WLLIS",
                "LOA": "LOA"
            },
            "sub_fixes": [],
            "transitions": [
                {
                    "name": "ADM",
                    "fixes": [
                        "DOLEY",
                        "ADM"
                    ]
                },
                {
                    "name": "BYP",
                    "fixes": [
                        "CQY",
                        "BYP"
                    ]
                },
                {
                    "name": "FUZ",
                    "fixes": [
                        "DOLEY",
                        "FUZ"
                    ]
                }
            ]
        },
        {
            "name": "LURIC8",
            "rnw": "14",
            "fixes": {
                "KNTKY": "KNTKY",
                "PEETY": "PEETY",
                "DARTR": "DARTR",
                "MUSIQ": "MUSIQ",
                "CLAVN": "CLAVN",
                "VELCO": "VELCO",
                "ENJOY": "ENJOY",
                "LURIC": "LURIC"
            },
            "sub_fixes": [
                {
                    "rwy": "RNW 14",
                    "fixes": {
                        "RNW 14": "RNW 14 HDG 138 UNTIL 520 HDG 138 VECTORS"
                    }
                },
                {
                    "rwy": "RNW 18",
                    "fixes": {
                        "RNW 18": "RNW 18 HDG 179 UNTIL 520 HDG 179 VECTORS"
                    }
                },
                {
                    "rwy": "RNW 32",
                    "fixes": {
                        "RNW 32": "RNW 32 HDG 318 UNTIL 520 HDG 318 VECTORS"
                    }
                },
                {
                    "rwy": "RNW 36",
                    "fixes": {
                        "RNW 36": "RNW 36 HDG 359 UNTIL 520 HDG 359 VECTORS"
                    }
                }
            ],
            "transitions": [
                {
                    "name": "HAWES",
                    "fixes": [
                        "HAWES"
                    ]
                },
                {
                    "name": "ORRTH",
                    "fixes": [
                        "ORRTH"
                    ]
                }
            ]
        },
        {
            "name": "MMALT5",
            "rnw": "14",
            "fixes": {},
            "sub_fixes": [
                {
                    "rwy": "RNW 14",
                    "fixes": {
                        "RNW 14": "RNW 14 HDG 138 UNTIL 520 HDG 138 VECTORS",
                        "MMALT": "MMALT",
                        "MOOKI": "MOOKI"
                    }
                },
                {
                    "rwy": "RNW 18",
                    "fixes": {
                        "RNW 18": "RNW 18 HDG 179 UNTIL 520 HDG 179 VECTORS",
                        "MMALT": "MMALT",
                        "MOOKI": "MOOKI"
                    }
                },
                {
                    "rwy": "RNW 32",
                    "fixes": {
                        "RNW 32": "RNW 32 HDG 318 UNTIL 520 HDG 318 VECTORS",
                        "MMALT": "MMALT",
                        "MOOKI": "MOOKI"
                    }
                },
                {
                    "rwy": "RNW 36",
                    "fixes": {
                        "RNW 36": "RNW 36 HDG 359 UNTIL 520 HDG 359 VECTORS",
                        "MMALT": "MMALT",
                        "MOOKI": "MOOKI"
                    }
                }
            ],
            "transitions": [
                {
                    "name": "GUSTI",
                    "fixes": [
                        "JAAYE",
                        "SPINY",
                        "GUSTI"
                    ]
                },
                {
                    "name": "LCH",
                    "fixes": [
                        "HOURN",
                        "BLING",
                        "LCH"
                    ]
                },
                {
                    "name": "LLA",
                    "fixes": [
                        "YOKEM",
                        "SBI",
                        "LLA"
                    ]
                }
            ]
        },
        {
            "name": "PSX3",
            "rnw": "14",
            "fixes": {
                "SKUBA": "SKUBA",
                "PSX": "PSX"
            },
            "sub_fixes": [],
            "transitions": [
                {
                    "name": "FST",
                    "fixes": [
                        "THX",
                        "COT",
                        "RSG",
                        "FST"
                    ]
                },
                {
                    "name": "SAT",
                    "fixes": [
                        "THX",
                        "SAT"
                    ]
                }
            ]
        },
        {
            "name": "STRYA8",
            "rnw": "14",
            "fixes": {
                "KNTKY": "KNTKY",
                "PEETY": "PEETY",
                "DARTR": "DARTR",
                "MUSIQ": "MUSIQ",
                "CLAVN": "CLAVN",
                "STRYA": "STRYA"
            },
            "sub_fixes": [
                {
                    "rwy": "RNW 14",
                    "fixes": {
                        "RNW 14": "RNW 14 HDG 138 UNTIL 520 HDG 138 VECTORS"
                    }
                },
                {
                    "rwy": "RNW 18",
                    "fixes": {
                        "RNW 18": "RNW 18 HDG 179 UNTIL 520 HDG 179 VECTORS"
                    }
                },
                {
                    "rwy": "RNW 32",
                    "fixes": {
                        "RNW 32": "RNW 32 HDG 318 UNTIL 520 HDG 318 VECTORS"
                    }
                },
                {
                    "rwy": "RNW 36",
                    "fixes": {
                        "RNW 36": "RNW 36 HDG 359 UNTIL 520 HDG 359 VECTORS"
                    }
                }
            ],
            "transitions": [
                {
                    "name": "DPATY",
                    "fixes": [
                        "DPATY"
                    ]
                },
                {
                    "name": "JBULL",
                    "fixes": [
                        "JBULL"
                    ]
                }
            ]
        },
        {
            "name": "STYCK8",
            "rnw": "14",
            "fixes": {
                "BBYSE": "BBYSE",
                "SPICR": "SPICR",
                "WLLIS": "WLLIS",
                "STYCK": "STYCK"
            },
            "sub_fixes": [
                {
                    "rwy": "RNW 14",
                    "fixes": {
                        "RNW 14": "RNW 14 HDG 138 UNTIL 520 HDG 138 VECTORS"
                    }
                },
                {
                    "rwy": "RNW 18",
                    "fixes": {
                        "RNW 18": "RNW 18 HDG 179 UNTIL 520 HDG 179 VECTORS"
                    }
                },
                {
                    "rwy": "RNW 32",
                    "fixes": {
                        "RNW 32": "RNW 32 HDG 318 UNTIL 520 HDG 318 VECTORS"
                    }
                },
                {
                    "rwy": "RNW 36",
                    "fixes": {
                        "RNW 36": "RNW 36 HDG 359 UNTIL 520 HDG 359 VECTORS"
                    }
                }
            ],
            "transitions": [
                {
                    "name": "DOLEY",
                    "fixes": [
                        "DOLEY"
                    ]
                },
                {
                    "name": "WTSON",
                    "fixes": [
                        "WTSON"
                    ]
                }
            ]
        },
        {
            "name": "WATFO5",
            "rnw": "14",
            "fixes": {},
            "sub_fixes": [
                {
                    "rwy": "RNW 14",
                    "fixes": {
                        "RNW 14": "RNW 14 HDG 138 UNTIL 520 HDG 138 VECTORS",
                        "WATFO": "WATFO",
                        "VUH": "VUH"
                    }
                },
                {
                    "rwy": "RNW 18",
                    "fixes": {
                        "RNW 18": "RNW 18 HDG 179 UNTIL 520 HDG 179 VECTORS",
                        "WATFO": "WATFO",
                        "VUH": "VUH"
                    }
                },
                {
                    "rwy": "RNW 32",
                    "fixes": {
                        "RNW 32": "RNW 32 HDG 318 UNTIL 520 HDG 318 VECTORS",
                        "WATFO": "WATFO",
                        "VUH": "VUH"
                    }
                },
                {
                    "rwy": "RNW 36",
                    "fixes": {
                        "RNW 36": "RNW 36 HDG 359 UNTIL 520 HDG 359 VECTORS",
                        "WATFO": "WATFO",
                        "VUH": "VUH"
                    }
                }
            ],
            "transitions": [
                {
                    "name": "ANKRR",
                    "fixes": [
                        "ANKRR"
                    ]
                },
                {
                    "name": "KELPP",
                    "fixes": [
                        "KELPP"
                    ]
                },
                {
                    "name": "MUSYL",
                    "fixes": [
                        "MUSYL"
                    ]
                }
            ]
        },
        {
            "name": "WYLSN8",
            "rnw": "14",
            "fixes": {
                "WYLSN": "WYLSN",
                "MONNT": "MONNT"
            },
            "sub_fixes": [
                {
                    "rwy": "RNW 14",
                    "fixes": {
                        "RNW 14": "RNW 14 HDG 138 UNTIL 520 HDG 138 VECTORS"
                    }
                },
                {
                    "rwy": "RNW 18",
                    "fixes": {
                        "RNW 18": "RNW 18 HDG 179 UNTIL 520 HDG 179 VECTORS"
                    }
                },
                {
                    "rwy": "RNW 32",
                    "fixes": {
                        "RNW 32": "RNW 32 HDG 318 UNTIL 520 HDG 318 VECTORS"
                    }
                },
                {
                    "rwy": "RNW 36",
                    "fixes": {
                        "RNW 36": "RNW 36 HDG 359 UNTIL 520 HDG 359 VECTORS"
                    }
                }
            ],
            "transitions": [
                {
                    "name": "GIFFA",
                    "fixes": [
                        "BUMCO",
                        "GIFFA"
                    ]
                },
                {
                    "name": "MAJKK",
                    "fixes": [
                        "KLJOY",
                        "MAJKK"
                    ]
                }
            ]
        }
    ],
    "stars": [
        {
            "name": "BLUBL4",
            "runway": "RNW 14 RNW 18 RNW 32 RNW 36",
            "fixes": {
                "BLUBL": "BLUBL 9000",
                "COWZZ": "COWZZ",
                "SNDAY": "OVERFLY SNDAY 9000 TRK 153 VECTORS"
            }
        },
        {
            "name": "CESAN4",
            "runway": "RNW 14 RNW 18 RNW 32 RNW 36",
            "fixes": {
                "CESAN": "CESAN",
                "CREPO": "CREPO",
                "PLEDO": "PLEDO",
                "FRITZ": "FRITZ",
                "SSERA": "SSERA",
                "KAANE": "OVERFLY KAANE TRK 215 VECTORS"
            }
        },
        {
            "name": "HUDZY4",
            "runway": "RNW 14 RNW 18 RNW 32 RNW 36",
            "fixes": {
                "HUDZY": "HUDZY SPEED 280",
                "CLWSN": "CLWSN",
                "SWWAA": "SWWAA HDG 190 VECTORS"
            }
        },
        {
            "name": "OHIIO4",
            "runway": "RNW 14 RNW 18 RNW 32 RNW 36",
            "fixes": {
                "OHIIO": "OHIIO",
                "PNUUT": "PNUUT"
            }
        },
        {
            "name": "SNIFY1",
            "runway": "RNW 14 RNW 18 RNW 32 RNW 36",
            "fixes": {
                "KIDDZ": "KIDDZ 12000 SPEED 280",
                "SNIFY": "SNIFY 12000"
            }
        },
        {
            "name": "TKNIQ3",
            "runway": "RNW 14 RNW 18 RNW 32 RNW 36",
            "fixes": {
                "TKNIQ": "TKNIQ SPEED 280",
                "DOCCC": "DOCCC",
                "MMOOW": "OVERFLY MMOOW TRK 253 VECTORS"
            }
        },
        {
            "name": "TSHRT2",
            "runway": "RNW 14 RNW 18 RNW 32 RNW 36",
            "fixes": {
                "BELLR": "BELLR 12000",
                "TSHRT": "TSHRT 12000 HDG 075 VECTORS"
            }
        },
        {
            "name": "WAPPL6",
            "runway": "RNW 14 RNW 18 RNW 32 RNW 36",
            "fixes": {
                "WAPPL": "WAPPL AT OR BELOW 27000 AT OR ABOVE 22000 SPEED 280",
                "WLMOR": "WLMOR AT OR BELOW 21000 AT OR ABOVE 15000",
                "HUDZY": "HUDZY",
                "CLWSN": "CLWSN AT OR BELOW 14000 AT OR ABOVE 12000 SPEED 280",
                "SWWAA": "SWWAA AT OR BELOW 12000 AT OR ABOVE 10000 SPEED 250",
                "PUSHN": "PUSHN AT OR ABOVE 8000",
                "BUGZY": "BUGZY AT OR BELOW 10000",
                "PLKTN": "OVERFLY PLKTN 8000 TRK 175 VECTORS"
            }
        }
    ],
    "approaches": [
        {
            "name": "ILS14",
            "fixes": {
                "UCENU": "UCENU AT OR ABOVE 1800",
                "SWANE": "SWANE 1800 RNW 14 TRK 138 UNTIL 1200 TURN RIGHT HDG 000 INTERCEPT RADIAL 315 TO SWANE SWANE AT OR ABOVE 2400 HOLD AT SWANE LEFT TURN INBOUNDCOURSE 138 ALT 2400 LEGTIME 1 FAF SWANE MAP RNW 14"
            },
            "transitions": [
                {
                    "name": "VUH",
                    "fixes": {
                        "VUH": "VUH",
                        "SWANE": "SWANE AT OR ABOVE 1800",
                        "PI001": "PI001 AT OR ABOVE 1800 SPEED 210",
                        "PI002": "OVERFLY PI002 AT OR ABOVE 1800 SPEED 210",
                        "PI003": "PI003 AT OR ABOVE 1800 SPEED 210"
                    }
                }
            ]
        },
        {
            "name": "RNAV14",
            "fixes": {
                "UCENU": "UCENU AT OR ABOVE 3000",
                "SWANE": "SWANE 1800 RNW 14 TRK 138 UNTIL 1200 TURN RIGHT DIRECT",
                "DELVE": "OVERFLY DELVE AT OR ABOVE 3000 HOLD AT DELVE RIGHT TURN INBOUNDCOURSE 271 LEGDIST 4 FAF SWANE MAP RNW 14"
            },
            "transitions": [
                {
                    "name": "BOBLE",
                    "fixes": {
                        "BOBLE": "BOBLE"
                    }
                },
                {
                    "name": "FOMAH",
                    "fixes": {
                        "FOMAH": "FOMAH"
                    }
                }
            ]
        },
        {
            "name": "RNAV18",
            "fixes": {
                "OMEHU": "OMEHU AT OR ABOVE 2000",
                "RAWUF": "RAWUF 1800",
                "SEPOY": "SEPOY AT OR ABOVE 900 RNW 18 TRK 179 UNTIL 800",
                "DELVE": "OVERFLY DELVE AT OR ABOVE 3000 HOLD AT DELVE RIGHT TURN INBOUNDCOURSE 271 LEGDIST 4 FAF RAWUF MAP RNW 18"
            },
            "transitions": [
                {
                    "name": "PICIP",
                    "fixes": {
                        "PICIP": "PICIP"
                    }
                },
                {
                    "name": "TARCU",
                    "fixes": {
                        "TARCU": "TARCU"
                    }
                }
            ]
        },
        {
            "name": "RNAV32",
            "fixes": {
                "IDIYE": "IDIYE AT OR ABOVE 2000",
                "HUDIP": "HUDIP 1800",
                "JEREM": "JEREM AT OR ABOVE 900 RNW 32 TRK 318 UNTIL 800",
                "DELVE": "OVERFLY DELVE AT OR ABOVE 3000 HOLD AT DELVE RIGHT TURN INBOUNDCOURSE 271 LEGDIST 4 FAF HUDIP MAP RNW 32"
            },
            "transitions": [
                {
                    "name": "KICET",
                    "fixes": {
                        "KICET": "KICET"
                    }
                },
                {
                    "name": "YUCUT",
                    "fixes": {
                        "YUCUT": "YUCUT"
                    }
                }
            ]
        },
        {
            "name": "RNAV36",
            "fixes": {
                "OYALE": "OYALE AT OR ABOVE 2000",
                "WUTAM": "WUTAM 1800",
                "KULLE": "KULLE AT OR ABOVE 900 RNW 36 TRK 359 UNTIL 800",
                "BOLOS": "OVERFLY BOLOS AT OR ABOVE 2000 HOLD AT BOLOS RIGHT TURN INBOUNDCOURSE 238 LEGDIST 4 FAF WUTAM MAP RNW 36"
            },
            "transitions": [
                {
                    "name": "LEYGI",
                    "fixes": {
                        "LEYGI": "LEYGI"
                    }
                },
                {
                    "name": "PABLY",
                    "fixes": {
                        "PABLY": "PABLY"
                    }
                }
            ]
        },
        {
            "name": "VOR14",
            "fixes": {
                "ZELDA": "ZELDA 1600",
                "XUDDU": "XUDDU 212 RNW 14 TRK 143 UNTIL 1200 TURN RIGHT HDG 284 INTERCEPT RADIAL 243 TO",
                "DELVE": "DELVE DELVE AT OR ABOVE 3000 HOLD AT DELVE RIGHT TURN INBOUNDCOURSE 063 LEGTIME 1 FAF ZELDA MAP XUDDU"
            },
            "transitions": [
                {
                    "name": "VUH",
                    "fixes": {
                        "VUH": "VUH",
                        "ZELDA": "ZELDA AT OR ABOVE 2000",
                        "PI004": "PI004 AT OR ABOVE 2000 SPEED 210",
                        "PI005": "OVERFLY PI005 AT OR ABOVE 2000 SPEED 210",
                        "PI006": "PI006 AT OR ABOVE 2000 SPEED 210"
                    }
                }
            ]
        }
    ]
}