{
    "fixes": [
        {
            "name": "AZGOP",
            "lat": 29.73410833333333,
            "lon": 82.19169721666667
        },
        {
            "name": "BOYAP",
            "lat": 29.673302783333334,
            "lon": 82.31753888333333
        },
        {
            "name": "BUSJY",
            "lat": 29.566094433333333,
            "lon": 82.07636943333333
        },
        {
            "name": "DANTE",
            "lat": 29.643880566666667,
            "lon": 82.03625
        },
        {
            "name": "EBAPE",
            "lat": 29.859808333333334,
            "lon": 82.128875
        },
        {
            "name": "GN",
            "lat": 29.670016666666665,
            "lon": 82.17213056666667
        },
        {
            "name": "GRAMR",
            "lat": 29.529163883333332,
            "lon": 82.417775
        },
        {
            "name": "GUZNU",
            "lat": 29.602188883333334,
            "lon": 82.46418888333334
        },
        {
            "name": "IMCEF",
            "lat": 29.786669433333334,
            "lon": 82.08258888333333
        },
        {
            "name": "JODON",
            "lat": 29.443980566666667,
            "lon": 82.250425
        },
        {
            "name": "JONTU",
            "lat": 29.669138883333332,
            "lon": 82.16806111666666
        },
        {
            "name": "KACBA",
            "lat": 29.652555566666667,
            "lon": 82.360375
        },
        {
            "name": "KEEZS",
            "lat": 29.707111116666667,
            "lon": 82.36794443333334
        },
        {
            "name": "KOZYA",
            "lat": 29.809961116666667,
            "lon": 82.46003333333333
        },
        {
            "name": "LOLRY",
            "lat": 29.728302783333334,
            "lon": 82.48022778333333
        },
        {
            "name": "MANZO",
            "lat": 29.646638883333335,
            "lon": 82.50038888333333
        },
        {
            "name": "OBJOH",
            "lat": 29.729286116666668,
            "lon": 82.03536388333333
        },
        {
            "name": "OCF",
            "lat": 29.177477783333334,
            "lon": 82.22633333333333
        },
        {
            "name": "ORTUJ",
            "lat": 29.713513883333334,
            "lon": 82.03636943333333
        },
        {
            "name": "OVIPY",
            "lat": 29.675197216666668,
            "lon": 82.51066943333333
        },
        {
            "name": "TUKSE",
            "lat": 29.647691666666667,
            "lon": 82.05588333333333
        },
        {
            "name": "WYNDS",
            "lat": 29.670016666666665,
            "lon": 82.17213056666667
        }
    ],
    "rnws": [
        "RNW 07",
        "RNW 11",
        "RNW 25",
        "RNW 29"
    ],
    "sids": [],
    "stars": [],
    "approaches": [
        {
            "name": "ILS29",
            "fixes": {
                "DANTE": "DANTE AT OR ABOVE 2000",
                "WYNDS": "WYNDS 1633 RNW 29 TRK 286 UNTIL 1100 TURN LEFT HDG 160 INTERCEPT RADIAL 175 TO",
                "JODON": "JODON JODON AT OR ABOVE 2000 HOLD AT JODON RIGHT TURN INBOUNDCOURSE 175 LEGTIME 1 FAF WYNDS MAP RNW 29"
            },
            "transitions": [
                {
                    "name": "OCF1",
                    "fixes": {
                        "OCF": "OCF",
                        "GN": "GN AT OR ABOVE 2000 HOLD AT GN RIGHT TURN INBOUNDCOURSE 286 ALT 1700 LEGTIME 1"
                    }
                },
                {
                    "name": "OCF2",
                    "fixes": {
                        "OCF": "OCF"
                    }
                }
            ]
        },
        {
            "name": "RNAV07",
            "fixes": {
                "GUZNU": "GUZNU AT OR ABOVE 2100",
                "KACBA": "KACBA 1700",
                "BOYAP": "BOYAP AT OR ABOVE 860 RNW 07",
                "IMCEF": "OVERFLY IMCEF AT OR ABOVE 2000 HOLD AT IMCEF RIGHT TURN INBOUNDCOURSE 245 LEGDIST 4 FAF KACBA MAP RNW 07"
            },
            "transitions": [
                {
                    "name": "GRAMR",
                    "fixes": {
                        "GRAMR": "GRAMR AT OR ABOVE 2400"
                    }
                },
                {
                    "name": "GUZNU",
                    "fixes": {
                        "GUZNU": "GUZNU RIGHT TURN INBOUNDCOURSE 065 ALT 2100 LEGDIST 5"
                    }
                },
                {
                    "name": "OVIPY",
                    "fixes": {
                        "OVIPY": "OVIPY AT OR ABOVE 2100"
                    }
                }
            ]
        },
        {
            "name": "RNAV11",
            "fixes": {
                "LOLRY": "LOLRY AT OR ABOVE 2000",
                "KEEZS": "KEEZS 1700 RNW 11 TRK 106 UNTIL 460",
                "TUKSE": "OVERFLY TUKSE AT OR ABOVE 2000 HOLD AT TUKSE RIGHT TURN INBOUNDCOURSE 286 LEGDIST 4 FAF KEEZS MAP RNW 11"
            },
            "transitions": [
                {
                    "name": "KOZYA",
                    "fixes": {
                        "KOZYA": "KOZYA AT OR ABOVE 2100"
                    }
                },
                {
                    "name": "LOLRY",
                    "fixes": {
                        "LOLRY": "LOLRY RIGHT TURN INBOUNDCOURSE 106 ALT 2000 LEGDIST 4"
                    }
                },
                {
                    "name": "MANZO",
                    "fixes": {
                        "MANZO": "MANZO AT OR ABOVE 2500"
                    }
                }
            ]
        },
        {
            "name": "RNAV25",
            "fixes": {
                "IMCEF": "IMCEF AT OR ABOVE 2000",
                "AZGOP": "AZGOP 1700 RNW 25",
                "GUZNU": "OVERFLY GUZNU AT OR ABOVE 2100 HOLD AT GUZNU RIGHT TURN INBOUNDCOURSE 065 LEGDIST 5 FAF AZGOP MAP RNW 25"
            },
            "transitions": [
                {
                    "name": "EBAPE",
                    "fixes": {
                        "EBAPE": "EBAPE AT OR ABOVE 2000"
                    }
                },
                {
                    "name": "IMCEF",
                    "fixes": {
                        "IMCEF": "IMCEF RIGHT TURN INBOUNDCOURSE 245 ALT 2000 LEGDIST 4"
                    }
                },
                {
                    "name": "ORTUJ",
                    "fixes": {
                        "ORTUJ": "ORTUJ AT OR ABOVE 2400"
                    }
                }
            ]
        },
        {
            "name": "RNAV29",
            "fixes": {
                "TUKSE": "TUKSE AT OR ABOVE 2000",
                "JONTU": "JONTU 1700 RNW 29 TRK 286 UNTIL 420",
                "LOLRY": "OVERFLY LOLRY AT OR ABOVE 2100 HOLD AT LOLRY RIGHT TURN INBOUNDCOURSE 106 LEGDIST 4 FAF JONTU MAP RNW 29"
            },
            "transitions": [
                {
                    "name": "BUSJY",
                    "fixes": {
                        "BUSJY": "BUSJY AT OR ABOVE 2500"
                    }
                },
                {
                    "name": "OBJOH",
                    "fixes": {
                        "OBJOH": "OBJOH AT OR ABOVE 2100"
                    }
                },
                {
                    "name": "TUKSE",
                    "fixes": {
                        "TUKSE": "TUKSE RIGHT TURN INBOUNDCOURSE 286 ALT 2000 LEGDIST 4"
                    }
                }
            ]
        }
    ]
}