{
    "fixes": [
        {
            "name": "BARAK",
            "lat": 44.77118888333333,
            "lon": 85.29916388333334
        },
        {
            "name": "CARGA",
            "lat": 44.641191666666664,
            "lon": 84.970875
        },
        {
            "name": "CGG",
            "lat": 44.68141943333333,
            "lon": 84.72859721666667
        },
        {
            "name": "EFFIT",
            "lat": 44.8799,
            "lon": 84.84215833333333
        },
        {
            "name": "EGELE",
            "lat": 44.806477783333335,
            "lon": 85.04141943333333
        },
        {
            "name": "ELBOT",
            "lat": 44.934358333333336,
            "lon": 84.89827221666667
        },
        {
            "name": "EP14",
            "lat": 44.68394443333333,
            "lon": 84.73446943333333
        },
        {
            "name": "FF14",
            "lat": 44.727069433333334,
            "lon": 84.83529166666666
        },
        {
            "name": "GLR",
            "lat": 45.012486116666665,
            "lon": 84.70427778333334
        },
        {
            "name": "GORDN",
            "lat": 44.71052221666667,
            "lon": 84.79631111666667
        },
        {
            "name": "GUYEG",
            "lat": 44.708097216666665,
            "lon": 84.77205833333333
        },
        {
            "name": "GYGNB",
            "lat": 44.74995833333333,
            "lon": 84.82821943333333
        },
        {
            "name": "HOCEY",
            "lat": 44.74865833333333,
            "lon": 84.82691666666666
        },
        {
            "name": "LUMSE",
            "lat": 44.76404721666667,
            "lon": 85.01048611666667
        },
        {
            "name": "MAMER",
            "lat": 44.82200556666667,
            "lon": 84.92640556666667
        },
        {
            "name": "PI001",
            "lat": 44.7919056,
            "lon": 84.88531883333333
        },
        {
            "name": "PI002",
            "lat": 44.86356133333334,
            "lon": 84.88355418333333
        },
        {
            "name": "PI003",
            "lat": 44.86973201666667,
            "lon": 84.99158098333334
        },
        {
            "name": "PI004",
            "lat": 44.71144173333333,
            "lon": 84.79895646666667
        },
        {
            "name": "PI005",
            "lat": 44.780977,
            "lon": 84.82338251666667
        },
        {
            "name": "PI006",
            "lat": 44.76708263333333,
            "lon": 84.92981728333334
        }
    ],
    "rnws": [
        "RNW 05",
        "RNW 14",
        "RNW 23",
        "RNW 32"
    ],
    "sids": [],
    "stars": [],
    "approaches": [
        {
            "name": "NDB14",
            "fixes": {
                "GYGNB": "GYGNB 3000 RNW 14 TRK 142 UNTIL 1560 TURN RIGHT DIRECT GYGNB AT OR ABOVE 3000 HOLD AT GYGNB LEFT TURN INBOUNDCOURSE 142 LEGTIME 1 FAF GYGNB MAP RNW 14"
            },
            "transitions": [
                {
                    "name": "GLR",
                    "fixes": {
                        "GLR": "GLR",
                        "GYGNB": "GYGNB AT OR ABOVE 3000",
                        "PI001": "PI001 AT OR ABOVE 3000 SPEED 210",
                        "PI002": "OVERFLY PI002 AT OR ABOVE 3000 SPEED 210",
                        "PI003": "PI003 AT OR ABOVE 3000 SPEED 210"
                    }
                }
            ]
        },
        {
            "name": "RNAV14",
            "fixes": {
                "MAMER": "MAMER AT OR ABOVE 3000 OVERFLY MAMER AT OR ABOVE 3000 HOLD AT MAMER LEFT TURN INBOUNDCOURSE 142 LEGDIST 4 FAF HOCEY MAP RNW 14",
                "HOCEY": "HOCEY 3000",
                "GUYEG": "GUYEG AT OR ABOVE 1880 RNW 14 TRK 142 UNTIL 1560 TURN RIGHT DIRECT"
            },
            "transitions": [
                {
                    "name": "BARAK",
                    "fixes": {
                        "BARAK": "BARAK",
                        "EGELE": "EGELE AT OR ABOVE 3500"
                    }
                },
                {
                    "name": "CARGA",
                    "fixes": {
                        "CARGA": "CARGA",
                        "LUMSE": "LUMSE AT OR ABOVE 3500"
                    }
                },
                {
                    "name": "GLR",
                    "fixes": {
                        "GLR": "GLR",
                        "EFFIT": "EFFIT AT OR ABOVE 3000"
                    }
                },
                {
                    "name": "MAMER",
                    "fixes": {
                        "MAMER": "MAMER LEFT TURN INBOUNDCOURSE 142 ALT 3000 LEGDIST 4"
                    }
                }
            ]
        },
        {
            "name": "VOR14",
            "fixes": {
                "FF14": "FF14 2800",
                "GORDN": "GORDN AT OR ABOVE 1880",
                "EP14": "OVERFLY EP14 1198",
                "CGG": "CGG AT OR ABOVE 1560 RNW 14 HOLD AT CGG RIGHT TURN INBOUNDCOURSE 127 ALT 3500 LEGTIME 1 FAF FF14 MAP CGG"
            },
            "transitions": [
                {
                    "name": "CARGA",
                    "fixes": {
                        "CARGA": "CARGA",
                        "CGG": "CGG AT OR BELOW 6000 AT OR ABOVE 3000",
                        "PI004": "PI004 AT OR ABOVE 2800 SPEED 210",
                        "PI005": "OVERFLY PI005 AT OR ABOVE 2800 SPEED 210",
                        "PI006": "PI006 AT OR ABOVE 2800 SPEED 210"
                    }
                },
                {
                    "name": "ELBOT",
                    "fixes": {
                        "ELBOT": "ELBOT",
                        "CGG": "CGG AT OR BELOW 6000 AT OR ABOVE 3000",
                        "PI004": "PI004 AT OR ABOVE 2800 SPEED 210",
                        "PI005": "OVERFLY PI005 AT OR ABOVE 2800 SPEED 210",
                        "PI006": "PI006 AT OR ABOVE 2800 SPEED 210"
                    }
                }
            ]
        }
    ]
}