{
    "fixes": [
        {
            "name": "ACT",
            "lat": 31.66223056666667,
            "lon": 97.26901388333333
        },
        {
            "name": "AGJ",
            "lat": 31.185505566666667,
            "lon": 98.14185833333333
        },
        {
            "name": "CLL",
            "lat": 30.605002783333333,
            "lon": 96.42068056666666
        },
        {
            "name": "CONRA",
            "lat": 31.001275,
            "lon": 97.40419166666666
        },
        {
            "name": "CURTZ",
            "lat": 31.168263883333335,
            "lon": 97.87513333333334
        },
        {
            "name": "CWK",
            "lat": 30.37855,
            "lon": 97.52984721666667
        },
        {
            "name": "DARTE",
            "lat": 30.766133333333332,
            "lon": 97.45183333333334
        },
        {
            "name": "FIXUL",
            "lat": 31.111555566666667,
            "lon": 97.85042778333333
        },
        {
            "name": "GIPGE",
            "lat": 30.808352783333333,
            "lon": 97.70377778333334
        },
        {
            "name": "GRK",
            "lat": 31.032886116666667,
            "lon": 97.81379166666666
        },
        {
            "name": "HEKNU",
            "lat": 31.112569433333334,
            "lon": 97.84988056666667
        },
        {
            "name": "HINSI",
            "lat": 30.917544433333333,
            "lon": 97.65154721666667
        },
        {
            "name": "KALLA",
            "lat": 30.72107778333333,
            "lon": 98.07735
        },
        {
            "name": "LOA",
            "lat": 31.124016666666666,
            "lon": 95.96795556666666
        },
        {
            "name": "NABCI",
            "lat": 31.168563883333334,
            "lon": 97.87811943333334
        },
        {
            "name": "OKEST",
            "lat": 31.263322216666666,
            "lon": 97.92422778333334
        },
        {
            "name": "PI001",
            "lat": 31.221551066666667,
            "lon": 97.90287788333333
        },
        {
            "name": "PI002",
            "lat": 31.247210416666668,
            "lon": 97.98113698333333
        },
        {
            "name": "PI003",
            "lat": 31.320497133333333,
            "lon": 97.95448661666667
        },
        {
            "name": "PI004",
            "lat": 31.222257266666666,
            "lon": 97.90477243333333
        },
        {
            "name": "PI005",
            "lat": 31.2490807,
            "lon": 97.98249685
        },
        {
            "name": "PI006",
            "lat": 31.321958916666667,
            "lon": 97.95435128333334
        },
        {
            "name": "PI007",
            "lat": 30.979187266666667,
            "lon": 97.78720681666667
        },
        {
            "name": "PI008",
            "lat": 30.912735316666666,
            "lon": 97.81849858333334
        },
        {
            "name": "PI009",
            "lat": 30.879446433333335,
            "lon": 97.73791418333333
        },
        {
            "name": "REDDA",
            "lat": 30.907647216666668,
            "lon": 97.42319166666667
        },
        {
            "name": "ROYOB",
            "lat": 30.853322216666665,
            "lon": 97.83034721666667
        },
        {
            "name": "RUBUF",
            "lat": 30.979752783333332,
            "lon": 97.78655556666666
        },
        {
            "name": "SCULL",
            "lat": 31.261636116666665,
            "lon": 97.917575
        },
        {
            "name": "SLIMM",
            "lat": 30.80996388333333,
            "lon": 98.220575
        },
        {
            "name": "SONET",
            "lat": 31.71251111666667,
            "lon": 97.60484721666667
        },
        {
            "name": "STV",
            "lat": 30.206758333333333,
            "lon": 98.70575556666667
        },
        {
            "name": "TENAT",
            "lat": 31.390427783333333,
            "lon": 98.08678056666666
        },
        {
            "name": "TIXFO",
            "lat": 30.885463883333333,
            "lon": 97.74097778333334
        }
    ],
    "rnws": [
        "RNW 15",
        "RNW 33"
    ],
    "sids": [
        {
            "name": "CONRA2",
            "rnw": "15",
            "fixes": {
                "CONRA": "CONRA"
            },
            "sub_fixes": [],
            "transitions": [
                {
                    "name": "CLL",
                    "fixes": [
                        "CLL"
                    ]
                },
                {
                    "name": "LOA",
                    "fixes": [
                        "LOA"
                    ]
                }
            ]
        },
        {
            "name": "LAMPS7",
            "rnw": "15",
            "fixes": {},
            "sub_fixes": [
                {
                    "rwy": "RNW 15",
                    "fixes": {
                        "RNW 15": "RNW 15 TRK 153 UNTIL 1420 TURN RIGHT HDG 333 INTERCEPT RADIAL 289 TO",
                        "AGJ": "AGJ AGJ"
                    }
                },
                {
                    "rwy": "RNW 33",
                    "fixes": {
                        "RNW 33": "RNW 33 TRK 333 UNTIL 1420 TURN LEFT HDG 243 INTERCEPT RADIAL 289 TO",
                        "AGJ": "AGJ AGJ"
                    }
                }
            ],
            "transitions": [
                {
                    "name": "ACT",
                    "fixes": [
                        "SONET",
                        "ACT"
                    ]
                },
                {
                    "name": "STV",
                    "fixes": [
                        "STV"
                    ]
                }
            ]
        }
    ],
    "stars": [],
    "approaches": [
        {
            "name": "VORD15",
            "fixes": {
                "SCULL": "SCULL AT OR ABOVE 3000",
                "CURTZ": "CURTZ 3000",
                "HEKNU": "HEKNU AT OR ABOVE 1780 RNW 15 TRK 152 UNTIL 2000 TURN RIGHT DIRECT",
                "AGJ": "AGJ AT OR ABOVE 3000 HOLD AT AGJ RIGHT TURN INBOUNDCOURSE 194 LEGTIME 1 FAF CURTZ MAP RNW 15"
            },
            "transitions": [
                {
                    "name": "AGJ",
                    "fixes": {
                        "AGJ": "AGJ"
                    }
                },
                {
                    "name": "GRK",
                    "fixes": {
                        "GRK": "GRK",
                        "CURTZ": "CURTZ AT OR ABOVE 4000",
                        "PI001": "PI001 AT OR ABOVE 4000 SPEED 210",
                        "PI002": "OVERFLY PI002 AT OR ABOVE 4000 SPEED 210",
                        "PI003": "PI003 AT OR ABOVE 4000 SPEED 210"
                    }
                }
            ]
        },
        {
            "name": "ILS15",
            "fixes": {
                "OKEST": "OKEST AT OR ABOVE 3000",
                "NABCI": "NABCI 2900 RNW 15 TRK 153 UNTIL 2000 TURN RIGHT DIRECT",
                "AGJ": "AGJ AT OR ABOVE 3000 HOLD AT AGJ RIGHT TURN INBOUNDCOURSE 194 LEGTIME 1 FAF NABCI MAP RNW 15"
            },
            "transitions": [
                {
                    "name": "AGJ",
                    "fixes": {
                        "AGJ": "AGJ"
                    }
                },
                {
                    "name": "GRK",
                    "fixes": {
                        "GRK": "GRK",
                        "NABCI": "NABCI AT OR ABOVE 4000",
                        "PI004": "PI004 AT OR ABOVE 3000 SPEED 210",
                        "PI005": "OVERFLY PI005 AT OR ABOVE 3000 SPEED 210",
                        "PI006": "PI006 AT OR ABOVE 3000 SPEED 210"
                    }
                }
            ]
        },
        {
            "name": "ILS33",
            "fixes": {
                "TIXFO": "TIXFO AT OR ABOVE 3000",
                "RUBUF": "RUBUF 2600 RNW 33 TRK 333 UNTIL 2000",
                "AGJ": "AGJ AT OR ABOVE 3000 HOLD AT AGJ RIGHT TURN INBOUNDCOURSE 194 LEGTIME 1 FAF RUBUF MAP RNW 33"
            },
            "transitions": [
                {
                    "name": "CWK",
                    "fixes": {
                        "CWK": "CWK",
                        "GIPGE": "GIPGE AT OR ABOVE 3000"
                    }
                }
            ]
        },
        {
            "name": "RNAV15",
            "fixes": {
                "OKEST": "OKEST AT OR ABOVE 3000",
                "NABCI": "NABCI 2900 RNW 15 TRK 153 UNTIL 2000 TURN RIGHT DIRECT",
                "AGJ": "OVERFLY AGJ AT OR ABOVE 3000 HOLD AT AGJ RIGHT TURN INBOUNDCOURSE 190 LEGDIST 4 FAF NABCI MAP RNW 15"
            },
            "transitions": [
                {
                    "name": "AGJ",
                    "fixes": {
                        "AGJ": "AGJ"
                    }
                },
                {
                    "name": "TENAT",
                    "fixes": {
                        "TENAT": "TENAT"
                    }
                }
            ]
        },
        {
            "name": "RNAV33",
            "fixes": {
                "TIXFO": "TIXFO AT OR ABOVE 3000",
                "RUBUF": "RUBUF 2600 RNW 33 TRK 337 UNTIL 1195",
                "FIXUL": "FIXUL",
                "AGJ": "OVERFLY AGJ AT OR ABOVE 3000 HOLD AT AGJ RIGHT TURN INBOUNDCOURSE 190 LEGDIST 4 FAF RUBUF MAP RNW 33"
            },
            "transitions": [
                {
                    "name": "KALLA",
                    "fixes": {
                        "KALLA": "KALLA",
                        "ROYOB": "ROYOB AT OR ABOVE 4200"
                    }
                },
                {
                    "name": "REDDA",
                    "fixes": {
                        "REDDA": "REDDA",
                        "HINSI": "HINSI AT OR ABOVE 3000"
                    }
                }
            ]
        },
        {
            "name": "VORA33",
            "fixes": {
                "GRK": "GRK 2100 RNW 33 TRK 333 UNTIL 2000 TURN RIGHT DIRECT GRK AT OR ABOVE 3000 HOLD AT GRK LEFT TURN INBOUNDCOURSE 333 LEGTIME 1 FAF GRK MAP RNW 33"
            },
            "transitions": [
                {
                    "name": "AGJ",
                    "fixes": {
                        "AGJ": "AGJ",
                        "GRK": "GRK AT OR ABOVE 3000",
                        "PI007": "PI007 AT OR ABOVE 3000 SPEED 210",
                        "PI008": "OVERFLY PI008 AT OR ABOVE 3000 SPEED 210",
                        "PI009": "PI009 AT OR ABOVE 3000 SPEED 210"
                    }
                },
                {
                    "name": "DARTE",
                    "fixes": {
                        "DARTE": "DARTE",
                        "GRK": "GRK AT OR ABOVE 3600",
                        "PI007": "PI007 AT OR ABOVE 3000 SPEED 210",
                        "PI008": "OVERFLY PI008 AT OR ABOVE 3000 SPEED 210",
                        "PI009": "PI009 AT OR ABOVE 3000 SPEED 210"
                    }
                },
                {
                    "name": "SLIMM",
                    "fixes": {
                        "SLIMM": "SLIMM",
                        "GRK": "GRK AT OR ABOVE 3100",
                        "PI007": "PI007 AT OR ABOVE 3000 SPEED 210",
                        "PI008": "OVERFLY PI008 AT OR ABOVE 3000 SPEED 210",
                        "PI009": "PI009 AT OR ABOVE 3000 SPEED 210"
                    }
                }
            ]
        }
    ]
}