{
    "fixes": [
        {
            "name": "BICAY",
            "lat": 31.379322216666665,
            "lon": 86.78216111666667
        },
        {
            "name": "COGTA",
            "lat": 31.636422216666666,
            "lon": 87.02265556666667
        },
        {
            "name": "DINGS",
            "lat": 31.432272216666668,
            "lon": 87.15084721666666
        },
        {
            "name": "FAMVU",
            "lat": 31.400591666666667,
            "lon": 86.928575
        },
        {
            "name": "FEMEN",
            "lat": 31.424916666666668,
            "lon": 87.09754443333334
        },
        {
            "name": "JALSO",
            "lat": 31.317286116666665,
            "lon": 87.05746388333333
        },
        {
            "name": "JESMU",
            "lat": 31.455152783333332,
            "lon": 87.04246666666667
        },
        {
            "name": "KAMDE",
            "lat": 31.432363883333334,
            "lon": 87.14959721666666
        },
        {
            "name": "MVC",
            "lat": 31.459325,
            "lon": 87.35253888333334
        },
        {
            "name": "NUSEE",
            "lat": 31.509111116666666,
            "lon": 87.03657778333333
        },
        {
            "name": "REBAE",
            "lat": 31.424705566666667,
            "lon": 87.09702221666667
        },
        {
            "name": "WUTAL",
            "lat": 31.189986116666667,
            "lon": 87.07126666666667
        },
        {
            "name": "YENYU",
            "lat": 31.453444433333335,
            "lon": 87.2978
        }
    ],
    "rnws": [
        "RNW 01",
        "RNW 10",
        "RNW 19",
        "RNW 28"
    ],
    "sids": [],
    "stars": [],
    "approaches": [
        {
            "name": "VORD10",
            "fixes": {
                "MVC": "MVC AT OR ABOVE 2000 MVC AT OR ABOVE 2000 HOLD AT MVC RIGHT TURN INBOUNDCOURSE 095 LEGTIME 1 FAF DINGS MAP RNW 10",
                "DINGS": "DINGS 2000",
                "REBAE": "REBAE AT OR ABOVE 1080 RNW 10 TRK 095 UNTIL 659 TURN LEFT DIRECT"
            },
            "transitions": [
                {
                    "name": "MVC",
                    "fixes": {
                        "MVC": "MVC RIGHT TURN INBOUNDCOURSE 095 ALT 2000 LEGTIME 1"
                    }
                }
            ]
        },
        {
            "name": "RNAV01",
            "fixes": {
                "WUTAL": "WUTAL AT OR ABOVE 3000 OVERFLY WUTAL AT OR ABOVE 3000 HOLD AT WUTAL RIGHT TURN INBOUNDCOURSE 008 LEGDIST 4 FAF JALSO MAP RNW 01",
                "JALSO": "JALSO 2000 RNW 01 TRK 008 UNTIL 659 TURN LEFT DIRECT"
            },
            "transitions": [
                {
                    "name": "WUTAL",
                    "fixes": {
                        "WUTAL": "WUTAL RIGHT TURN INBOUNDCOURSE 008 ALT 3000 LEGDIST 4"
                    }
                }
            ]
        },
        {
            "name": "RNAV10",
            "fixes": {
                "YENYU": "YENYU AT OR ABOVE 3000 OVERFLY YENYU AT OR ABOVE 3000 HOLD AT YENYU RIGHT TURN INBOUNDCOURSE 102 LEGDIST 4 FAF KAMDE MAP RNW 10",
                "KAMDE": "KAMDE 2000",
                "FEMEN": "FEMEN AT OR ABOVE 1120 RNW 10 TRK 102 UNTIL 659 TURN LEFT DIRECT"
            },
            "transitions": [
                {
                    "name": "YENYU",
                    "fixes": {
                        "YENYU": "YENYU RIGHT TURN INBOUNDCOURSE 102 ALT 3000 LEGDIST 4"
                    }
                }
            ]
        },
        {
            "name": "RNAV19",
            "fixes": {
                "COGTA": "COGTA AT OR ABOVE 3000 OVERFLY COGTA AT OR ABOVE 3000 HOLD AT COGTA RIGHT TURN INBOUNDCOURSE 188 LEGDIST 4 FAF NUSEE MAP RNW 19",
                "NUSEE": "NUSEE 2000",
                "JESMU": "JESMU AT OR ABOVE 960 RNW 19 TRK 188 UNTIL 659 TURN RIGHT DIRECT"
            },
            "transitions": [
                {
                    "name": "COGTA",
                    "fixes": {
                        "COGTA": "COGTA RIGHT TURN INBOUNDCOURSE 188 ALT 3000 LEGDIST 4"
                    }
                }
            ]
        },
        {
            "name": "RNAV28",
            "fixes": {
                "BICAY": "BICAY AT OR ABOVE 3000 OVERFLY BICAY AT OR ABOVE 3000 HOLD AT BICAY RIGHT TURN INBOUNDCOURSE 283 LEGDIST 4 FAF FAMVU MAP RNW 28",
                "FAMVU": "FAMVU 2000 RNW 28 TRK 283 UNTIL 659 TURN LEFT DIRECT"
            },
            "transitions": [
                {
                    "name": "BICAY",
                    "fixes": {
                        "BICAY": "BICAY RIGHT TURN INBOUNDCOURSE 283 ALT 3000 LEGDIST 4"
                    }
                }
            ]
        }
    ]
}