{
    "fixes": [
        {
            "name": "DORUW",
            "lat": 39.912644433333334,
            "lon": 91.48778611666667
        },
        {
            "name": "EDTEB",
            "lat": 39.77837778333333,
            "lon": 91.37230833333334
        },
        {
            "name": "GASEY",
            "lat": 39.92745,
            "lon": 91.38119443333333
        },
        {
            "name": "KABIF",
            "lat": 39.89774166666667,
            "lon": 91.59433333333334
        },
        {
            "name": "LAMOO",
            "lat": 39.812558333333335,
            "lon": 91.4643
        },
        {
            "name": "MAGYA",
            "lat": 39.727411116666666,
            "lon": 91.44060833333333
        },
        {
            "name": "NEBUC",
            "lat": 39.52333333333333,
            "lon": 91.50625
        },
        {
            "name": "NOCNY",
            "lat": 39.552872216666664,
            "lon": 91.29422221666667
        },
        {
            "name": "OBEDE",
            "lat": 39.77214166666667,
            "lon": 91.45483611666667
        },
        {
            "name": "PARCK",
            "lat": 39.53815,
            "lon": 91.40025833333333
        },
        {
            "name": "UIN",
            "lat": 39.847875,
            "lon": 91.278925
        },
        {
            "name": "VASBE",
            "lat": 39.638255566666665,
            "lon": 91.42356388333333
        }
    ],
    "rnws": [
        "RNW 17",
        "RNW 35"
    ],
    "sids": [],
    "stars": [],
    "approaches": [
        {
            "name": "VORDA17",
            "fixes": {
                "UIN": "UIN AT OR ABOVE 2300 UIN AT OR ABOVE 2300 HOLD AT UIN LEFT TURN INBOUNDCOURSE 221 LEGTIME 1 FAF EDTEB MAP MAGYA",
                "EDTEB": "EDTEB 2300",
                "MAGYA": "OVERFLY MAGYA 1640 RNW 17 TURN RIGHT DIRECT"
            },
            "transitions": [
                {
                    "name": "UIN",
                    "fixes": {
                        "UIN": "UIN LEFT TURN INBOUNDCOURSE 221 ALT 2300 LEGTIME 1"
                    }
                }
            ]
        },
        {
            "name": "VORDA35",
            "fixes": {
                "UIN": "UIN AT OR ABOVE 2300 UIN AT OR ABOVE 2300 HOLD AT UIN LEFT TURN INBOUNDCOURSE 221 LEGTIME 1 FAF EDTEB MAP MAGYA",
                "EDTEB": "EDTEB 2300",
                "MAGYA": "OVERFLY MAGYA 1640 RNW 35 TURN RIGHT DIRECT"
            },
            "transitions": [
                {
                    "name": "UIN",
                    "fixes": {
                        "UIN": "UIN LEFT TURN INBOUNDCOURSE 221 ALT 2300 LEGTIME 1"
                    }
                }
            ]
        },
        {
            "name": "RNAV17",
            "fixes": {
                "DORUW": "DORUW AT OR ABOVE 3000",
                "LAMOO": "LAMOO 2400",
                "OBEDE": "OBEDE AT OR ABOVE 1600 RNW 17",
                "PARCK": "OVERFLY PARCK AT OR ABOVE 3000 HOLD AT PARCK RIGHT TURN INBOUNDCOURSE 350 LEGDIST 4 FAF LAMOO MAP RNW 17"
            },
            "transitions": [
                {
                    "name": "DORUW",
                    "fixes": {
                        "DORUW": "DORUW RIGHT TURN INBOUNDCOURSE 170 ALT 3000 LEGDIST 4"
                    }
                },
                {
                    "name": "GASEY",
                    "fixes": {
                        "GASEY": "GASEY AT OR ABOVE 3000"
                    }
                },
                {
                    "name": "KABIF",
                    "fixes": {
                        "KABIF": "KABIF AT OR ABOVE 3000"
                    }
                }
            ]
        },
        {
            "name": "RNAV35",
            "fixes": {
                "PARCK": "PARCK AT OR ABOVE 3000",
                "VASBE": "VASBE 2400 RNW 35",
                "DORUW": "OVERFLY DORUW AT OR ABOVE 3000 HOLD AT DORUW RIGHT TURN INBOUNDCOURSE 170 LEGDIST 4 FAF VASBE MAP RNW 35"
            },
            "transitions": [
                {
                    "name": "NEBUC",
                    "fixes": {
                        "NEBUC": "NEBUC AT OR ABOVE 3000"
                    }
                },
                {
                    "name": "NOCNY",
                    "fixes": {
                        "NOCNY": "NOCNY AT OR ABOVE 3000"
                    }
                },
                {
                    "name": "PARCK",
                    "fixes": {
                        "PARCK": "PARCK RIGHT TURN INBOUNDCOURSE 350 ALT 3000 LEGDIST 4"
                    }
                }
            ]
        }
    ]
}