{
    "fixes": [
        {
            "name": "ASHBY",
            "lat": 40.31723888333333,
            "lon": 102.00150833333333
        },
        {
            "name": "CIPGA",
            "lat": 40.517944433333334,
            "lon": 102.23171666666667
        },
        {
            "name": "CITMU",
            "lat": 40.40313056666667,
            "lon": 102.52573888333333
        },
        {
            "name": "FEKMU",
            "lat": 40.64654721666667,
            "lon": 102.33420278333334
        },
        {
            "name": "FEVLO",
            "lat": 40.65623611666667,
            "lon": 102.34194166666667
        },
        {
            "name": "HOLYO",
            "lat": 40.542291666666664,
            "lon": 102.15150833333334
        },
        {
            "name": "JANUT",
            "lat": 40.803916666666666,
            "lon": 102.46025278333333
        },
        {
            "name": "MCJEF",
            "lat": 40.086575,
            "lon": 102.00568611666667
        },
        {
            "name": "NACIK",
            "lat": 40.428783333333335,
            "lon": 102.45713056666666
        },
        {
            "name": "NOLCI",
            "lat": 40.577175,
            "lon": 102.48375
        },
        {
            "name": "OGLIE",
            "lat": 40.274341666666665,
            "lon": 102.3234
        },
        {
            "name": "PIPUE",
            "lat": 40.40578333333333,
            "lon": 102.14272221666667
        },
        {
            "name": "SNY",
            "lat": 41.09668333333333,
            "lon": 102.98299166666666
        },
        {
            "name": "VAPUC",
            "lat": 40.43693056666667,
            "lon": 102.25760278333334
        },
        {
            "name": "WAVNO",
            "lat": 40.732725,
            "lon": 102.40314443333334
        },
        {
            "name": "YOSUS",
            "lat": 40.532527783333336,
            "lon": 102.24331111666666
        },
        {
            "name": "ZISAS",
            "lat": 40.49137221666667,
            "lon": 102.21060278333333
        },
        {
            "name": "ZOGAG",
            "lat": 40.64719443333333,
            "lon": 102.33472221666666
        }
    ],
    "rnws": [
        "RNW 14",
        "RNW 32"
    ],
    "sids": [
        {
            "name": "HOLYO4",
            "rnw": "34",
            "fixes": {},
            "sub_fixes": [
                {
                    "rwy": "RNW 14",
                    "fixes": {
                        "RNW 14": "RNW 14",
                        "CIPGA": "CIPGA",
                        "VAPUC": "VAPUC",
                        "NACIK": "NACIK AT OR ABOVE 7000"
                    }
                },
                {
                    "rwy": "RNW 32",
                    "fixes": {
                        "RNW 32": "RNW 32",
                        "FEKMU": "FEKMU",
                        "NOLCI": "NOLCI",
                        "NACIK": "NACIK AT OR ABOVE 7000"
                    }
                }
            ],
            "transitions": []
        }
    ],
    "stars": [],
    "approaches": [
        {
            "name": "RNAV14",
            "fixes": {
                "WAVNO": "WAVNO AT OR ABOVE 6000",
                "ZOGAG": "ZOGAG 5400 RNW 14 TRK 141 UNTIL 4130",
                "YOSUS": "OVERFLY YOSUS",
                "ASHBY": "OVERFLY ASHBY AT OR ABOVE 6500 HOLD AT ASHBY RIGHT TURN INBOUNDCOURSE 066 LEGDIST 4 FAF ZOGAG MAP RNW 14"
            },
            "transitions": [
                {
                    "name": "HOLYO",
                    "fixes": {
                        "HOLYO": "HOLYO",
                        "WAVNO": "OVERFLY WAVNO AT OR ABOVE 6200 HOLD AT WAVNO RIGHT TURN INBOUNDCOURSE 141 ALT 6000 LEGDIST 4"
                    }
                },
                {
                    "name": "SNY",
                    "fixes": {
                        "SNY": "SNY",
                        "JANUT": "JANUT AT OR ABOVE 6600"
                    }
                }
            ]
        },
        {
            "name": "RNAV32",
            "fixes": {
                "PIPUE": "PIPUE AT OR ABOVE 6000",
                "ZISAS": "ZISAS 5400 RNW 32 TRK 321 UNTIL 4130",
                "FEVLO": "FEVLO TURN LEFT DIRECT",
                "CITMU": "OVERFLY CITMU AT OR ABOVE 6500 HOLD AT CITMU RIGHT TURN INBOUNDCOURSE 230 LEGDIST 7 FAF ZISAS MAP RNW 32"
            },
            "transitions": [
                {
                    "name": "ASHBY",
                    "fixes": {
                        "ASHBY": "ASHBY"
                    }
                },
                {
                    "name": "MCJEF",
                    "fixes": {
                        "MCJEF": "MCJEF"
                    }
                },
                {
                    "name": "OGLIE",
                    "fixes": {
                        "OGLIE": "OGLIE"
                    }
                }
            ]
        }
    ]
}