{
    "fixes": [
        {
            "name": "ASHLN",
            "lat": 39.25407778333334,
            "lon": 78.30975278333334
        },
        {
            "name": "ASUTE",
            "lat": 39.944169433333336,
            "lon": 78.27438611666666
        },
        {
            "name": "COVUK",
            "lat": 39.674363883333335,
            "lon": 77.98836111666667
        },
        {
            "name": "DORRN",
            "lat": 37.531677783333336,
            "lon": 77.89378333333333
        },
        {
            "name": "EZZZZ",
            "lat": 39.38175278333333,
            "lon": 77.85761943333333
        },
        {
            "name": "FODEV",
            "lat": 39.682186116666664,
            "lon": 77.928775
        },
        {
            "name": "HAIGS",
            "lat": 39.75536666666667,
            "lon": 77.35871943333333
        },
        {
            "name": "HESGI",
            "lat": 39.69150556666666,
            "lon": 77.85744721666667
        },
        {
            "name": "HGR",
            "lat": 39.697727783333335,
            "lon": 77.85571943333333
        },
        {
            "name": "JOHOF",
            "lat": 37.81364443333333,
            "lon": 77.73571943333333
        },
        {
            "name": "KHGR",
            "lat": 39.7085,
            "lon": 77.7265
        },
        {
            "name": "KUTSE",
            "lat": 39.596488883333336,
            "lon": 78.13482778333334
        },
        {
            "name": "LORAA",
            "lat": 37.39717221666667,
            "lon": 77.97860556666667
        },
        {
            "name": "MRB",
            "lat": 39.38557221666667,
            "lon": 77.84835556666667
        },
        {
            "name": "MUMSY",
            "lat": 39.41325,
            "lon": 78.14724166666667
        },
        {
            "name": "NOLIN",
            "lat": 39.728688883333334,
            "lon": 77.56936388333334
        },
        {
            "name": "PERKN",
            "lat": 37.65331388333333,
            "lon": 77.82466943333333
        },
        {
            "name": "PI001",
            "lat": 39.664252633333334,
            "lon": 77.9177927
        },
        {
            "name": "PI002",
            "lat": 39.59367361666666,
            "lon": 77.93394251666666
        },
        {
            "name": "PI003",
            "lat": 39.60199695,
            "lon": 78.03291211666667
        },
        {
            "name": "RUANE",
            "lat": 39.446111116666664,
            "lon": 77.37398333333333
        },
        {
            "name": "THHMP",
            "lat": 37.49151943333333,
            "lon": 77.31909721666666
        },
        {
            "name": "THS",
            "lat": 39.933227783333336,
            "lon": 77.95094443333333
        },
        {
            "name": "TOMAC",
            "lat": 39.684147216666666,
            "lon": 78.13600556666667
        },
        {
            "name": "TRSTN",
            "lat": 38.086925,
            "lon": 77.7733
        },
        {
            "name": "WORUL",
            "lat": 39.71535,
            "lon": 77.67336388333334
        },
        {
            "name": "ZUPUX",
            "lat": 39.757811116666666,
            "lon": 77.42289443333334
        }
    ],
    "rnws": [
        "RNW 02",
        "RNW 09",
        "RNW 20",
        "RNW 27"
    ],
    "sids": [],
    "stars": [
        {
            "name": "TRSTN3",
            "runway": "RNW 02 RNW 09 RNW 20 RNW 27",
            "fixes": {
                "TRSTN": "TRSTN",
                "ASHLN": "ASHLN",
                "EZZZZ": "EZZZZ",
                "RUANE": "OVERFLY RUANE HDG 090 VECTORS"
            }
        }
    ],
    "approaches": [
        {
            "name": "ILS09",
            "fixes": {
                "FODEV": "FODEV AT OR ABOVE 3100",
                "HESGI": "HESGI 2500 RNW 09 TRK 092 UNTIL 1300 TURN LEFT DIRECT",
                "THS": "THS AT OR ABOVE 4000 HOLD AT THS RIGHT TURN INBOUNDCOURSE 296 LEGTIME 1 FAF HESGI MAP RNW 09"
            },
            "transitions": [
                {
                    "name": "MRB",
                    "fixes": {
                        "MRB": "MRB",
                        "COVUK": "OVERFLY COVUK AT OR ABOVE 3600 HOLD AT COVUK RIGHT TURN INBOUNDCOURSE 092 ALT 3600 LEGTIME 1"
                    }
                },
                {
                    "name": "THS",
                    "fixes": {
                        "THS": "THS",
                        "COVUK": "OVERFLY COVUK AT OR ABOVE 4000 HOLD AT COVUK RIGHT TURN INBOUNDCOURSE 092 ALT 3600 LEGTIME 1"
                    }
                }
            ]
        },
        {
            "name": "ILS27",
            "fixes": {
                "HAIGS": "HAIGS AT OR ABOVE 4000",
                "NOLIN": "NOLIN 2900 RNW 27 TRK 272 UNTIL 1200",
                "THS": "THS AT OR ABOVE 4200 HOLD AT THS RIGHT TURN INBOUNDCOURSE 296 LEGTIME 1 FAF NOLIN MAP RNW 27"
            },
            "transitions": [
                {
                    "name": "THS",
                    "fixes": {
                        "THS": "THS",
                        "HAIGS": "OVERFLY HAIGS AT OR ABOVE 4200 HOLD AT HAIGS RIGHT TURN INBOUNDCOURSE 272 ALT 4000 LEGTIME 1"
                    }
                }
            ]
        },
        {
            "name": "RNAV09",
            "fixes": {
                "COVUK": "COVUK AT OR ABOVE 3600",
                "FODEV": "FODEV AT OR ABOVE 3100",
                "HESGI": "HESGI 2500 RNW 09 TRK 091 UNTIL 864",
                "HAIGS": "OVERFLY HAIGS AT OR ABOVE 4000 HOLD AT HAIGS RIGHT TURN INBOUNDCOURSE 272 LEGDIST 4 FAF HESGI MAP RNW 09"
            },
            "transitions": [
                {
                    "name": "ASUTE",
                    "fixes": {
                        "ASUTE": "ASUTE",
                        "TOMAC": "TOMAC AT OR ABOVE 4000"
                    }
                },
                {
                    "name": "COVUK",
                    "fixes": {
                        "COVUK": "COVUK RIGHT TURN INBOUNDCOURSE 091 ALT 3600 LEGDIST 4"
                    }
                },
                {
                    "name": "MUMSY",
                    "fixes": {
                        "MUMSY": "MUMSY",
                        "KUTSE": "KUTSE AT OR ABOVE 4000"
                    }
                }
            ]
        },
        {
            "name": "RNAV27",
            "fixes": {
                "ZUPUX": "ZUPUX AT OR ABOVE 4000",
                "NOLIN": "NOLIN 2900",
                "WORUL": "WORUL AT OR ABOVE 1340 RNW 27 TRK 272 UNTIL 886",
                "COVUK": "OVERFLY COVUK AT OR ABOVE 3600 HOLD AT COVUK RIGHT TURN INBOUNDCOURSE 091 LEGDIST 4 FAF NOLIN MAP RNW 27"
            },
            "transitions": [
                {
                    "name": "THS",
                    "fixes": {
                        "THS": "THS",
                        "ZUPUX": "OVERFLY ZUPUX AT OR ABOVE 4200 HOLD AT ZUPUX RIGHT TURN INBOUNDCOURSE 267 ALT 4000 LEGDIST 4"
                    }
                }
            ]
        },
        {
            "name": "VOR09",
            "fixes": {
                "HGR": "HGR 2500 RNW 09 TRK 091 UNTIL 1300 TURN LEFT DIRECT HGR AT OR ABOVE 3600 HOLD AT HGR RIGHT TURN INBOUNDCOURSE 066 ALT 3600 LEGTIME 1 FAF HGR MAP RNW 09"
            },
            "transitions": [
                {
                    "name": "HGR",
                    "fixes": {
                        "PI001": "PI001 AT OR ABOVE 3600 SPEED 210",
                        "PI002": "OVERFLY PI002 AT OR ABOVE 3600 SPEED 210",
                        "PI003": "PI003 AT OR ABOVE 3600 SPEED 210"
                    }
                }
            ]
        }
    ]
}