{
    "fixes": [
        {
            "name": "ARHEY",
            "lat": 34.61606388333333,
            "lon": 114.38523056666666
        },
        {
            "name": "CEKVU",
            "lat": 34.580841666666664,
            "lon": 114.36440833333333
        },
        {
            "name": "EED",
            "lat": 34.766002783333334,
            "lon": 114.47410278333334
        },
        {
            "name": "GORSY",
            "lat": 34.85550833333333,
            "lon": 114.64495833333334
        },
        {
            "name": "HODKI",
            "lat": 34.443641666666664,
            "lon": 114.26818611666667
        },
        {
            "name": "JADUV",
            "lat": 34.59045,
            "lon": 114.37196111666667
        },
        {
            "name": "LONDN",
            "lat": 34.66105278333333,
            "lon": 114.41185833333333
        },
        {
            "name": "MEMPE",
            "lat": 34.757933333333334,
            "lon": 114.15058333333333
        },
        {
            "name": "OGSOE",
            "lat": 34.355530566666665,
            "lon": 114.20610556666666
        },
        {
            "name": "PEYON",
            "lat": 34.669838883333334,
            "lon": 114.43611666666666
        },
        {
            "name": "PKE",
            "lat": 34.10197221666667,
            "lon": 114.68206666666667
        },
        {
            "name": "RACOG",
            "lat": 34.651705566666664,
            "lon": 114.42164721666667
        },
        {
            "name": "REKVE",
            "lat": 34.51117778333333,
            "lon": 114.31587221666666
        },
        {
            "name": "TASGE",
            "lat": 34.42277778333333,
            "lon": 114.06690556666666
        },
        {
            "name": "UCAYI",
            "lat": 34.22635,
            "lon": 114.24699166666667
        }
    ],
    "rnws": [
        "RNW 14",
        "RNW 32"
    ],
    "sids": [],
    "stars": [],
    "approaches": [
        {
            "name": "RNAV14",
            "fixes": {
                "EED": "EED AT OR ABOVE 5000 OVERFLY EED AT OR ABOVE 6000 HOLD AT EED RIGHT TURN INBOUNDCOURSE 154 ALT 6000 LEGDIST 5 FAF PEYON MAP RNW 14",
                "PEYON": "PEYON 3100",
                "RACOG": "RACOG AT OR ABOVE 2620 RNW 14 TRK 134 UNTIL 2600 TURN RIGHT DIRECT"
            },
            "transitions": [
                {
                    "name": "EED",
                    "fixes": {
                        "EED": "EED RIGHT TURN INBOUNDCOURSE 154 ALT 5000 LEGDIST 5"
                    }
                }
            ]
        },
        {
            "name": "RNAV32",
            "fixes": {
                "OGSOE": "OGSOE AT OR ABOVE 4400",
                "HODKI": "HODKI 3500",
                "REKVE": "REKVE AT OR ABOVE 1940 RNW 32 TRK 317 UNTIL 1183",
                "JADUV": "JADUV",
                "GORSY": "OVERFLY GORSY AT OR ABOVE 6300 HOLD AT GORSY RIGHT TURN INBOUNDCOURSE 289 ALT 6300 LEGDIST 7 FAF HODKI MAP RNW 32"
            },
            "transitions": [
                {
                    "name": "MEMPE",
                    "fixes": {
                        "MEMPE": "MEMPE",
                        "TASGE": "TASGE AT OR ABOVE 7000"
                    }
                },
                {
                    "name": "PKE",
                    "fixes": {
                        "PKE": "PKE",
                        "UCAYI": "UCAYI AT OR ABOVE 5000"
                    }
                }
            ]
        },
        {
            "name": "VORA14",
            "fixes": {
                "EED": "EED AT OR ABOVE 4000 EED AT OR ABOVE 6000 HOLD AT EED RIGHT TURN INBOUNDCOURSE 139 ALT 6000 LEGTIME 1 FAF LONDN MAP CEKVU",
                "LONDN": "LONDN 3500",
                "ARHEY": "ARHEY AT OR ABOVE 2540",
                "CEKVU": "OVERFLY CEKVU 2180 RNW 14 TRK 139 UNTIL 2180 TURN RIGHT DIRECT"
            },
            "transitions": [
                {
                    "name": "EED",
                    "fixes": {
                        "EED": "EED RIGHT TURN INBOUNDCOURSE 139 ALT 4000 LEGTIME 1"
                    }
                }
            ]
        },
        {
            "name": "VORA32",
            "fixes": {
                "EED": "EED AT OR ABOVE 4000 EED AT OR ABOVE 6000 HOLD AT EED RIGHT TURN INBOUNDCOURSE 139 ALT 6000 LEGTIME 1 FAF LONDN MAP CEKVU",
                "LONDN": "LONDN 3500",
                "ARHEY": "ARHEY AT OR ABOVE 2540",
                "CEKVU": "OVERFLY CEKVU 2180 RNW 32 TRK 139 UNTIL 2180 TURN RIGHT DIRECT"
            },
            "transitions": [
                {
                    "name": "EED",
                    "fixes": {
                        "EED": "EED RIGHT TURN INBOUNDCOURSE 139 ALT 4000 LEGTIME 1"
                    }
                }
            ]
        }
    ]
}