{
    "fixes": [
        {
            "name": "CUNGA",
            "lat": 39.37988333333333,
            "lon": 85.25853056666666
        },
        {
            "name": "DIKLE",
            "lat": 39.1062,
            "lon": 85.18208888333334
        },
        {
            "name": "EPIJO",
            "lat": 39.30660278333333,
            "lon": 85.258325
        },
        {
            "name": "FOMAN",
            "lat": 39.52288333333333,
            "lon": 85.11029166666667
        },
        {
            "name": "HIVOX",
            "lat": 39.522736116666664,
            "lon": 85.25890833333334
        },
        {
            "name": "HOBSA",
            "lat": 39.15244166666667,
            "lon": 85.25791111666666
        },
        {
            "name": "JOXAK",
            "lat": 39.422836116666666,
            "lon": 85.25865833333333
        },
        {
            "name": "JUBMI",
            "lat": 39.25253333333333,
            "lon": 85.25818056666667
        },
        {
            "name": "MILAN",
            "lat": 39.35610556666666,
            "lon": 85.31684166666666
        },
        {
            "name": "ZEKAB",
            "lat": 39.19022221666667,
            "lon": 85.20262778333333
        }
    ],
    "rnws": [
        "RNW 18",
        "RNW 36"
    ],
    "sids": [],
    "stars": [],
    "approaches": [
        {
            "name": "RNAV18",
            "fixes": {
                "HIVOX": "HIVOX AT OR ABOVE 2700",
                "JOXAK": "JOXAK 2400",
                "CUNGA": "CUNGA AT OR ABOVE 1580 RNW 18 TRK 185 UNTIL 1400",
                "ZEKAB": "OVERFLY ZEKAB AT OR ABOVE 2600 HOLD AT ZEKAB RIGHT TURN INBOUNDCOURSE 166 LEGDIST 4 FAF JOXAK MAP RNW 18"
            },
            "transitions": [
                {
                    "name": "FOMAN",
                    "fixes": {
                        "FOMAN": "FOMAN"
                    }
                },
                {
                    "name": "MILAN",
                    "fixes": {
                        "MILAN": "MILAN",
                        "HIVOX": "OVERFLY HIVOX AT OR ABOVE 2700 HOLD AT HIVOX RIGHT TURN INBOUNDCOURSE 185 ALT 2700 LEGDIST 4"
                    }
                }
            ]
        },
        {
            "name": "RNAV36",
            "fixes": {
                "HOBSA": "HOBSA AT OR ABOVE 2600",
                "JUBMI": "JUBMI 2600",
                "EPIJO": "EPIJO AT OR ABOVE 1540 RNW 36 TRK 005 UNTIL 1340",
                "HIVOX": "OVERFLY HIVOX AT OR ABOVE 2700 HOLD AT HIVOX RIGHT TURN INBOUNDCOURSE 005 LEGDIST 4 FAF JUBMI MAP RNW 36"
            },
            "transitions": [
                {
                    "name": "DIKLE",
                    "fixes": {
                        "DIKLE": "DIKLE"
                    }
                }
            ]
        }
    ]
}