{
    "fixes": [
        {
            "name": "BARUM",
            "lat": 46.528452783333336,
            "lon": 92.25135278333333
        },
        {
            "name": "BRNRD",
            "lat": 46.348280566666666,
            "lon": 94.02598333333333
        },
        {
            "name": "GPZ",
            "lat": 47.16344443333333,
            "lon": 93.48893333333334
        },
        {
            "name": "JOSAR",
            "lat": 46.69889443333334,
            "lon": 93.59726666666667
        },
        {
            "name": "KETEY",
            "lat": 46.527258333333336,
            "lon": 93.04158333333334
        },
        {
            "name": "LAYLI",
            "lat": 46.63730278333333,
            "lon": 93.33233056666667
        },
        {
            "name": "LINDR",
            "lat": 46.16176111666667,
            "lon": 93.43020833333334
        },
        {
            "name": "PICIK",
            "lat": 46.58597221666667,
            "lon": 93.26991943333333
        },
        {
            "name": "SUKCO",
            "lat": 46.68681111666667,
            "lon": 93.39268056666667
        },
        {
            "name": "UCOVA",
            "lat": 46.827652783333335,
            "lon": 93.37484166666667
        },
        {
            "name": "WEDUL",
            "lat": 46.763322216666666,
            "lon": 93.48624166666667
        },
        {
            "name": "WIBIL",
            "lat": 46.42038888333333,
            "lon": 93.22658333333334
        },
        {
            "name": "WOXER",
            "lat": 46.55064721666667,
            "lon": 93.22706666666667
        },
        {
            "name": "ZUDED",
            "lat": 46.47386111666667,
            "lon": 93.134175
        }
    ],
    "rnws": [
        "RNW 14",
        "RNW 32"
    ],
    "sids": [],
    "stars": [],
    "approaches": [
        {
            "name": "RNAV14",
            "fixes": {
                "WEDUL": "WEDUL AT OR ABOVE 4000",
                "SUKCO": "SUKCO 2900",
                "LAYLI": "LAYLI AT OR ABOVE 1680 RNW 14 TRK 139 UNTIL 1600",
                "ZUDED": "OVERFLY ZUDED AT OR ABOVE 4000 HOLD AT ZUDED RIGHT TURN INBOUNDCOURSE 319 LEGDIST 4 FAF SUKCO MAP RNW 14"
            },
            "transitions": [
                {
                    "name": "BRNRD",
                    "fixes": {
                        "BRNRD": "BRNRD",
                        "JOSAR": "JOSAR AT OR ABOVE 4000"
                    }
                },
                {
                    "name": "GPZ",
                    "fixes": {
                        "GPZ": "GPZ",
                        "UCOVA": "UCOVA AT OR ABOVE 4000"
                    }
                },
                {
                    "name": "WEDUL",
                    "fixes": {
                        "WEDUL": "WEDUL RIGHT TURN INBOUNDCOURSE 139 ALT 4000 LEGDIST 4"
                    }
                }
            ]
        },
        {
            "name": "RNAV32",
            "fixes": {
                "ZUDED": "ZUDED AT OR ABOVE 4000",
                "WOXER": "WOXER 2900",
                "PICIK": "PICIK AT OR ABOVE 2000 RNW 32 TRK 319 UNTIL 1600",
                "WEDUL": "OVERFLY WEDUL AT OR ABOVE 4000 HOLD AT WEDUL RIGHT TURN INBOUNDCOURSE 139 LEGDIST 4 FAF WOXER MAP RNW 32"
            },
            "transitions": [
                {
                    "name": "BARUM",
                    "fixes": {
                        "BARUM": "BARUM",
                        "KETEY": "KETEY AT OR ABOVE 4000"
                    }
                },
                {
                    "name": "LINDR",
                    "fixes": {
                        "LINDR": "LINDR",
                        "WIBIL": "WIBIL AT OR ABOVE 4000"
                    }
                },
                {
                    "name": "ZUDED",
                    "fixes": {
                        "ZUDED": "ZUDED RIGHT TURN INBOUNDCOURSE 319 ALT 4000 LEGDIST 4"
                    }
                }
            ]
        }
    ]
}