{
    "fixes": [
        {
            "name": "GINGS",
            "lat": 40.18136666666667,
            "lon": 83.84813056666667
        },
        {
            "name": "GUNNE",
            "lat": 40.363763883333334,
            "lon": 83.23286666666667
        },
        {
            "name": "HIRID",
            "lat": 40.32796388333333,
            "lon": 83.67112221666666
        },
        {
            "name": "IJMIN",
            "lat": 40.353602783333336,
            "lon": 83.774825
        },
        {
            "name": "JOGER",
            "lat": 39.72077778333333,
            "lon": 83.40681666666667
        },
        {
            "name": "LEKNE",
            "lat": 40.23123888333333,
            "lon": 83.71198056666667
        },
        {
            "name": "OREXE",
            "lat": 39.96245833333333,
            "lon": 83.93873056666666
        },
        {
            "name": "OWEQO",
            "lat": 40.168475,
            "lon": 83.73843056666666
        },
        {
            "name": "PENOE",
            "lat": 39.91136111666667,
            "lon": 83.73246943333334
        },
        {
            "name": "RIKOE",
            "lat": 40.033741666666664,
            "lon": 83.79503888333333
        },
        {
            "name": "ROD",
            "lat": 40.2878,
            "lon": 84.04309721666667
        },
        {
            "name": "SEBUE",
            "lat": 39.93695556666667,
            "lon": 83.83556111666667
        },
        {
            "name": "TRUNC",
            "lat": 40.034336116666665,
            "lon": 84.17684443333333
        },
        {
            "name": "URUSE",
            "lat": 40.13192778333333,
            "lon": 83.75798888333334
        },
        {
            "name": "WANIS",
            "lat": 40.08872778333333,
            "lon": 83.77196388333333
        },
        {
            "name": "YEGUT",
            "lat": 40.302230566666665,
            "lon": 83.56749721666667
        }
    ],
    "rnws": [
        "RNW 01",
        "RNW 02",
        "RNW 19",
        "RNW 20"
    ],
    "sids": [],
    "stars": [],
    "approaches": [
        {
            "name": "RNAV02",
            "fixes": {
                "SEBUE": "SEBUE AT OR ABOVE 4000",
                "RIKOE": "RIKOE 3000",
                "WANIS": "WANIS AT OR ABOVE 1860 RNW 02 TRK 022 UNTIL 1318",
                "HIRID": "OVERFLY HIRID AT OR ABOVE 3000 HOLD AT HIRID RIGHT TURN INBOUNDCOURSE 202 LEGDIST 4 FAF RIKOE MAP RNW 02"
            },
            "transitions": [
                {
                    "name": "JOGER",
                    "fixes": {
                        "JOGER": "JOGER",
                        "PENOE": "PENOE AT OR ABOVE 4000"
                    }
                },
                {
                    "name": "SEBUE",
                    "fixes": {
                        "SEBUE": "SEBUE RIGHT TURN INBOUNDCOURSE 022 ALT 4000 LEGDIST 4"
                    }
                },
                {
                    "name": "TRUNC",
                    "fixes": {
                        "TRUNC": "TRUNC",
                        "OREXE": "OREXE AT OR ABOVE 4000"
                    }
                }
            ]
        },
        {
            "name": "RNAV20",
            "fixes": {
                "HIRID": "HIRID AT OR ABOVE 3000",
                "LEKNE": "LEKNE 3000",
                "OWEQO": "OWEQO AT OR ABOVE 1700 RNW 20",
                "SEBUE": "OVERFLY SEBUE AT OR ABOVE 4000 HOLD AT SEBUE RIGHT TURN INBOUNDCOURSE 022 LEGDIST 4 FAF LEKNE MAP RNW 20"
            },
            "transitions": [
                {
                    "name": "GUNNE",
                    "fixes": {
                        "GUNNE": "GUNNE",
                        "YEGUT": "YEGUT AT OR ABOVE 3000"
                    }
                },
                {
                    "name": "HIRID",
                    "fixes": {
                        "HIRID": "HIRID RIGHT TURN INBOUNDCOURSE 202 ALT 3000 LEGDIST 4"
                    }
                },
                {
                    "name": "ROD",
                    "fixes": {
                        "ROD": "ROD",
                        "IJMIN": "IJMIN AT OR ABOVE 3000"
                    }
                }
            ]
        },
        {
            "name": "VORA01",
            "fixes": {
                "ROD": "ROD AT OR ABOVE 3000 ROD AT OR ABOVE 3000 HOLD AT ROD RIGHT TURN INBOUNDCOURSE 130 LEGTIME 1 FAF GINGS MAP URUSE",
                "GINGS": "GINGS 2800",
                "URUSE": "URUSE 1800 RNW 01 TRK 130 UNTIL 2800 TURN LEFT DIRECT"
            },
            "transitions": [
                {
                    "name": "ROD",
                    "fixes": {
                        "ROD": "ROD RIGHT TURN INBOUNDCOURSE 130 ALT 3000 LEGTIME 1"
                    }
                }
            ]
        },
        {
            "name": "VORA02",
            "fixes": {
                "ROD": "ROD AT OR ABOVE 3000 ROD AT OR ABOVE 3000 HOLD AT ROD RIGHT TURN INBOUNDCOURSE 130 LEGTIME 1 FAF GINGS MAP URUSE",
                "GINGS": "GINGS 2800",
                "URUSE": "URUSE 1800 RNW 02 TRK 130 UNTIL 2800 TURN LEFT DIRECT"
            },
            "transitions": [
                {
                    "name": "ROD",
                    "fixes": {
                        "ROD": "ROD RIGHT TURN INBOUNDCOURSE 130 ALT 3000 LEGTIME 1"
                    }
                }
            ]
        },
        {
            "name": "VORA19",
            "fixes": {
                "ROD": "ROD AT OR ABOVE 3000 ROD AT OR ABOVE 3000 HOLD AT ROD RIGHT TURN INBOUNDCOURSE 130 LEGTIME 1 FAF GINGS MAP URUSE",
                "GINGS": "GINGS 2800",
                "URUSE": "URUSE 1800 RNW 19 TRK 130 UNTIL 2800 TURN LEFT DIRECT"
            },
            "transitions": [
                {
                    "name": "ROD",
                    "fixes": {
                        "ROD": "ROD RIGHT TURN INBOUNDCOURSE 130 ALT 3000 LEGTIME 1"
                    }
                }
            ]
        },
        {
            "name": "VORA20",
            "fixes": {
                "ROD": "ROD AT OR ABOVE 3000 ROD AT OR ABOVE 3000 HOLD AT ROD RIGHT TURN INBOUNDCOURSE 130 LEGTIME 1 FAF GINGS MAP URUSE",
                "GINGS": "GINGS 2800",
                "URUSE": "URUSE 1800 RNW 20 TRK 130 UNTIL 2800 TURN LEFT DIRECT"
            },
            "transitions": [
                {
                    "name": "ROD",
                    "fixes": {
                        "ROD": "ROD RIGHT TURN INBOUNDCOURSE 130 ALT 3000 LEGTIME 1"
                    }
                }
            ]
        }
    ]
}