{
    "fixes": [
        {
            "name": "AIRCO",
            "lat": 43.21018333333333,
            "lon": 78.4825
        },
        {
            "name": "APIWO",
            "lat": 43.10924721666667,
            "lon": 78.813625
        },
        {
            "name": "CFMCD",
            "lat": 43.10906666666666,
            "lon": 78.747325
        },
        {
            "name": "CUVTU",
            "lat": 43.10873611666667,
            "lon": 78.65671111666667
        },
        {
            "name": "DIONE",
            "lat": 43.108238883333335,
            "lon": 78.68658056666666
        },
        {
            "name": "EDUSE",
            "lat": 43.17998888333333,
            "lon": 78.63139721666667
        },
        {
            "name": "EHMAN",
            "lat": 43.142105566666665,
            "lon": 78.35481943333333
        },
        {
            "name": "GUMDE",
            "lat": 43.10944166666667,
            "lon": 78.92078888333333
        },
        {
            "name": "IA",
            "lat": 43.10911111666667,
            "lon": 78.8383
        },
        {
            "name": "KATHI",
            "lat": 43.10930556666667,
            "lon": 78.83839166666667
        },
        {
            "name": "KESVE",
            "lat": 43.085422216666664,
            "lon": 78.62101943333333
        },
        {
            "name": "KIGUW",
            "lat": 43.109369433333335,
            "lon": 78.86603611666666
        },
        {
            "name": "UGOCO",
            "lat": 43.13814721666667,
            "lon": 79.08483333333334
        },
        {
            "name": "WEDOD",
            "lat": 43.102688883333336,
            "lon": 78.83558056666666
        },
        {
            "name": "WINUD",
            "lat": 43.166525,
            "lon": 79.19187778333334
        },
        {
            "name": "WOTGU",
            "lat": 42.953966666666666,
            "lon": 79.12869721666667
        },
        {
            "name": "WURSI",
            "lat": 43.118102783333335,
            "lon": 79.00951111666667
        },
        {
            "name": "WUVBI",
            "lat": 43.16650833333333,
            "lon": 78.83959166666666
        },
        {
            "name": "YEPNU",
            "lat": 43.129041666666666,
            "lon": 78.90101388333333
        },
        {
            "name": "YULUC",
            "lat": 43.046025,
            "lon": 79.03663888333334
        },
        {
            "name": "ZEXOD",
            "lat": 43.08360278333333,
            "lon": 78.97532221666667
        },
        {
            "name": "ZUKDU",
            "lat": 43.10955,
            "lon": 78.97743888333333
        },
        {
            "name": "ZUPUV",
            "lat": 43.24790278333333,
            "lon": 78.70571666666666
        }
    ],
    "rnws": [
        "RNW 06",
        "RNW 10L",
        "RNW 10R",
        "RNW 24",
        "RNW 28L",
        "RNW 28R"
    ],
    "sids": [],
    "stars": [],
    "approaches": [
        {
            "name": "ILS28RY",
            "fixes": {
                "CFMCD": "CFMCD AT OR ABOVE 2200",
                "IA": "IA 1763 RNW 28R TRK 280 UNTIL 1200 HDG 050 UNTIL 3200 TURN RIGHT DIRECT IA HOLD AT IA RIGHT TURN INBOUNDCOURSE 280 LEGTIME 1 FAF IA MAP RNW 28R"
            },
            "transitions": [
                {
                    "name": "EHMAN",
                    "fixes": {
                        "EHMAN": "EHMAN",
                        "IA": "IA AT OR ABOVE 2300 HOLD AT IA RIGHT TURN INBOUNDCOURSE 280 ALT 2200 LEGTIME 1"
                    }
                }
            ]
        },
        {
            "name": "ILS28RZ",
            "fixes": {
                "DIONE": "DIONE AT OR ABOVE 2200 DIONE DIONE AT OR ABOVE 3200 HOLD AT DIONE RIGHT TURN INBOUNDCOURSE 280 LEGTIME 1 FAF KATHI MAP RNW 28R",
                "KATHI": "KATHI 1763 RNW 28R TRK 280 UNTIL 1200 TURN RIGHT HDG 120 INTERCEPT RADIAL 100 TO"
            },
            "transitions": [
                {
                    "name": "DIONE",
                    "fixes": {
                        "DIONE": "DIONE RIGHT TURN INBOUNDCOURSE 280 ALT 2200 LEGTIME 1"
                    }
                }
            ]
        },
        {
            "name": "NDB28R",
            "fixes": {
                "IA": "IA 2000 RNW 28R TRK 280 UNTIL 1000 TURN RIGHT DIRECT IA AT OR ABOVE 3200 HOLD AT IA RIGHT TURN INBOUNDCOURSE 280 LEGTIME 1 FAF IA MAP RNW 28R"
            },
            "transitions": [
                {
                    "name": "EHMAN",
                    "fixes": {
                        "EHMAN": "EHMAN",
                        "IA": "IA AT OR ABOVE 2300 HOLD AT IA RIGHT TURN INBOUNDCOURSE 280 ALT 2200 LEGTIME 1"
                    }
                }
            ]
        },
        {
            "name": "RNAV06",
            "fixes": {
                "WOTGU": "WOTGU AT OR ABOVE 3300",
                "YULUC": "YULUC 2300",
                "ZEXOD": "ZEXOD AT OR ABOVE 1180 RNW 06 TRK 060 UNTIL 847",
                "ZUPUV": "OVERFLY ZUPUV AT OR ABOVE 3600 HOLD AT ZUPUV LEFT TURN INBOUNDCOURSE 240 LEGDIST 4 FAF YULUC MAP RNW 06"
            },
            "transitions": [
                {
                    "name": "WOTGU",
                    "fixes": {
                        "WOTGU": "WOTGU RIGHT TURN INBOUNDCOURSE 046 ALT 3300 LEGDIST 4"
                    }
                }
            ]
        },
        {
            "name": "RNAV10L",
            "fixes": {
                "WINUD": "WINUD AT OR ABOVE 3100",
                "UGOCO": "UGOCO 2300",
                "WURSI": "WURSI AT OR ABOVE 1220",
                "ZUKDU": "OVERFLY ZUKDU 784 RNW 10L TRK 120 UNTIL 1100",
                "DIONE": "OVERFLY DIONE AT OR ABOVE 3600 HOLD AT DIONE RIGHT TURN INBOUNDCOURSE 280 LEGDIST 4 FAF UGOCO MAP ZUKDU"
            },
            "transitions": [
                {
                    "name": "WINUD",
                    "fixes": {
                        "WINUD": "WINUD RIGHT TURN INBOUNDCOURSE 120 ALT 3100 LEGDIST 4"
                    }
                }
            ]
        },
        {
            "name": "RNAVY24",
            "fixes": {
                "ZUPUV": "ZUPUV AT OR ABOVE 3600 OVERFLY ZUPUV AT OR ABOVE 3600 HOLD AT ZUPUV LEFT TURN INBOUNDCOURSE 240 LEGDIST 4 FAF WUVBI MAP RNW 24",
                "WUVBI": "WUVBI 2300 RNW 24 TRK 240 UNTIL 1400 TURN LEFT DIRECT"
            },
            "transitions": [
                {
                    "name": "ZUPUV",
                    "fixes": {
                        "ZUPUV": "ZUPUV LEFT TURN INBOUNDCOURSE 240 ALT 3600 LEGDIST 4"
                    }
                }
            ]
        },
        {
            "name": "RNAVZ24",
            "fixes": {
                "ZUPUV": "ZUPUV AT OR ABOVE 3600 OVERFLY ZUPUV AT OR ABOVE 3600 HOLD AT ZUPUV LEFT TURN INBOUNDCOURSE 240 LEGDIST 4 FAF WUVBI MAP RNW 24",
                "WUVBI": "WUVBI 2300",
                "YEPNU": "YEPNU AT OR ABOVE 1180 RNW 24 TRK 240 UNTIL 1400 TURN LEFT DIRECT"
            },
            "transitions": [
                {
                    "name": "ZUPUV",
                    "fixes": {
                        "ZUPUV": "ZUPUV LEFT TURN INBOUNDCOURSE 240 ALT 3600 LEGDIST 4"
                    }
                }
            ]
        },
        {
            "name": "RNAV28R",
            "fixes": {
                "CUVTU": "CUVTU AT OR ABOVE 3100",
                "APIWO": "APIWO 2300",
                "KIGUW": "KIGUW AT OR ABOVE 1560 RNW 28R TRK 280 UNTIL 1040 TURN RIGHT DIRECT",
                "ZUPUV": "OVERFLY ZUPUV AT OR ABOVE 3600 SPEED 210 HOLD AT ZUPUV LEFT TURN INBOUNDCOURSE 240 LEGDIST 4 FAF APIWO MAP RNW 28R"
            },
            "transitions": [
                {
                    "name": "CUVTU",
                    "fixes": {
                        "CUVTU": "CUVTU RIGHT TURN INBOUNDCOURSE 280 ALT 3100 LEGDIST 4"
                    }
                }
            ]
        },
        {
            "name": "VOR28R",
            "fixes": {
                "KESVE": "KESVE AT OR ABOVE 2200",
                "WEDOD": "WEDOD 2000",
                "GUMDE": "GUMDE 800 RNW 28R TRK 286 UNTIL 1000 TURN RIGHT HDG 100 INTERCEPT RADIAL 084 TO",
                "EDUSE": "EDUSE EDUSE AT OR ABOVE 3000 HOLD AT EDUSE RIGHT TURN INBOUNDCOURSE 264 SPEED 230 LEGTIME 1 FAF WEDOD MAP GUMDE"
            },
            "transitions": [
                {
                    "name": "AIRCO",
                    "fixes": {
                        "AIRCO": "AIRCO",
                        "EDUSE": "EDUSE AT OR ABOVE 3000"
                    }
                }
            ]
        }
    ]
}