{
    "fixes": [
        {
            "name": "CEBOX",
            "lat": 40.755116666666666,
            "lon": 78.70819166666666
        },
        {
            "name": "EYERS",
            "lat": 40.64151388333333,
            "lon": 79.22690833333333
        },
        {
            "name": "HARBI",
            "lat": 40.620797216666666,
            "lon": 78.97995833333333
        },
        {
            "name": "JAGET",
            "lat": 40.817675,
            "lon": 79.45384166666666
        },
        {
            "name": "JEVRT",
            "lat": 40.44371111666667,
            "lon": 78.75494443333334
        },
        {
            "name": "OMISE",
            "lat": 40.655802783333336,
            "lon": 79.40107221666666
        },
        {
            "name": "PATME",
            "lat": 40.505980566666665,
            "lon": 79.49716388333333
        },
        {
            "name": "TABBU",
            "lat": 40.63752221666667,
            "lon": 79.17883333333333
        },
        {
            "name": "UHGUS",
            "lat": 40.60588056666667,
            "lon": 78.80597778333333
        },
        {
            "name": "WATAR",
            "lat": 40.624916666666664,
            "lon": 79.02858333333333
        }
    ],
    "rnws": [
        "RNW 11",
        "RNW 29"
    ],
    "sids": [],
    "stars": [],
    "approaches": [
        {
            "name": "RNAV11",
            "fixes": {
                "OMISE": "OMISE AT OR ABOVE 3600",
                "EYERS": "EYERS 3100",
                "TABBU": "TABBU AT OR ABOVE 2380 RNW 11 TRK 106 UNTIL 1819",
                "UHGUS": "OVERFLY UHGUS AT OR ABOVE 4800 HOLD AT UHGUS RIGHT TURN INBOUNDCOURSE 286 LEGDIST 5 FAF EYERS MAP RNW 11"
            },
            "transitions": [
                {
                    "name": "JAGET",
                    "fixes": {
                        "JAGET": "JAGET"
                    }
                },
                {
                    "name": "OMISE",
                    "fixes": {
                        "OMISE": "OMISE RIGHT TURN INBOUNDCOURSE 106 ALT 3600 LEGDIST 4"
                    }
                },
                {
                    "name": "PATME",
                    "fixes": {
                        "PATME": "PATME"
                    }
                }
            ]
        },
        {
            "name": "RNAV29",
            "fixes": {
                "UHGUS": "UHGUS AT OR ABOVE 4800",
                "HARBI": "HARBI 3100",
                "WATAR": "WATAR AT OR ABOVE 2380 RNW 29 TRK 286 UNTIL 1669",
                "OMISE": "OVERFLY OMISE AT OR ABOVE 3600 HOLD AT OMISE RIGHT TURN INBOUNDCOURSE 106 LEGDIST 4 FAF HARBI MAP RNW 29"
            },
            "transitions": [
                {
                    "name": "CEBOX",
                    "fixes": {
                        "CEBOX": "CEBOX"
                    }
                },
                {
                    "name": "JEVRT",
                    "fixes": {
                        "JEVRT": "JEVRT"
                    }
                },
                {
                    "name": "UHGUS",
                    "fixes": {
                        "UHGUS": "UHGUS RIGHT TURN INBOUNDCOURSE 286 ALT 4800 LEGDIST 5"
                    }
                }
            ]
        }
    ]
}