{
    "fixes": [
        {
            "name": "BUCMU",
            "lat": 26.622677783333334,
            "lon": 81.41235
        },
        {
            "name": "CAKNA",
            "lat": 26.338688883333333,
            "lon": 81.40143333333333
        },
        {
            "name": "DIBUF",
            "lat": 26.238063883333332,
            "lon": 81.39758056666666
        },
        {
            "name": "ECAMO",
            "lat": 26.433958333333333,
            "lon": 81.5037
        },
        {
            "name": "FAPTO",
            "lat": 26.430475,
            "lon": 81.61140278333333
        },
        {
            "name": "IXIVE",
            "lat": 26.438972216666667,
            "lon": 81.34239721666667
        },
        {
            "name": "JABMA",
            "lat": 26.625536116666666,
            "lon": 81.31941666666667
        },
        {
            "name": "JEXQU",
            "lat": 26.577922216666668,
            "lon": 81.17222221666667
        },
        {
            "name": "JICTI",
            "lat": 26.719019433333333,
            "lon": 81.53246388333334
        },
        {
            "name": "JIRAX",
            "lat": 26.233555566666666,
            "lon": 81.54021666666667
        },
        {
            "name": "JIVLU",
            "lat": 26.627063883333335,
            "lon": 81.26923056666666
        },
        {
            "name": "KADTE",
            "lat": 26.520741666666666,
            "lon": 81.40842221666666
        },
        {
            "name": "LAMRE",
            "lat": 26.235147216666668,
            "lon": 81.49020278333333
        },
        {
            "name": "MILES",
            "lat": 26.249819433333332,
            "lon": 81.70407778333333
        },
        {
            "name": "OBMEE",
            "lat": 26.333586116666666,
            "lon": 81.60751666666667
        },
        {
            "name": "PAPDE",
            "lat": 26.52736111666667,
            "lon": 81.61529443333333
        },
        {
            "name": "RADVE",
            "lat": 26.436213883333334,
            "lon": 81.43189721666667
        },
        {
            "name": "UVNAY",
            "lat": 26.618147216666667,
            "lon": 81.55545833333333
        },
        {
            "name": "UXUVE",
            "lat": 26.440444433333333,
            "lon": 81.29476943333333
        },
        {
            "name": "WIXUX",
            "lat": 26.310616666666668,
            "lon": 81.16246666666666
        },
        {
            "name": "WUPEL",
            "lat": 26.456058333333335,
            "lon": 81.40593888333333
        },
        {
            "name": "ZAWRI",
            "lat": 26.242430566666666,
            "lon": 81.25493611666667
        },
        {
            "name": "ZUGDU",
            "lat": 26.44427221666667,
            "lon": 81.16733888333333
        }
    ],
    "rnws": [
        "RNW 09",
        "RNW 18",
        "RNW 27",
        "RNW 36"
    ],
    "sids": [],
    "stars": [],
    "approaches": [
        {
            "name": "RNAV09",
            "fixes": {
                "FAPTO": "FAPTO AT OR ABOVE 2300",
                "ECAMO": "ECAMO 1800",
                "RADVE": "RADVE AT OR ABOVE 560 RNW 09 TRK 093 UNTIL 500",
                "JABMA": "OVERFLY JABMA AT OR ABOVE 2000 HOLD AT JABMA RIGHT TURN INBOUNDCOURSE 180 LEGDIST 4 FAF ECAMO MAP RNW 09"
            },
            "transitions": [
                {
                    "name": "JICTI",
                    "fixes": {
                        "JICTI": "JICTI",
                        "PAPDE": "PAPDE AT OR ABOVE 2300"
                    }
                },
                {
                    "name": "MILES",
                    "fixes": {
                        "MILES": "MILES",
                        "OBMEE": "OBMEE AT OR ABOVE 2300"
                    }
                }
            ]
        },
        {
            "name": "RNAV18",
            "fixes": {
                "BUCMU": "BUCMU AT OR ABOVE 2600",
                "KADTE": "KADTE 1700",
                "WUPEL": "WUPEL AT OR ABOVE 460 RNW 18 TRK 183 UNTIL 500",
                "LAMRE": "OVERFLY LAMRE AT OR ABOVE 2000 HOLD AT LAMRE RIGHT TURN INBOUNDCOURSE 000 LEGDIST 4 FAF KADTE MAP RNW 18"
            },
            "transitions": [
                {
                    "name": "BUCMU",
                    "fixes": {
                        "BUCMU": "BUCMU RIGHT TURN INBOUNDCOURSE 183 ALT 2600 LEGDIST 4"
                    }
                },
                {
                    "name": "JIVLU",
                    "fixes": {
                        "JIVLU": "JIVLU"
                    }
                },
                {
                    "name": "UVNAY",
                    "fixes": {
                        "UVNAY": "UVNAY"
                    }
                }
            ]
        },
        {
            "name": "RNAV27",
            "fixes": {
                "ZUGDU": "ZUGDU AT OR ABOVE 2900",
                "UXUVE": "UXUVE 1700",
                "IXIVE": "IXIVE AT OR ABOVE 880 RNW 27 TRK 273 UNTIL 500",
                "LAMRE": "OVERFLY LAMRE AT OR ABOVE 2000 HOLD AT LAMRE RIGHT TURN INBOUNDCOURSE 000 LEGDIST 4 FAF UXUVE MAP RNW 27"
            },
            "transitions": [
                {
                    "name": "JEXQU",
                    "fixes": {
                        "JEXQU": "JEXQU"
                    }
                },
                {
                    "name": "WIXUX",
                    "fixes": {
                        "WIXUX": "WIXUX"
                    }
                },
                {
                    "name": "ZUGDU",
                    "fixes": {
                        "ZUGDU": "ZUGDU RIGHT TURN INBOUNDCOURSE 273 ALT 2900 LEGDIST 4"
                    }
                }
            ]
        },
        {
            "name": "RNAV36",
            "fixes": {
                "DIBUF": "DIBUF AT OR ABOVE 2300",
                "CAKNA": "CAKNA 1700 RNW 36 TRK 003 UNTIL 284",
                "BUCMU": "OVERFLY BUCMU AT OR ABOVE 2000 HOLD AT BUCMU RIGHT TURN INBOUNDCOURSE 183 LEGDIST 4 FAF CAKNA MAP RNW 36"
            },
            "transitions": [
                {
                    "name": "DIBUF",
                    "fixes": {
                        "DIBUF": "DIBUF RIGHT TURN INBOUNDCOURSE 003 ALT 2300 LEGDIST 4"
                    }
                },
                {
                    "name": "JIRAX",
                    "fixes": {
                        "JIRAX": "JIRAX"
                    }
                },
                {
                    "name": "ZAWRI",
                    "fixes": {
                        "ZAWRI": "ZAWRI"
                    }
                }
            ]
        }
    ]
}