{
    "fixes": [
        {
            "name": "CELTC",
            "lat": 32.16920556666667,
            "lon": 97.40658888333333
        },
        {
            "name": "COMUB",
            "lat": 32.16636388333333,
            "lon": 97.12869443333334
        },
        {
            "name": "EVECE",
            "lat": 32.263641666666665,
            "lon": 97.16575278333333
        },
        {
            "name": "FISEB",
            "lat": 32.237858333333335,
            "lon": 97.25921388333333
        },
        {
            "name": "HETBI",
            "lat": 32.289355566666664,
            "lon": 97.07223888333333
        },
        {
            "name": "HUVOP",
            "lat": 32.000391666666665,
            "lon": 97.06565278333333
        },
        {
            "name": "ILUCU",
            "lat": 31.903575,
            "lon": 97.02898888333333
        },
        {
            "name": "JEVRA",
            "lat": 31.929180566666666,
            "lon": 96.93579721666667
        },
        {
            "name": "JUDKU",
            "lat": 31.877902783333333,
            "lon": 97.12212778333334
        },
        {
            "name": "KIKPE",
            "lat": 32.03390278333333,
            "lon": 97.07836388333334
        }
    ],
    "rnws": [
        "RNW 16",
        "RNW 34"
    ],
    "sids": [],
    "stars": [],
    "approaches": [
        {
            "name": "RNAV16",
            "fixes": {
                "EVECE": "EVECE AT OR ABOVE 3000",
                "COMUB": "COMUB 2300 RNW 16",
                "ILUCU": "OVERFLY ILUCU AT OR ABOVE 3000 HOLD AT ILUCU RIGHT TURN INBOUNDCOURSE 336 LEGDIST 5 FAF COMUB MAP RNW 16"
            },
            "transitions": [
                {
                    "name": "EVECE",
                    "fixes": {
                        "EVECE": "EVECE RIGHT TURN INBOUNDCOURSE 156 ALT 3000 LEGDIST 5"
                    }
                },
                {
                    "name": "FISEB",
                    "fixes": {
                        "FISEB": "FISEB AT OR ABOVE 3000"
                    }
                },
                {
                    "name": "HETBI",
                    "fixes": {
                        "HETBI": "HETBI AT OR ABOVE 3000"
                    }
                }
            ]
        },
        {
            "name": "RNAV34",
            "fixes": {
                "ILUCU": "ILUCU AT OR ABOVE 3000",
                "HUVOP": "HUVOP 2300",
                "KIKPE": "KIKPE AT OR ABOVE 1600 RNW 34",
                "COMUB": "COMUB",
                "CELTC": "OVERFLY CELTC AT OR ABOVE 3000 HOLD AT CELTC RIGHT TURN INBOUNDCOURSE 158 LEGDIST 5 FAF HUVOP MAP RNW 34"
            },
            "transitions": [
                {
                    "name": "ILUCU",
                    "fixes": {
                        "ILUCU": "ILUCU RIGHT TURN INBOUNDCOURSE 336 ALT 3000 LEGDIST 5"
                    }
                },
                {
                    "name": "JEVRA",
                    "fixes": {
                        "JEVRA": "JEVRA AT OR ABOVE 3000"
                    }
                },
                {
                    "name": "JUDKU",
                    "fixes": {
                        "JUDKU": "JUDKU AT OR ABOVE 3000"
                    }
                }
            ]
        }
    ]
}