{
    "fixes": [
        {
            "name": "AVOIL",
            "lat": 43.90761943333333,
            "lon": 69.80675
        },
        {
            "name": "BAZQE",
            "lat": 43.843702783333335,
            "lon": 69.91827221666667
        },
        {
            "name": "CEZAC",
            "lat": 44.00669166666667,
            "lon": 69.44616943333334
        },
        {
            "name": "EBBIL",
            "lat": 43.908966666666664,
            "lon": 69.98992221666667
        },
        {
            "name": "EDEJU",
            "lat": 44.07225,
            "lon": 69.51749443333334
        },
        {
            "name": "GEMIN",
            "lat": 44.137763883333335,
            "lon": 69.58897778333333
        },
        {
            "name": "ITUXY",
            "lat": 43.982877783333336,
            "lon": 69.67488611666667
        },
        {
            "name": "KEBTY",
            "lat": 43.778391666666664,
            "lon": 69.84677778333334
        },
        {
            "name": "NOLLI",
            "lat": 44.12818888333334,
            "lon": 70.14693333333334
        },
        {
            "name": "OMDOW",
            "lat": 44.00839166666667,
            "lon": 69.63004166666667
        },
        {
            "name": "RAZZR",
            "lat": 44.221252783333334,
            "lon": 69.58673611666667
        },
        {
            "name": "SAPPE",
            "lat": 43.62705833333333,
            "lon": 70.052
        },
        {
            "name": "TEKTE",
            "lat": 44.13329721666667,
            "lon": 69.86932778333333
        }
    ],
    "rnws": [
        "RNW 07",
        "RNW 25"
    ],
    "sids": [],
    "stars": [],
    "approaches": [
        {
            "name": "RNAV07",
            "fixes": {
                "BAZQE": "BAZQE AT OR ABOVE 2400",
                "AVOIL": "AVOIL 1700 RNW 07",
                "EDEJU": "OVERFLY EDEJU AT OR ABOVE 3000 HOLD AT EDEJU RIGHT TURN INBOUNDCOURSE 250 LEGDIST 4 FAF AVOIL MAP RNW 07"
            },
            "transitions": [
                {
                    "name": "NOLLI",
                    "fixes": {
                        "NOLLI": "NOLLI",
                        "EBBIL": "EBBIL AT OR ABOVE 3000"
                    }
                },
                {
                    "name": "RAZZR",
                    "fixes": {
                        "RAZZR": "RAZZR",
                        "EBBIL": "EBBIL AT OR ABOVE 3000"
                    }
                },
                {
                    "name": "SAPPE",
                    "fixes": {
                        "SAPPE": "SAPPE",
                        "KEBTY": "KEBTY AT OR ABOVE 3000"
                    }
                }
            ]
        },
        {
            "name": "RNAV25",
            "fixes": {
                "EDEJU": "EDEJU AT OR ABOVE 2400",
                "OMDOW": "OMDOW 1700",
                "ITUXY": "ITUXY AT OR ABOVE 760 RNW 25",
                "BAZQE": "OVERFLY BAZQE AT OR ABOVE 3000 HOLD AT BAZQE RIGHT TURN INBOUNDCOURSE 070 LEGDIST 4 FAF OMDOW MAP RNW 25"
            },
            "transitions": [
                {
                    "name": "CEZAC",
                    "fixes": {
                        "CEZAC": "CEZAC"
                    }
                },
                {
                    "name": "NOLLI",
                    "fixes": {
                        "NOLLI": "NOLLI",
                        "TEKTE": "TEKTE AT OR ABOVE 3400",
                        "GEMIN": "GEMIN AT OR ABOVE 3000"
                    }
                },
                {
                    "name": "RAZZR",
                    "fixes": {
                        "RAZZR": "RAZZR",
                        "GEMIN": "GEMIN AT OR ABOVE 3000"
                    }
                }
            ]
        }
    ]
}