{
    "fixes": [
        {
            "name": "AF001",
            "lat": 32.33976141666667,
            "lon": 89.72116573333334
        },
        {
            "name": "AF002",
            "lat": 32.268621366666665,
            "lon": 89.75722775
        },
        {
            "name": "AF003",
            "lat": 32.371776833333335,
            "lon": 90.48762138333333
        },
        {
            "name": "AF004",
            "lat": 32.29621115,
            "lon": 90.45907961666667
        },
        {
            "name": "AF005",
            "lat": 32.544576883333335,
            "lon": 90.01132455
        },
        {
            "name": "AF006",
            "lat": 32.56156828333334,
            "lon": 90.05351898333333
        },
        {
            "name": "AF007",
            "lat": 32.56740276666667,
            "lon": 90.09977221666666
        },
        {
            "name": "AF008",
            "lat": 32.17477803333333,
            "lon": 89.85193895
        },
        {
            "name": "AF009",
            "lat": 32.1481845,
            "lon": 89.89700398333333
        },
        {
            "name": "AF010",
            "lat": 32.16590033333333,
            "lon": 90.33399705
        },
        {
            "name": "AF011",
            "lat": 32.12279733333333,
            "lon": 90.2408207
        },
        {
            "name": "AF012",
            "lat": 32.102265083333336,
            "lon": 90.13748721666667
        },
        {
            "name": "ALLEN",
            "lat": 32.41250278333333,
            "lon": 90.11953888333333
        },
        {
            "name": "CAYAD",
            "lat": 32.211627783333334,
            "lon": 90.05894166666667
        },
        {
            "name": "CEKBI",
            "lat": 32.263191666666664,
            "lon": 90.05934166666667
        },
        {
            "name": "CUVEN",
            "lat": 32.104030566666665,
            "lon": 90.03926388333333
        },
        {
            "name": "D158T",
            "lat": 32.126505566666665,
            "lon": 89.94639721666667
        },
        {
            "name": "D171T",
            "lat": 32.1051,
            "lon": 90.031625
        },
        {
            "name": "D344H",
            "lat": 32.561825,
            "lon": 90.14589721666667
        },
        {
            "name": "DABEY",
            "lat": 32.225433333333335,
            "lon": 90.04139443333334
        },
        {
            "name": "DEKLE",
            "lat": 32.395547216666664,
            "lon": 90.12239443333333
        },
        {
            "name": "ECESU",
            "lat": 32.51738056666667,
            "lon": 89.97655556666666
        },
        {
            "name": "ENAKE",
            "lat": 32.418591666666664,
            "lon": 89.706375
        },
        {
            "name": "FANEN",
            "lat": 32.42493056666667,
            "lon": 89.86371943333333
        },
        {
            "name": "FAVIN",
            "lat": 32.113733333333336,
            "lon": 89.98839166666667
        },
        {
            "name": "HARAG",
            "lat": 32.417622216666665,
            "lon": 90.12035278333333
        },
        {
            "name": "HIGPU",
            "lat": 32.376188883333334,
            "lon": 90.10058611666666
        },
        {
            "name": "HIKIG",
            "lat": 32.56686388333333,
            "lon": 90.11708611666667
        },
        {
            "name": "HUXAP",
            "lat": 32.10752778333333,
            "lon": 90.01704166666667
        },
        {
            "name": "IGIHI",
            "lat": 32.54778056666667,
            "lon": 90.18250833333333
        },
        {
            "name": "KAYER",
            "lat": 32.524630566666666,
            "lon": 90.1715
        },
        {
            "name": "MASPY",
            "lat": 32.107375,
            "lon": 89.97282778333333
        },
        {
            "name": "MHZ",
            "lat": 32.434069433333335,
            "lon": 90.09977221666666
        },
        {
            "name": "MOPKE",
            "lat": 32.502352783333336,
            "lon": 90.173425
        },
        {
            "name": "NOYIG",
            "lat": 32.428027783333334,
            "lon": 89.94239721666666
        },
        {
            "name": "OBUJI",
            "lat": 32.205019433333334,
            "lon": 89.81347221666667
        },
        {
            "name": "PI001",
            "lat": 32.15401216666667,
            "lon": 90.04816311666667
        },
        {
            "name": "PI002",
            "lat": 32.111869133333336,
            "lon": 89.97971123333333
        },
        {
            "name": "PI003",
            "lat": 31.964697333333334,
            "lon": 90.01284351666666
        },
        {
            "name": "PI004",
            "lat": 32.16786836666667,
            "lon": 90.03238631666666
        },
        {
            "name": "PI005",
            "lat": 32.128816083333334,
            "lon": 89.96141223333333
        },
        {
            "name": "PI006",
            "lat": 31.980376083333333,
            "lon": 89.98543593333333
        },
        {
            "name": "PI007",
            "lat": 32.46658586666667,
            "lon": 90.14543901666667
        },
        {
            "name": "PI008",
            "lat": 32.49456408333333,
            "lon": 90.22365361666667
        },
        {
            "name": "PI009",
            "lat": 32.56701176666667,
            "lon": 90.19362188333334
        },
        {
            "name": "PI010",
            "lat": 32.171344983333334,
            "lon": 90.01557861666667
        },
        {
            "name": "PI011",
            "lat": 32.14331871666667,
            "lon": 89.93766676666667
        },
        {
            "name": "PI012",
            "lat": 32.070881316666664,
            "lon": 89.96771618333334
        },
        {
            "name": "RAKIN",
            "lat": 32.244683333333334,
            "lon": 89.86290833333334
        },
        {
            "name": "ROMAR",
            "lat": 32.099280566666664,
            "lon": 90.19860556666667
        },
        {
            "name": "WIRSI",
            "lat": 32.36071943333334,
            "lon": 90.10578333333333
        },
        {
            "name": "WOSBU",
            "lat": 32.655205566666666,
            "lon": 90.27685278333334
        },
        {
            "name": "WUDVI",
            "lat": 32.22678333333333,
            "lon": 90.40825556666667
        },
        {
            "name": "ZIKET",
            "lat": 32.224927783333335,
            "lon": 90.04671388333334
        },
        {
            "name": "ZIPGI",
            "lat": 32.45331111666667,
            "lon": 90.49301388333333
        },
        {
            "name": "ZUTSI",
            "lat": 32.214213883333336,
            "lon": 90.02350278333333
        }
    ],
    "rnws": [
        "RNW 16L",
        "RNW 16R",
        "RNW 34L",
        "RNW 34R"
    ],
    "sids": [],
    "stars": [],
    "approaches": [
        {
            "name": "VORD16L",
            "fixes": {
                "HIKIG": "HIKIG AT OR ABOVE 2500",
                "MHZ": "MHZ 2500 RNW 16L TRK 171 UNTIL 750 HDG 103 INTERCEPT RADIAL 134 TO",
                "RAKIN": "RAKIN RAKIN AT OR ABOVE 3000 HOLD AT RAKIN RIGHT TURN INBOUNDCOURSE 314 LEGTIME 1 FAF MHZ MAP RNW 16L"
            },
            "transitions": [
                {
                    "name": "MHZ",
                    "fixes": {
                        "MHZ": "MHZ",
                        "HIKIG": "HIKIG AT OR ABOVE 2500 HOLD AT HIKIG LEFT TURN INBOUNDCOURSE 175 ALT 2500 LEGTIME 1"
                    }
                },
                {
                    "name": "NOYIG",
                    "fixes": {
                        "NOYIG": "NOYIG"
                    }
                }
            ]
        },
        {
            "name": "VORD16R",
            "fixes": {
                "HIKIG": "HIKIG AT OR ABOVE 2500",
                "MHZ": "MHZ 2500 RNW 16R TRK 175 UNTIL 750 HDG 103 INTERCEPT RADIAL 134 TO",
                "RAKIN": "RAKIN RAKIN AT OR ABOVE 3000 HOLD AT RAKIN RIGHT TURN INBOUNDCOURSE 314 LEGTIME 1 FAF MHZ MAP RNW 16R"
            },
            "transitions": [
                {
                    "name": "MHZ",
                    "fixes": {
                        "MHZ": "MHZ",
                        "HIKIG": "HIKIG AT OR ABOVE 2500 HOLD AT HIKIG LEFT TURN INBOUNDCOURSE 175 ALT 2500 LEGTIME 1"
                    }
                },
                {
                    "name": "NOYIG",
                    "fixes": {
                        "NOYIG": "NOYIG"
                    }
                }
            ]
        },
        {
            "name": "VORD34L",
            "fixes": {
                "CUVEN": "CUVEN AT OR ABOVE 3500",
                "CAYAD": "CAYAD 2000 RNW 34L TRK 352 UNTIL 750 TURN RIGHT HDG 120 INTERCEPT RADIAL 134 TO",
                "RAKIN": "RAKIN RAKIN AT OR ABOVE 3000 HOLD AT RAKIN RIGHT TURN INBOUNDCOURSE 314 LEGTIME 1 FAF CAYAD MAP RNW 34L"
            },
            "transitions": [
                {
                    "name": "ENAKE",
                    "fixes": {
                        "ENAKE": "ENAKE",
                        "AF001": "AF001",
                        "AF002": "AF002",
                        "OBUJI": "OBUJI AT OR ABOVE 3500"
                    }
                },
                {
                    "name": "MHZ",
                    "fixes": {
                        "MHZ": "MHZ",
                        "CAYAD": "CAYAD AT OR ABOVE 2100",
                        "PI001": "PI001 AT OR ABOVE 2100 SPEED 210",
                        "PI002": "OVERFLY PI002 AT OR ABOVE 2100 SPEED 210",
                        "PI003": "PI003 AT OR ABOVE 2100 SPEED 210"
                    }
                },
                {
                    "name": "OBUJI",
                    "fixes": {
                        "OBUJI": "OBUJI"
                    }
                },
                {
                    "name": "WUDVI",
                    "fixes": {
                        "WUDVI": "WUDVI"
                    }
                },
                {
                    "name": "ZIPGI",
                    "fixes": {
                        "ZIPGI": "ZIPGI",
                        "AF003": "AF003",
                        "AF004": "AF004",
                        "WUDVI": "WUDVI AT OR ABOVE 3500"
                    }
                }
            ]
        },
        {
            "name": "VORD34R",
            "fixes": {
                "HUXAP": "HUXAP AT OR ABOVE 3500",
                "ZIKET": "ZIKET 2000 RNW 34R TRK 349 UNTIL 750 TURN RIGHT HDG 120 INTERCEPT RADIAL 134 TO",
                "RAKIN": "RAKIN RAKIN AT OR ABOVE 3000 HOLD AT RAKIN RIGHT TURN INBOUNDCOURSE 314 LEGTIME 1 FAF ZIKET MAP RNW 34R"
            },
            "transitions": [
                {
                    "name": "ENAKE",
                    "fixes": {
                        "ENAKE": "ENAKE",
                        "AF001": "AF001",
                        "AF002": "AF002",
                        "OBUJI": "OBUJI AT OR ABOVE 3500"
                    }
                },
                {
                    "name": "MHZ",
                    "fixes": {
                        "MHZ": "MHZ",
                        "ZIKET": "ZIKET AT OR ABOVE 2100",
                        "PI004": "PI004 AT OR ABOVE 2100 SPEED 210",
                        "PI005": "OVERFLY PI005 AT OR ABOVE 2100 SPEED 210",
                        "PI006": "PI006 AT OR ABOVE 2100 SPEED 210"
                    }
                },
                {
                    "name": "OBUJI",
                    "fixes": {
                        "OBUJI": "OBUJI"
                    }
                },
                {
                    "name": "WUDVI",
                    "fixes": {
                        "WUDVI": "WUDVI"
                    }
                },
                {
                    "name": "ZIPGI",
                    "fixes": {
                        "ZIPGI": "ZIPGI",
                        "AF003": "AF003",
                        "AF004": "AF004",
                        "WUDVI": "WUDVI AT OR ABOVE 3500"
                    }
                }
            ]
        },
        {
            "name": "ILS16L",
            "fixes": {
                "IGIHI": "IGIHI AT OR ABOVE 2200",
                "ALLEN": "ALLEN 2155 RNW 16L TRK 159 UNTIL 800 HDG 090 INTERCEPT RADIAL 134 TO",
                "RAKIN": "RAKIN RAKIN AT OR ABOVE 3000 HOLD AT RAKIN RIGHT TURN INBOUNDCOURSE 314 LEGTIME 1 FAF ALLEN MAP RNW 16L"
            },
            "transitions": [
                {
                    "name": "ECESU",
                    "fixes": {
                        "ECESU": "ECESU",
                        "AF005": "AF005",
                        "AF006": "AF006",
                        "AF007": "AF007",
                        "D344H": "D344H AT OR ABOVE 2200"
                    }
                },
                {
                    "name": "FANEN",
                    "fixes": {
                        "FANEN": "FANEN",
                        "ALLEN": "ALLEN AT OR ABOVE 2200",
                        "PI007": "PI007 AT OR ABOVE 2200 SPEED 210",
                        "PI008": "OVERFLY PI008 AT OR ABOVE 2200 SPEED 210",
                        "PI009": "PI009 AT OR ABOVE 2200 SPEED 210"
                    }
                },
                {
                    "name": "MHZ",
                    "fixes": {
                        "MHZ": "MHZ",
                        "ALLEN": "ALLEN AT OR ABOVE 2200",
                        "PI007": "PI007 AT OR ABOVE 2200 SPEED 210",
                        "PI008": "OVERFLY PI008 AT OR ABOVE 2200 SPEED 210",
                        "PI009": "PI009 AT OR ABOVE 2200 SPEED 210"
                    }
                },
                {
                    "name": "ROMAR",
                    "fixes": {
                        "ROMAR": "ROMAR",
                        "ALLEN": "ALLEN AT OR ABOVE 2200",
                        "PI007": "PI007 AT OR ABOVE 2200 SPEED 210",
                        "PI008": "OVERFLY PI008 AT OR ABOVE 2200 SPEED 210",
                        "PI009": "PI009 AT OR ABOVE 2200 SPEED 210"
                    }
                },
                {
                    "name": "WOSBU",
                    "fixes": {
                        "WOSBU": "WOSBU HDG 113 INTERCEPT RADIAL 159 TO",
                        "IGIHI": "IGIHI"
                    }
                }
            ]
        },
        {
            "name": "ILS34L",
            "fixes": {
                "FAVIN": "FAVIN AT OR ABOVE 3500",
                "DABEY": "DABEY 1800 RNW 34L TRK 339 UNTIL 1200 TURN RIGHT HDG 070 INTERCEPT RADIAL 134 TO",
                "RAKIN": "RAKIN RAKIN AT OR ABOVE 3000 HOLD AT RAKIN RIGHT TURN INBOUNDCOURSE 314 LEGTIME 1 FAF DABEY MAP RNW 34L"
            },
            "transitions": [
                {
                    "name": "ENAKE",
                    "fixes": {
                        "ENAKE": "ENAKE",
                        "AF001": "AF001",
                        "AF002": "AF002",
                        "OBUJI": "OBUJI AT OR ABOVE 3500",
                        "AF008": "AF008",
                        "AF009": "AF009",
                        "D158T": "D158T AT OR ABOVE 3500"
                    }
                },
                {
                    "name": "MHZ",
                    "fixes": {
                        "MHZ": "MHZ",
                        "DABEY": "DABEY AT OR ABOVE 2100",
                        "PI010": "PI010 AT OR ABOVE 2100 SPEED 210",
                        "PI011": "OVERFLY PI011 AT OR ABOVE 2100 SPEED 210",
                        "PI012": "PI012 AT OR ABOVE 2100 SPEED 210"
                    }
                },
                {
                    "name": "OBUJI",
                    "fixes": {
                        "OBUJI": "OBUJI",
                        "AF008": "AF008",
                        "AF009": "AF009",
                        "D158T": "D158T AT OR ABOVE 3500"
                    }
                },
                {
                    "name": "WUDVI",
                    "fixes": {
                        "WUDVI": "WUDVI",
                        "AF010": "AF010",
                        "AF011": "AF011",
                        "AF012": "AF012",
                        "D171T": "D171T AT OR ABOVE 3500"
                    }
                },
                {
                    "name": "ZIPGI",
                    "fixes": {
                        "ZIPGI": "ZIPGI",
                        "AF003": "AF003",
                        "AF004": "AF004",
                        "WUDVI": "WUDVI AT OR ABOVE 3500",
                        "AF010": "AF010",
                        "AF011": "AF011",
                        "AF012": "AF012",
                        "D171T": "D171T AT OR ABOVE 3500"
                    }
                }
            ]
        },
        {
            "name": "RNAV16L",
            "fixes": {
                "KAYER": "KAYER AT OR ABOVE 3000",
                "HARAG": "HARAG 2200",
                "HIGPU": "HIGPU AT OR ABOVE 1340 RNW 16L TRK 159 UNTIL 512",
                "MASPY": "OVERFLY MASPY AT OR ABOVE 3000 HOLD AT MASPY RIGHT TURN INBOUNDCOURSE 339 LEGDIST 7 FAF HARAG MAP RNW 16L"
            },
            "transitions": [
                {
                    "name": "KAYER",
                    "fixes": {
                        "KAYER": "KAYER RIGHT TURN INBOUNDCOURSE 159 ALT 3000 LEGDIST 7"
                    }
                }
            ]
        },
        {
            "name": "RNAV16R",
            "fixes": {
                "MOPKE": "MOPKE AT OR ABOVE 3000",
                "DEKLE": "DEKLE 2000",
                "WIRSI": "WIRSI AT OR ABOVE 1280 RNW 16R TRK 159 UNTIL 621",
                "FAVIN": "OVERFLY FAVIN AT OR ABOVE 3000 HOLD AT FAVIN RIGHT TURN INBOUNDCOURSE 339 LEGDIST 7 FAF DEKLE MAP RNW 16R"
            },
            "transitions": [
                {
                    "name": "MOPKE",
                    "fixes": {
                        "MOPKE": "MOPKE RIGHT TURN INBOUNDCOURSE 159 ALT 3000 LEGDIST 7"
                    }
                }
            ]
        },
        {
            "name": "RNAV34L",
            "fixes": {
                "FAVIN": "FAVIN AT OR ABOVE 3000",
                "DABEY": "DABEY 1800",
                "CEKBI": "CEKBI AT OR ABOVE 1020 RNW 34L TRK 339 UNTIL 579",
                "MOPKE": "OVERFLY MOPKE AT OR ABOVE 3000 HOLD AT MOPKE RIGHT TURN INBOUNDCOURSE 159 LEGDIST 7 FAF DABEY MAP RNW 34L"
            },
            "transitions": [
                {
                    "name": "FAVIN",
                    "fixes": {
                        "FAVIN": "FAVIN RIGHT TURN INBOUNDCOURSE 339 ALT 3000 LEGDIST 7"
                    }
                }
            ]
        },
        {
            "name": "RNAV34R",
            "fixes": {
                "MASPY": "MASPY AT OR ABOVE 3000",
                "ZUTSI": "ZUTSI 2300 RNW 34R TRK 339 UNTIL 646",
                "KAYER": "OVERFLY KAYER AT OR ABOVE 3000 HOLD AT KAYER RIGHT TURN INBOUNDCOURSE 159 LEGDIST 7 FAF ZUTSI MAP RNW 34R"
            },
            "transitions": [
                {
                    "name": "MASPY",
                    "fixes": {
                        "MASPY": "MASPY RIGHT TURN INBOUNDCOURSE 339 ALT 3000 LEGDIST 7"
                    }
                }
            ]
        },
        {
            "name": "VOR16L",
            "fixes": {
                "HIKIG": "HIKIG AT OR ABOVE 2500",
                "MHZ": "MHZ 2500 RNW 16L TRK 171 UNTIL 750 HDG 103 INTERCEPT RADIAL 134 TO",
                "RAKIN": "RAKIN RAKIN AT OR ABOVE 3000 HOLD AT RAKIN RIGHT TURN INBOUNDCOURSE 314 LEGTIME 1 FAF MHZ MAP RNW 16L"
            },
            "transitions": [
                {
                    "name": "MHZ",
                    "fixes": {
                        "MHZ": "MHZ",
                        "HIKIG": "HIKIG AT OR ABOVE 2500 HOLD AT HIKIG LEFT TURN INBOUNDCOURSE 175 ALT 2500 LEGTIME 1"
                    }
                },
                {
                    "name": "NOYIG",
                    "fixes": {
                        "NOYIG": "NOYIG"
                    }
                }
            ]
        },
        {
            "name": "VOR16R",
            "fixes": {
                "HIKIG": "HIKIG AT OR ABOVE 2500",
                "MHZ": "MHZ 2500 RNW 16R TRK 175 UNTIL 750 HDG 103 INTERCEPT RADIAL 134 TO",
                "RAKIN": "RAKIN RAKIN AT OR ABOVE 3000 HOLD AT RAKIN RIGHT TURN INBOUNDCOURSE 314 LEGTIME 1 FAF MHZ MAP RNW 16R"
            },
            "transitions": [
                {
                    "name": "MHZ",
                    "fixes": {
                        "MHZ": "MHZ",
                        "HIKIG": "HIKIG AT OR ABOVE 2500 HOLD AT HIKIG LEFT TURN INBOUNDCOURSE 175 ALT 2500 LEGTIME 1"
                    }
                },
                {
                    "name": "NOYIG",
                    "fixes": {
                        "NOYIG": "NOYIG"
                    }
                }
            ]
        },
        {
            "name": "VOR34L",
            "fixes": {
                "CUVEN": "CUVEN AT OR ABOVE 3500",
                "CAYAD": "CAYAD 2000 RNW 34L TRK 352 UNTIL 750 TURN RIGHT HDG 120 INTERCEPT RADIAL 134 TO",
                "RAKIN": "RAKIN RAKIN AT OR ABOVE 3000 HOLD AT RAKIN RIGHT TURN INBOUNDCOURSE 314 LEGTIME 1 FAF CAYAD MAP RNW 34L"
            },
            "transitions": [
                {
                    "name": "ENAKE",
                    "fixes": {
                        "ENAKE": "ENAKE",
                        "AF001": "AF001",
                        "AF002": "AF002",
                        "OBUJI": "OBUJI AT OR ABOVE 3500"
                    }
                },
                {
                    "name": "MHZ",
                    "fixes": {
                        "MHZ": "MHZ",
                        "CAYAD": "CAYAD AT OR ABOVE 2100",
                        "PI001": "PI001 AT OR ABOVE 2100 SPEED 210",
                        "PI002": "OVERFLY PI002 AT OR ABOVE 2100 SPEED 210",
                        "PI003": "PI003 AT OR ABOVE 2100 SPEED 210"
                    }
                },
                {
                    "name": "OBUJI",
                    "fixes": {
                        "OBUJI": "OBUJI"
                    }
                },
                {
                    "name": "WUDVI",
                    "fixes": {
                        "WUDVI": "WUDVI"
                    }
                },
                {
                    "name": "ZIPGI",
                    "fixes": {
                        "ZIPGI": "ZIPGI",
                        "AF003": "AF003",
                        "AF004": "AF004",
                        "WUDVI": "WUDVI AT OR ABOVE 3500"
                    }
                }
            ]
        },
        {
            "name": "VOR34R",
            "fixes": {
                "HUXAP": "HUXAP AT OR ABOVE 3500",
                "ZIKET": "ZIKET 2000 RNW 34R TRK 349 UNTIL 750 TURN RIGHT HDG 120 INTERCEPT RADIAL 134 TO",
                "RAKIN": "RAKIN RAKIN AT OR ABOVE 3000 HOLD AT RAKIN RIGHT TURN INBOUNDCOURSE 314 LEGTIME 1 FAF ZIKET MAP RNW 34R"
            },
            "transitions": [
                {
                    "name": "ENAKE",
                    "fixes": {
                        "ENAKE": "ENAKE",
                        "AF001": "AF001",
                        "AF002": "AF002",
                        "OBUJI": "OBUJI AT OR ABOVE 3500"
                    }
                },
                {
                    "name": "MHZ",
                    "fixes": {
                        "MHZ": "MHZ",
                        "ZIKET": "ZIKET AT OR ABOVE 2100",
                        "PI004": "PI004 AT OR ABOVE 2100 SPEED 210",
                        "PI005": "OVERFLY PI005 AT OR ABOVE 2100 SPEED 210",
                        "PI006": "PI006 AT OR ABOVE 2100 SPEED 210"
                    }
                },
                {
                    "name": "OBUJI",
                    "fixes": {
                        "OBUJI": "OBUJI"
                    }
                },
                {
                    "name": "WUDVI",
                    "fixes": {
                        "WUDVI": "WUDVI"
                    }
                },
                {
                    "name": "ZIPGI",
                    "fixes": {
                        "ZIPGI": "ZIPGI",
                        "AF003": "AF003",
                        "AF004": "AF004",
                        "WUDVI": "WUDVI AT OR ABOVE 3500"
                    }
                }
            ]
        }
    ]
}