{
    "fixes": [
        {
            "name": "CHAPN",
            "lat": 34.174194433333334,
            "lon": 109.27501111666666
        },
        {
            "name": "IFADE",
            "lat": 34.28161111666667,
            "lon": 109.20358056666667
        },
        {
            "name": "IWEDU",
            "lat": 34.208547216666666,
            "lon": 109.25219166666666
        },
        {
            "name": "MIKVE",
            "lat": 34.14462221666667,
            "lon": 109.29463888333333
        },
        {
            "name": "SJN",
            "lat": 34.42404166666667,
            "lon": 109.14353056666667
        }
    ],
    "rnws": [
        "RNW 03",
        "RNW 11",
        "RNW 21",
        "RNW 29"
    ],
    "sids": [],
    "stars": [],
    "approaches": [
        {
            "name": "RNAV21",
            "fixes": {
                "IFADE": "IFADE AT OR ABOVE 9500 OVERFLY IFADE AT OR ABOVE 12000 HOLD AT IFADE RIGHT TURN INBOUNDCOURSE 197 LEGDIST 7 FAF IWEDU MAP MIKVE",
                "IWEDU": "IWEDU 8700",
                "CHAPN": "CHAPN AT OR ABOVE 7900",
                "MIKVE": "OVERFLY MIKVE 7216 RNW 21 TRK 197 UNTIL 7455 TURN RIGHT DIRECT"
            },
            "transitions": [
                {
                    "name": "IFADE",
                    "fixes": {
                        "IFADE": "IFADE RIGHT TURN INBOUNDCOURSE 197 ALT 9500 LEGDIST 7"
                    }
                },
                {
                    "name": "SJN",
                    "fixes": {
                        "SJN": "SJN"
                    }
                }
            ]
        }
    ]
}