{
    "fixes": [
        {
            "name": "AJBOF",
            "lat": 46.62146943333333,
            "lon": 96.92495833333334
        },
        {
            "name": "CHAFE",
            "lat": 46.80940833333333,
            "lon": 97.39012778333333
        },
        {
            "name": "COLFX",
            "lat": 46.473644433333334,
            "lon": 96.80637221666667
        },
        {
            "name": "DURBN",
            "lat": 46.737688883333334,
            "lon": 97.2421
        },
        {
            "name": "FAR",
            "lat": 46.75333611666667,
            "lon": 96.85131943333333
        },
        {
            "name": "FIXER",
            "lat": 46.60178333333333,
            "lon": 96.87161388333334
        },
        {
            "name": "HUKEX",
            "lat": 46.81863611666667,
            "lon": 97.1796
        },
        {
            "name": "KENNT",
            "lat": 46.55435833333333,
            "lon": 96.74353333333333
        },
        {
            "name": "PAWSS",
            "lat": 47.08084721666667,
            "lon": 96.94088611666666
        },
        {
            "name": "RUSTD",
            "lat": 46.42553611666666,
            "lon": 96.90644443333333
        },
        {
            "name": "USYAP",
            "lat": 46.690536116666664,
            "lon": 97.11296943333333
        },
        {
            "name": "WIRDE",
            "lat": 46.610472216666665,
            "lon": 96.55339721666667
        }
    ],
    "rnws": [
        "RNW 11",
        "RNW 29"
    ],
    "sids": [],
    "stars": [],
    "approaches": [
        {
            "name": "RNAV11",
            "fixes": {
                "DURBN": "DURBN AT OR ABOVE 3000",
                "USYAP": "USYAP 2600 RNW 11 TRK 114 UNTIL 1347",
                "KENNT": "OVERFLY KENNT AT OR ABOVE 3000 HOLD AT KENNT LEFT TURN INBOUNDCOURSE 294 LEGDIST 4 FAF USYAP MAP RNW 11"
            },
            "transitions": [
                {
                    "name": "CHAFE",
                    "fixes": {
                        "CHAFE": "CHAFE"
                    }
                },
                {
                    "name": "DURBN",
                    "fixes": {
                        "DURBN": "DURBN RIGHT TURN INBOUNDCOURSE 114 ALT 3000 LEGDIST 4"
                    }
                },
                {
                    "name": "FAR",
                    "fixes": {
                        "FAR": "FAR",
                        "HUKEX": "HUKEX AT OR ABOVE 3000"
                    }
                },
                {
                    "name": "PAWSS",
                    "fixes": {
                        "PAWSS": "PAWSS",
                        "HUKEX": "HUKEX AT OR ABOVE 3000"
                    }
                }
            ]
        },
        {
            "name": "RNAV29",
            "fixes": {
                "KENNT": "KENNT AT OR ABOVE 3000",
                "FIXER": "FIXER 2800",
                "AJBOF": "AJBOF AT OR ABOVE 2000 RNW 29 TRK 294 UNTIL 1347",
                "DURBN": "OVERFLY DURBN AT OR ABOVE 3000 HOLD AT DURBN RIGHT TURN INBOUNDCOURSE 114 LEGDIST 4 FAF FIXER MAP RNW 29"
            },
            "transitions": [
                {
                    "name": "FAR",
                    "fixes": {
                        "FAR": "FAR",
                        "KENNT": "OVERFLY KENNT AT OR ABOVE 3000 HOLD AT KENNT LEFT TURN INBOUNDCOURSE 294 ALT 3000 LEGDIST 4"
                    }
                },
                {
                    "name": "RUSTD",
                    "fixes": {
                        "RUSTD": "RUSTD",
                        "COLFX": "COLFX AT OR ABOVE 3000"
                    }
                },
                {
                    "name": "WIRDE",
                    "fixes": {
                        "WIRDE": "WIRDE"
                    }
                }
            ]
        }
    ]
}