{
    "fixes": [
        {
            "name": "ADELA",
            "lat": 38.71491388333333,
            "lon": 97.23614721666667
        },
        {
            "name": "CHALK",
            "lat": 38.91081943333333,
            "lon": 97.34184721666666
        },
        {
            "name": "ECHEL",
            "lat": 38.67325833333334,
            "lon": 97.32836388333334
        },
        {
            "name": "EZTIX",
            "lat": 38.67308056666667,
            "lon": 97.14406111666666
        },
        {
            "name": "FINEB",
            "lat": 39.09318888333333,
            "lon": 97.23555556666666
        },
        {
            "name": "HOSKU",
            "lat": 39.13494443333333,
            "lon": 97.32824166666667
        },
        {
            "name": "IKEHU",
            "lat": 38.8091,
            "lon": 97.236
        },
        {
            "name": "KELEC",
            "lat": 38.90522778333333,
            "lon": 97.23623611666666
        },
        {
            "name": "OKADY",
            "lat": 38.998875,
            "lon": 97.23570556666667
        },
        {
            "name": "PIGYI",
            "lat": 39.13476943333333,
            "lon": 97.14273888333334
        },
        {
            "name": "SLN",
            "lat": 38.92513888333333,
            "lon": 97.62133333333334
        },
        {
            "name": "WOBLO",
            "lat": 38.9614,
            "lon": 97.23576388333333
        },
        {
            "name": "ZEDUD",
            "lat": 38.86505833333333,
            "lon": 97.23591388333334
        }
    ],
    "rnws": [
        "RNW 17",
        "RNW 35"
    ],
    "sids": [],
    "stars": [],
    "approaches": [
        {
            "name": "RNAV17",
            "fixes": {
                "FINEB": "FINEB AT OR ABOVE 3400",
                "OKADY": "OKADY 2900",
                "WOBLO": "WOBLO AT OR ABOVE 2180 RNW 17 TRK 173 UNTIL 1553",
                "ADELA": "OVERFLY ADELA AT OR ABOVE 3400 HOLD AT ADELA RIGHT TURN INBOUNDCOURSE 353 LEGDIST 4 FAF OKADY MAP RNW 17"
            },
            "transitions": [
                {
                    "name": "FINEB",
                    "fixes": {
                        "FINEB": "FINEB RIGHT TURN INBOUNDCOURSE 173 ALT 3400 LEGDIST 4"
                    }
                },
                {
                    "name": "HOSKU",
                    "fixes": {
                        "HOSKU": "HOSKU"
                    }
                },
                {
                    "name": "PIGYI",
                    "fixes": {
                        "PIGYI": "PIGYI"
                    }
                }
            ]
        },
        {
            "name": "RNAV35",
            "fixes": {
                "ADELA": "ADELA AT OR ABOVE 3400",
                "IKEHU": "IKEHU 2900",
                "ZEDUD": "ZEDUD AT OR ABOVE 1820 RNW 35 TRK 353 UNTIL 1468",
                "FINEB": "OVERFLY FINEB AT OR ABOVE 3400 HOLD AT FINEB RIGHT TURN INBOUNDCOURSE 173 LEGDIST 4 FAF IKEHU MAP RNW 35"
            },
            "transitions": [
                {
                    "name": "ADELA",
                    "fixes": {
                        "ADELA": "ADELA RIGHT TURN INBOUNDCOURSE 353 ALT 3400 LEGDIST 4"
                    }
                },
                {
                    "name": "ECHEL",
                    "fixes": {
                        "ECHEL": "ECHEL"
                    }
                },
                {
                    "name": "EZTIX",
                    "fixes": {
                        "EZTIX": "EZTIX"
                    }
                }
            ]
        },
        {
            "name": "VORA17",
            "fixes": {
                "CHALK": "CHALK 3000 CHALK CHALK AT OR ABOVE 3000 HOLD AT CHALK RIGHT TURN INBOUNDCOURSE 087 LEGTIME 1 FAF CHALK MAP KELEC",
                "KELEC": "KELEC 1980 RNW 17 TRK 087 UNTIL 2600 TURN RIGHT HDG 320 INTERCEPT RADIAL 267 TO"
            },
            "transitions": [
                {
                    "name": "CHALK",
                    "fixes": {
                        "CHALK": "CHALK RIGHT TURN INBOUNDCOURSE 087 ALT 3000 LEGTIME 1"
                    }
                },
                {
                    "name": "SLN",
                    "fixes": {
                        "SLN": "SLN"
                    }
                }
            ]
        },
        {
            "name": "VORA35",
            "fixes": {
                "CHALK": "CHALK 3000 CHALK CHALK AT OR ABOVE 3000 HOLD AT CHALK RIGHT TURN INBOUNDCOURSE 087 LEGTIME 1 FAF CHALK MAP KELEC",
                "KELEC": "KELEC 1980 RNW 35 TRK 087 UNTIL 2600 TURN RIGHT HDG 320 INTERCEPT RADIAL 267 TO"
            },
            "transitions": [
                {
                    "name": "CHALK",
                    "fixes": {
                        "CHALK": "CHALK RIGHT TURN INBOUNDCOURSE 087 ALT 3000 LEGTIME 1"
                    }
                },
                {
                    "name": "SLN",
                    "fixes": {
                        "SLN": "SLN"
                    }
                }
            ]
        }
    ]
}