{
    "fixes": [
        {
            "name": "BACRA",
            "lat": 35.41891111666666,
            "lon": 118.000775
        },
        {
            "name": "CIBIV",
            "lat": 35.31791943333333,
            "lon": 117.810425
        },
        {
            "name": "CIRDA",
            "lat": 35.32932778333333,
            "lon": 118.02226388333334
        },
        {
            "name": "COTBA",
            "lat": 35.01569443333333,
            "lon": 118.25936666666666
        },
        {
            "name": "FEKIG",
            "lat": 35.15537221666666,
            "lon": 117.99718056666667
        },
        {
            "name": "GOVVE",
            "lat": 34.94225278333333,
            "lon": 118.35359443333333
        },
        {
            "name": "HETOM",
            "lat": 35.191822216666665,
            "lon": 117.938975
        },
        {
            "name": "ICINA",
            "lat": 35.25480556666667,
            "lon": 117.85624721666667
        },
        {
            "name": "JERID",
            "lat": 34.87283611666667,
            "lon": 118.37852221666667
        },
        {
            "name": "JODIP",
            "lat": 35.08564166666667,
            "lon": 118.169375
        },
        {
            "name": "LHS",
            "lat": 34.68297221666667,
            "lon": 118.57693888333333
        },
        {
            "name": "MIVDE",
            "lat": 35.13898888333333,
            "lon": 118.03259721666667
        },
        {
            "name": "ODACE",
            "lat": 35.147125,
            "lon": 118.03613611666667
        },
        {
            "name": "PEXOE",
            "lat": 35.418286116666664,
            "lon": 117.73738333333333
        },
        {
            "name": "RABME",
            "lat": 35.27820833333333,
            "lon": 117.87176666666667
        },
        {
            "name": "RAKVE",
            "lat": 35.203155566666666,
            "lon": 117.89368333333333
        },
        {
            "name": "UGONE",
            "lat": 35.00321666666667,
            "lon": 118.25150278333334
        },
        {
            "name": "WIRUS",
            "lat": 35.170302783333334,
            "lon": 117.92641111666667
        },
        {
            "name": "ZUSUR",
            "lat": 35.13661666666667,
            "lon": 118.08561111666667
        }
    ],
    "rnws": [
        "RNW 06",
        "RNW 24"
    ],
    "sids": [
        {
            "name": "L711",
            "rnw": "12",
            "fixes": {},
            "sub_fixes": [
                {
                    "rwy": "RNW 06",
                    "fixes": {
                        "RNW 06": "RNW 06",
                        "WIRUS": "WIRUS",
                        "RABME": "RABME",
                        "CIRDA": "CIRDA",
                        "UGONE": "UGONE",
                        "LHS": "LHS"
                    }
                },
                {
                    "rwy": "RNW 24",
                    "fixes": {
                        "RNW 24": "RNW 24",
                        "ZUSUR": "ZUSUR",
                        "UGONE": "UGONE",
                        "LHS": "LHS"
                    }
                }
            ],
            "transitions": []
        }
    ],
    "stars": [],
    "approaches": [
        {
            "name": "RNAV06",
            "fixes": {
                "COTBA": "COTBA AT OR ABOVE 7000",
                "JODIP": "JODIP 5100",
                "ODACE": "ODACE 2664 RNW 06 TRK 047 UNTIL 2854",
                "HETOM": "HETOM",
                "BACRA": "BACRA HOLD AT BACRA LEFT TURN INBOUNDCOURSE 000 ALT 9000 LEGDIST 11 FAF JODIP MAP ODACE"
            },
            "transitions": [
                {
                    "name": "GOVVE",
                    "fixes": {
                        "GOVVE": "GOVVE AT OR ABOVE 9000"
                    }
                }
            ]
        },
        {
            "name": "RNAV24",
            "fixes": {
                "ICINA": "ICINA AT OR ABOVE 5600",
                "RAKVE": "RAKVE 4500",
                "FEKIG": "FEKIG 2610 RNW 24 TRK 227 UNTIL 2854",
                "MIVDE": "MIVDE",
                "JERID": "JERID HOLD AT JERID RIGHT TURN INBOUNDCOURSE 029 ALT 9000 LEGDIST 11 FAF RAKVE MAP FEKIG"
            },
            "transitions": [
                {
                    "name": "PEXOE",
                    "fixes": {
                        "PEXOE": "PEXOE AT OR ABOVE 9000",
                        "CIBIV": "CIBIV AT OR ABOVE 6900"
                    }
                }
            ]
        }
    ]
}