{
    "fixes": [
        {
            "name": "ANDYE",
            "lat": 38.01451111666667,
            "lon": 85.59189166666667
        },
        {
            "name": "APE",
            "lat": 40.151063883333336,
            "lon": 82.5883
        },
        {
            "name": "BNNUS",
            "lat": 38.27649443333333,
            "lon": 85.55898888333333
        },
        {
            "name": "CAANT",
            "lat": 38.08534443333333,
            "lon": 85.53226111666666
        },
        {
            "name": "CHERI",
            "lat": 38.23020833333333,
            "lon": 86.51490278333333
        },
        {
            "name": "CVG",
            "lat": 39.01598056666667,
            "lon": 84.70334721666667
        },
        {
            "name": "DARBY",
            "lat": 37.654330566666665,
            "lon": 84.95343611666667
        },
        {
            "name": "ENL",
            "lat": 38.42,
            "lon": 89.15899721666666
        },
        {
            "name": "GDUPP",
            "lat": 38.15119166666667,
            "lon": 85.5936
        },
        {
            "name": "HCH",
            "lat": 35.78101388333333,
            "lon": 84.97845278333334
        },
        {
            "name": "IFALN",
            "lat": 38.14271943333333,
            "lon": 85.428425
        },
        {
            "name": "IIU",
            "lat": 38.10346388333333,
            "lon": 85.57743611666666
        },
        {
            "name": "LKNB",
            "lat": 38.14480278333333,
            "lon": 85.63339443333334
        },
        {
            "name": "LOZ",
            "lat": 37.03315,
            "lon": 84.110075
        },
        {
            "name": "LVT",
            "lat": 36.58450833333333,
            "lon": 85.16662221666667
        },
        {
            "name": "NERVE",
            "lat": 38.61562778333333,
            "lon": 85.09034443333333
        },
        {
            "name": "NUNYA",
            "lat": 38.318702783333336,
            "lon": 85.46733056666666
        },
        {
            "name": "PENTO",
            "lat": 38.32869721666667,
            "lon": 87.28798056666666
        },
        {
            "name": "PI001",
            "lat": 38.088727416666664,
            "lon": 85.61296535
        },
        {
            "name": "PI002",
            "lat": 38.05395586666667,
            "lon": 85.53336331666667
        },
        {
            "name": "PI003",
            "lat": 37.98457808333333,
            "lon": 85.57510863333333
        },
        {
            "name": "PUXOJ",
            "lat": 38.197352783333336,
            "lon": 85.63668333333334
        },
        {
            "name": "PXV",
            "lat": 37.928319433333336,
            "lon": 87.76238056666666
        },
        {
            "name": "RDSTN",
            "lat": 38.38961388333333,
            "lon": 85.306375
        },
        {
            "name": "ROD",
            "lat": 40.2878,
            "lon": 84.04309721666667
        },
        {
            "name": "RUHEE",
            "lat": 38.24793056666667,
            "lon": 85.6208
        },
        {
            "name": "SACKO",
            "lat": 38.257266666666666,
            "lon": 86.72384166666667
        },
        {
            "name": "SHIRT",
            "lat": 39.63297778333333,
            "lon": 83.57115
        },
        {
            "name": "TTH",
            "lat": 39.48894166666667,
            "lon": 87.24901388333333
        },
        {
            "name": "UNCKL",
            "lat": 37.481355566666664,
            "lon": 84.71633056666667
        },
        {
            "name": "VXV",
            "lat": 35.90483888333333,
            "lon": 83.89471943333334
        },
        {
            "name": "WARSA",
            "lat": 38.76331388333333,
            "lon": 84.94823611666666
        },
        {
            "name": "ZARDA",
            "lat": 38.377238883333334,
            "lon": 88.20648056666667
        },
        {
            "name": "ZOPOM",
            "lat": 38.23720556666667,
            "lon": 85.451075
        }
    ],
    "rnws": [
        "RNW 06",
        "RNW 15",
        "RNW 24",
        "RNW 33"
    ],
    "sids": [],
    "stars": [
        {
            "name": "CHERI4",
            "runway": "RNW 06 RNW 15 RNW 24 RNW 33",
            "fixes": {
                "CHERI": "CHERI",
                "IIU": "IIU"
            }
        },
        {
            "name": "DARBY8",
            "runway": "RNW 06 RNW 15 RNW 24 RNW 33",
            "fixes": {
                "DARBY": "DARBY",
                "IIU": "IIU"
            }
        },
        {
            "name": "RDSTN6",
            "runway": "RNW 06 RNW 15 RNW 24 RNW 33",
            "fixes": {
                "RDSTN": "RDSTN",
                "ZOPOM": "ZOPOM",
                "IIU": "IIU"
            }
        }
    ],
    "approaches": [
        {
            "name": "NDB33",
            "fixes": {
                "LKNB": "LKNB 2200 RNW 33 TRK 348 UNTIL 950 TURN RIGHT DIRECT LKNB AT OR ABOVE 2500 HOLD AT LKNB RIGHT TURN INBOUNDCOURSE 348 LEGTIME 1 FAF LKNB MAP RNW 33"
            },
            "transitions": [
                {
                    "name": "LK",
                    "fixes": {
                        "PI001": "PI001 AT OR ABOVE 2500 SPEED 210",
                        "PI002": "OVERFLY PI002 AT OR ABOVE 2500 SPEED 210",
                        "PI003": "PI003 AT OR ABOVE 2500 SPEED 210"
                    }
                }
            ]
        },
        {
            "name": "RNAV24",
            "fixes": {
                "NUNYA": "NUNYA AT OR ABOVE 3000",
                "BNNUS": "BNNUS 2300",
                "RUHEE": "RUHEE AT OR ABOVE 1220 RNW 24 TRK 244 UNTIL 1100 TURN LEFT DIRECT",
                "CAANT": "OVERFLY CAANT AT OR ABOVE 3000 HOLD AT CAANT RIGHT TURN INBOUNDCOURSE 328 LEGDIST 4 FAF BNNUS MAP RNW 24"
            },
            "transitions": [
                {
                    "name": "NUNYA",
                    "fixes": {
                        "NUNYA": "NUNYA RIGHT TURN INBOUNDCOURSE 244 ALT 3000 LEGDIST 4"
                    }
                }
            ]
        },
        {
            "name": "RNAV33",
            "fixes": {
                "CAANT": "CAANT AT OR ABOVE 3000",
                "GDUPP": "GDUPP 2300",
                "PUXOJ": "PUXOJ AT OR ABOVE 1200 RNW 33 TRK 328 UNTIL 1000 TURN RIGHT DIRECT",
                "ZOPOM": "OVERFLY ZOPOM AT OR ABOVE 3000 HOLD AT ZOPOM RIGHT TURN INBOUNDCOURSE 221 LEGDIST 4 FAF GDUPP MAP RNW 33"
            },
            "transitions": [
                {
                    "name": "ANDYE",
                    "fixes": {
                        "ANDYE": "ANDYE"
                    }
                },
                {
                    "name": "CAANT",
                    "fixes": {
                        "CAANT": "CAANT RIGHT TURN INBOUNDCOURSE 328 ALT 3000 LEGDIST 4"
                    }
                },
                {
                    "name": "IFALN",
                    "fixes": {
                        "IFALN": "IFALN"
                    }
                }
            ]
        }
    ]
}