{
    "fixes": [
        {
            "name": "BILLI",
            "lat": 34.637475,
            "lon": 91.55634443333334
        },
        {
            "name": "FEMAZ",
            "lat": 34.50072778333333,
            "lon": 91.46653888333333
        },
        {
            "name": "HULUK",
            "lat": 34.22016111666667,
            "lon": 91.46943056666667
        },
        {
            "name": "PBF",
            "lat": 34.24675833333333,
            "lon": 91.926175
        },
        {
            "name": "SIWIN",
            "lat": 34.32075833333333,
            "lon": 91.46839721666667
        },
        {
            "name": "UJM",
            "lat": 34.57504721666667,
            "lon": 90.67440278333333
        },
        {
            "name": "WINUM",
            "lat": 34.219405566666666,
            "lon": 91.36894166666667
        },
        {
            "name": "YUHHO",
            "lat": 34.22083333333333,
            "lon": 91.56991943333334
        }
    ],
    "rnws": [
        "RNW 10",
        "RNW 18",
        "RNW 28",
        "RNW 36"
    ],
    "sids": [],
    "stars": [],
    "approaches": [
        {
            "name": "RNAV36",
            "fixes": {
                "HULUK": "HULUK AT OR ABOVE 2000",
                "SIWIN": "SIWIN 1900 RNW 36 TRK 358 UNTIL 611",
                "FEMAZ": "FEMAZ AT OR ABOVE 2000",
                "BILLI": "BILLI HOLD AT BILLI RIGHT TURN INBOUNDCOURSE 138 LEGDIST 4 FAF SIWIN MAP RNW 36"
            },
            "transitions": [
                {
                    "name": "BILLI",
                    "fixes": {
                        "BILLI": "BILLI",
                        "HULUK": "HULUK AT OR ABOVE 2000 HOLD AT HULUK RIGHT TURN INBOUNDCOURSE 358 ALT 2000 LEGDIST 4"
                    }
                },
                {
                    "name": "PBF",
                    "fixes": {
                        "PBF": "PBF",
                        "YUHHO": "YUHHO AT OR ABOVE 2000"
                    }
                },
                {
                    "name": "UJM",
                    "fixes": {
                        "UJM": "UJM",
                        "WINUM": "WINUM AT OR ABOVE 2000"
                    }
                }
            ]
        }
    ]
}