{
    "fixes": [
        {
            "name": "DNWLS",
            "lat": 44.900325,
            "lon": 74.28261666666667
        },
        {
            "name": "JORAR",
            "lat": 44.954230566666666,
            "lon": 74.06010833333333
        },
        {
            "name": "LAIVS",
            "lat": 44.961097216666666,
            "lon": 74.21830278333333
        },
        {
            "name": "LETUS",
            "lat": 44.622872216666664,
            "lon": 75.45317778333333
        },
        {
            "name": "LIKME",
            "lat": 44.72558888333333,
            "lon": 74.64572221666667
        },
        {
            "name": "MITAH",
            "lat": 44.68911666666666,
            "lon": 74.50482778333334
        },
        {
            "name": "MUNZA",
            "lat": 44.52923333333333,
            "lon": 74.34481111666666
        },
        {
            "name": "NICVI",
            "lat": 44.77023056666667,
            "lon": 74.41972778333333
        },
        {
            "name": "SSENA",
            "lat": 44.914286116666666,
            "lon": 74.72258611666666
        },
        {
            "name": "TRIKY",
            "lat": 44.656508333333335,
            "lon": 73.94374166666667
        },
        {
            "name": "WUVES",
            "lat": 44.60246111666667,
            "lon": 74.41798333333334
        },
        {
            "name": "ZALUM",
            "lat": 44.81707778333333,
            "lon": 74.00635278333333
        },
        {
            "name": "ZELUV",
            "lat": 44.80928333333333,
            "lon": 74.37864721666666
        }
    ],
    "rnws": [
        "RNW 05",
        "RNW 14",
        "RNW 23",
        "RNW 32"
    ],
    "sids": [],
    "stars": [],
    "approaches": [
        {
            "name": "RNAV05",
            "fixes": {
                "MITAH": "MITAH AT OR ABOVE 3600 OVERFLY MITAH AT OR ABOVE 3600 HOLD AT MITAH LEFT TURN INBOUNDCOURSE 052 LEGDIST 4 FAF NICVI MAP RNW 05",
                "NICVI": "NICVI 2800",
                "ZELUV": "ZELUV AT OR ABOVE 1820 RNW 05 TRK 052 UNTIL 1190 TURN LEFT DIRECT"
            },
            "transitions": [
                {
                    "name": "MITAH",
                    "fixes": {
                        "MITAH": "MITAH LEFT TURN INBOUNDCOURSE 052 ALT 3600 LEGDIST 4"
                    }
                },
                {
                    "name": "MUNZA",
                    "fixes": {
                        "MUNZA": "MUNZA",
                        "WUVES": "WUVES AT OR ABOVE 4500"
                    }
                },
                {
                    "name": "SSENA",
                    "fixes": {
                        "SSENA": "SSENA",
                        "LIKME": "LIKME AT OR ABOVE 4500"
                    }
                }
            ]
        },
        {
            "name": "RNAV23",
            "fixes": {
                "LAIVS": "LAIVS AT OR ABOVE 3000",
                "DNWLS": "DNWLS 1800 RNW 23 TRK 232 UNTIL 1155",
                "MITAH": "OVERFLY MITAH AT OR ABOVE 3600 HOLD AT MITAH LEFT TURN INBOUNDCOURSE 052 LEGDIST 4 FAF DNWLS MAP RNW 23"
            },
            "transitions": [
                {
                    "name": "LETUS",
                    "fixes": {
                        "LETUS": "LETUS",
                        "LAIVS": "OVERFLY LAIVS AT OR ABOVE 3000 HOLD AT LAIVS LEFT TURN INBOUNDCOURSE 232 ALT 3000 LEGDIST 4"
                    }
                },
                {
                    "name": "TRIKY",
                    "fixes": {
                        "TRIKY": "TRIKY",
                        "ZALUM": "ZALUM AT OR ABOVE 4700",
                        "JORAR": "JORAR AT OR ABOVE 4000"
                    }
                }
            ]
        }
    ]
}