{
    "fixes": [
        {
            "name": "ADEXE",
            "lat": 43.504663883333336,
            "lon": 116.44825556666666
        },
        {
            "name": "BOI",
            "lat": 43.55281111666667,
            "lon": 116.192125
        },
        {
            "name": "CADKI",
            "lat": 43.570538883333334,
            "lon": 116.95161943333333
        },
        {
            "name": "CUSMU",
            "lat": 43.60185,
            "lon": 116.56241388333333
        },
        {
            "name": "DEFKI",
            "lat": 43.63413611666667,
            "lon": 116.62448611666667
        },
        {
            "name": "EMETT",
            "lat": 43.914025,
            "lon": 116.63539166666666
        },
        {
            "name": "FATAV",
            "lat": 43.518541666666664,
            "lon": 116.40288888333333
        },
        {
            "name": "JUNGA",
            "lat": 43.469822216666664,
            "lon": 116.30999721666667
        },
        {
            "name": "NEMEW",
            "lat": 43.52871666666667,
            "lon": 116.42232778333333
        },
        {
            "name": "NOFFE",
            "lat": 43.57230833333333,
            "lon": 117.04099721666667
        },
        {
            "name": "PARMO",
            "lat": 43.75910556666667,
            "lon": 116.81956388333333
        },
        {
            "name": "WORAT",
            "lat": 43.556930566666665,
            "lon": 116.47629166666667
        },
        {
            "name": "YEPDU",
            "lat": 43.634819433333334,
            "lon": 116.62578611666666
        },
        {
            "name": "ZURMU",
            "lat": 43.71157221666667,
            "lon": 116.77385
        }
    ],
    "rnws": [
        "RNW 11",
        "RNW 29"
    ],
    "sids": [
        {
            "name": "ADEXE1",
            "rnw": "34",
            "fixes": {},
            "sub_fixes": [
                {
                    "rwy": "RNW 11",
                    "fixes": {
                        "RNW 11": "RNW 11 TRK 110 UNTIL 2940 HDG 110 INTERCEPT RADIAL 147 TO",
                        "ADEXE": "ADEXE OVERFLY ADEXE HOLD AT ADEXE LEFT TURN INBOUNDCOURSE 299 ALT 5000 LEGDIST 5"
                    }
                }
            ],
            "transitions": []
        },
        {
            "name": "CADKI1",
            "rnw": "34",
            "fixes": {},
            "sub_fixes": [
                {
                    "rwy": "RNW 29",
                    "fixes": {
                        "RNW 29": "RNW 29 HDG 290 UNTIL 3037",
                        "DEFKI": "DEFKI",
                        "ZURMU": "ZURMU",
                        "CADKI": "OVERFLY CADKI HOLD AT CADKI RIGHT TURN INBOUNDCOURSE 256 ALT 8000 LEGDIST 7"
                    }
                }
            ],
            "transitions": []
        }
    ],
    "stars": [],
    "approaches": [
        {
            "name": "RNAV11",
            "fixes": {
                "ZURMU": "ZURMU AT OR ABOVE 5100",
                "YEPDU": "YEPDU 4200",
                "CUSMU": "CUSMU AT OR ABOVE 3100 RNW 11 TRK 110 UNTIL 2787",
                "NEMEW": "OVERFLY NEMEW AT OR ABOVE 5100 HOLD AT NEMEW RIGHT TURN INBOUNDCOURSE 302 LEGDIST 5 FAF YEPDU MAP RNW 11"
            },
            "transitions": [
                {
                    "name": "BOI",
                    "fixes": {
                        "BOI": "BOI",
                        "ZURMU": "OVERFLY ZURMU AT OR ABOVE 5700 HOLD AT ZURMU RIGHT TURN INBOUNDCOURSE 109 ALT 5100 LEGDIST 5"
                    }
                },
                {
                    "name": "EMETT",
                    "fixes": {
                        "EMETT": "EMETT"
                    }
                },
                {
                    "name": "NOFFE",
                    "fixes": {
                        "NOFFE": "NOFFE"
                    }
                },
                {
                    "name": "PARMO",
                    "fixes": {
                        "PARMO": "PARMO"
                    }
                }
            ]
        },
        {
            "name": "RNAVB29",
            "fixes": {
                "JUNGA": "JUNGA AT OR ABOVE 6000",
                "FATAV": "FATAV 4500",
                "WORAT": "WORAT AT OR ABOVE 3240 RNW 29 TRK 290 UNTIL 2937",
                "DEFKI": "OVERFLY DEFKI AT OR ABOVE 4200 HOLD AT DEFKI RIGHT TURN INBOUNDCOURSE 110 LEGDIST 5 FAF FATAV MAP RNW 29"
            },
            "transitions": [
                {
                    "name": "BOI",
                    "fixes": {
                        "BOI": "BOI"
                    }
                }
            ]
        }
    ]
}