{
    "fixes": [
        {
            "name": "ARDEN",
            "lat": 38.55237221666667,
            "lon": 121.37833056666666
        },
        {
            "name": "BONDZ",
            "lat": 38.80083056666667,
            "lon": 121.40038611666667
        },
        {
            "name": "DASHE",
            "lat": 38.867558333333335,
            "lon": 121.40033333333334
        },
        {
            "name": "ILA",
            "lat": 39.071175,
            "lon": 122.02726943333333
        },
        {
            "name": "KUZIE",
            "lat": 38.470216666666666,
            "lon": 121.35993333333333
        },
        {
            "name": "LIN",
            "lat": 38.07458056666667,
            "lon": 121.00385833333333
        },
        {
            "name": "MA34",
            "lat": 38.6444,
            "lon": 121.399225
        },
        {
            "name": "MCC",
            "lat": 38.667394433333335,
            "lon": 121.40416111666667
        },
        {
            "name": "MYV",
            "lat": 39.098644433333334,
            "lon": 121.57305833333334
        },
        {
            "name": "PI001",
            "lat": 38.81164388333333,
            "lon": 121.40176763333334
        },
        {
            "name": "PI002",
            "lat": 38.86317915,
            "lon": 121.33783123333333
        },
        {
            "name": "PI003",
            "lat": 38.91996066666667,
            "lon": 121.40419971666667
        },
        {
            "name": "SAC",
            "lat": 38.44373888333333,
            "lon": 121.55165278333334
        },
        {
            "name": "WOODO",
            "lat": 38.75331943333333,
            "lon": 121.40046111666666
        }
    ],
    "rnws": [
        "RNW 16",
        "RNW 34"
    ],
    "sids": [],
    "stars": [],
    "approaches": [
        {
            "name": "VORD34",
            "fixes": {
                "KUZIE": "KUZIE AT OR ABOVE 3000",
                "ARDEN": "ARDEN 2200",
                "MA34": "MA34 297 RNW 34 TRK 333 UNTIL 480",
                "BONDZ": "BONDZ AT OR ABOVE 2200 HOLD AT BONDZ LEFT TURN INBOUNDCOURSE 164 LEGTIME 1 FAF ARDEN MAP MA34"
            },
            "transitions": [
                {
                    "name": "LIN",
                    "fixes": {
                        "LIN": "LIN"
                    }
                },
                {
                    "name": "SAC",
                    "fixes": {
                        "SAC": "SAC"
                    }
                }
            ]
        },
        {
            "name": "ILS16",
            "fixes": {
                "BONDZ": "BONDZ AT OR ABOVE 2200 BONDZ AT OR ABOVE 2200 HOLD AT BONDZ LEFT TURN INBOUNDCOURSE 164 LEGTIME 1 FAF WOODO MAP RNW 16",
                "WOODO": "WOODO 1500 RNW 16 TRK 163 UNTIL 1200 TURN RIGHT DIRECT"
            },
            "transitions": [
                {
                    "name": "ILA",
                    "fixes": {
                        "ILA": "ILA",
                        "MYV": "MYV AT OR ABOVE 3000",
                        "DASHE": "DASHE AT OR ABOVE 2200"
                    }
                },
                {
                    "name": "LIN",
                    "fixes": {
                        "LIN": "LIN",
                        "MCC": "MCC AT OR ABOVE 3000",
                        "WOODO": "WOODO AT OR ABOVE 3000",
                        "PI001": "PI001 AT OR ABOVE 3000 SPEED 210",
                        "PI002": "OVERFLY PI002 AT OR ABOVE 3000 SPEED 210",
                        "PI003": "PI003 AT OR ABOVE 3000 SPEED 210"
                    }
                },
                {
                    "name": "SAC",
                    "fixes": {
                        "SAC": "SAC",
                        "MCC": "MCC AT OR ABOVE 3000",
                        "WOODO": "WOODO AT OR ABOVE 3000",
                        "PI001": "PI001 AT OR ABOVE 3000 SPEED 210",
                        "PI002": "OVERFLY PI002 AT OR ABOVE 3000 SPEED 210",
                        "PI003": "PI003 AT OR ABOVE 3000 SPEED 210"
                    }
                }
            ]
        }
    ]
}