{
    "fixes": [
        {
            "name": "ACUVI",
            "lat": 33.91000833333333,
            "lon": 84.49016943333334
        },
        {
            "name": "AF001",
            "lat": 34.038009233333334,
            "lon": 84.67085965
        },
        {
            "name": "AF002",
            "lat": 34.08866101666667,
            "lon": 84.57694218333333
        },
        {
            "name": "AF003",
            "lat": 34.09461056666667,
            "lon": 84.46506858333333
        },
        {
            "name": "AF004",
            "lat": 34.05432345,
            "lon": 84.36409038333333
        },
        {
            "name": "AF005",
            "lat": 33.97818405,
            "lon": 84.30000418333333
        },
        {
            "name": "APPLS",
            "lat": 35.908630566666666,
            "lon": 83.67254721666667
        },
        {
            "name": "AWSON",
            "lat": 34.480322216666664,
            "lon": 83.98429166666666
        },
        {
            "name": "BAPPY",
            "lat": 34.130325,
            "lon": 84.42455278333334
        },
        {
            "name": "BATLL",
            "lat": 33.97355833333334,
            "lon": 84.75797221666667
        },
        {
            "name": "BEVBE",
            "lat": 33.861611116666666,
            "lon": 84.29646943333333
        },
        {
            "name": "BIZKT",
            "lat": 34.087797216666665,
            "lon": 85.63790278333333
        },
        {
            "name": "BOKRT",
            "lat": 33.25928888333333,
            "lon": 85.14300278333333
        },
        {
            "name": "BRTEN",
            "lat": 34.008397216666665,
            "lon": 84.8356
        },
        {
            "name": "BUKHD",
            "lat": 34.209861116666666,
            "lon": 84.85272221666666
        },
        {
            "name": "CADUR",
            "lat": 33.82184721666667,
            "lon": 83.85512221666667
        },
        {
            "name": "CIPEL",
            "lat": 33.945025,
            "lon": 84.63939443333334
        },
        {
            "name": "CYLON",
            "lat": 33.95578056666667,
            "lon": 84.72206111666667
        },
        {
            "name": "DARRY",
            "lat": 33.88276388333333,
            "lon": 84.38272221666666
        },
        {
            "name": "DBOLT",
            "lat": 33.26506666666667,
            "lon": 81.86461943333333
        },
        {
            "name": "DECLN",
            "lat": 34.130319433333334,
            "lon": 84.46470833333333
        },
        {
            "name": "DEHAN",
            "lat": 34.31673611666667,
            "lon": 84.07169166666667
        },
        {
            "name": "DRINC",
            "lat": 34.080505566666666,
            "lon": 84.75333888333333
        },
        {
            "name": "FINOM",
            "lat": 33.85771943333334,
            "lon": 84.29793888333333
        },
        {
            "name": "HAVVE",
            "lat": 34.99925278333333,
            "lon": 85.18216666666666
        },
        {
            "name": "HELNN",
            "lat": 35.01530833333333,
            "lon": 83.86940278333333
        },
        {
            "name": "HEPAT",
            "lat": 33.882725,
            "lon": 84.38275556666666
        },
        {
            "name": "HIGGI",
            "lat": 35.446269433333335,
            "lon": 83.77806943333333
        },
        {
            "name": "HLNDS",
            "lat": 34.491908333333335,
            "lon": 85.11658056666667
        },
        {
            "name": "HOBMO",
            "lat": 33.88881943333333,
            "lon": 84.41210833333334
        },
        {
            "name": "JENAT",
            "lat": 33.867747216666665,
            "lon": 84.32125
        },
        {
            "name": "JIDOR",
            "lat": 33.86631666666667,
            "lon": 84.315675
        },
        {
            "name": "KAMSE",
            "lat": 33.92140833333333,
            "lon": 84.54243888333333
        },
        {
            "name": "KEEPS",
            "lat": 33.00078333333333,
            "lon": 85.37083888333333
        },
        {
            "name": "KENZI",
            "lat": 34.13771666666667,
            "lon": 84.38468333333333
        },
        {
            "name": "KISTN",
            "lat": 33.73908611666667,
            "lon": 81.87116666666667
        },
        {
            "name": "LACCE",
            "lat": 33.959225,
            "lon": 85.04919166666667
        },
        {
            "name": "LOGEC",
            "lat": 34.04599721666666,
            "lon": 84.16051388333334
        },
        {
            "name": "LOGEN",
            "lat": 33.98805,
            "lon": 84.05678611666667
        },
        {
            "name": "LPTON",
            "lat": 34.42903056666667,
            "lon": 86.97985278333333
        },
        {
            "name": "LUKIE",
            "lat": 33.42520556666667,
            "lon": 82.93685278333334
        },
        {
            "name": "MDTWN",
            "lat": 34.830725,
            "lon": 85.43596111666666
        },
        {
            "name": "MILBY",
            "lat": 34.68395278333333,
            "lon": 83.31181388333333
        },
        {
            "name": "MMMOE",
            "lat": 32.40360833333333,
            "lon": 82.11987221666666
        },
        {
            "name": "MUARY",
            "lat": 32.523263883333335,
            "lon": 82.80157221666667
        },
        {
            "name": "NOKIE",
            "lat": 32.69135,
            "lon": 83.64718888333333
        },
        {
            "name": "OKRAA",
            "lat": 34.257680566666664,
            "lon": 86.29764443333333
        },
        {
            "name": "ONTEE",
            "lat": 33.93339443333333,
            "lon": 84.6049
        },
        {
            "name": "PINGG",
            "lat": 33.422905566666664,
            "lon": 85.10326111666667
        },
        {
            "name": "PONGG",
            "lat": 33.798872216666666,
            "lon": 85.01135833333333
        },
        {
            "name": "RIZZZ",
            "lat": 35.48836111666667,
            "lon": 86.06105278333334
        },
        {
            "name": "SCNRY",
            "lat": 36.008597216666665,
            "lon": 83.05006666666667
        },
        {
            "name": "SHRLT",
            "lat": 32.43825556666667,
            "lon": 82.71814721666667
        },
        {
            "name": "SHUNS",
            "lat": 34.153125,
            "lon": 84.22650278333333
        },
        {
            "name": "SKYME",
            "lat": 33.536605566666665,
            "lon": 83.73626666666667
        },
        {
            "name": "SUBIC",
            "lat": 33.85928611666667,
            "lon": 84.28668056666666
        },
        {
            "name": "SWTEE",
            "lat": 33.959266666666664,
            "lon": 85.14944443333333
        },
        {
            "name": "TARAA",
            "lat": 34.856461116666665,
            "lon": 83.463375
        },
        {
            "name": "TFALS",
            "lat": 34.25767221666667,
            "lon": 84.10162221666667
        },
        {
            "name": "TRALZ",
            "lat": 34.991883333333334,
            "lon": 83.67544166666667
        },
        {
            "name": "VIEWS",
            "lat": 35.597088883333335,
            "lon": 82.41408056666667
        },
        {
            "name": "WIVAR",
            "lat": 33.97435,
            "lon": 84.81974166666667
        },
        {
            "name": "WOGOM",
            "lat": 32.983161116666665,
            "lon": 83.45500833333334
        },
        {
            "name": "WRGNZ",
            "lat": 33.378872216666664,
            "lon": 83.6709
        },
        {
            "name": "WUDYA",
            "lat": 36.367388883333334,
            "lon": 84.93796111666667
        },
        {
            "name": "ZODMO",
            "lat": 33.88105278333333,
            "lon": 84.38355833333334
        }
    ],
    "rnws": [
        "RNW 11",
        "RNW 29"
    ],
    "sids": [],
    "stars": [
        {
            "name": "BOKRT3",
            "runway": "RNW 11 RNW 29",
            "fixes": {
                "BOKRT": "BOKRT",
                "PINGG": "PINGG",
                "PONGG": "PONGG",
                "BRTEN": "BRTEN",
                "BAPPY": "BAPPY",
                "KENZI": "OVERFLY KENZI TRK 082 VECTORS"
            }
        },
        {
            "name": "BUKHD3",
            "runway": "RNW 11 RNW 29",
            "fixes": {
                "HLNDS": "HLNDS",
                "BUKHD": "BUKHD",
                "DRINC": "OVERFLY DRINC TRK 152 VECTORS"
            }
        },
        {
            "name": "DEHAN3",
            "runway": "RNW 11 RNW 29",
            "fixes": {
                "AWSON": "AWSON",
                "DEHAN": "DEHAN",
                "TFALS": "TFALS",
                "SHUNS": "OVERFLY SHUNS TRK 230 VECTORS"
            }
        },
        {
            "name": "SWTEE2",
            "runway": "RNW 11 RNW 29",
            "fixes": {
                "SWTEE": "SWTEE",
                "LACCE": "OVERFLY LACCE TRK 095 VECTORS"
            }
        },
        {
            "name": "WRGNZ3",
            "runway": "RNW 11 RNW 29",
            "fixes": {
                "WRGNZ": "WRGNZ",
                "SKYME": "SKYME",
                "CADUR": "CADUR",
                "LOGEN": "LOGEN",
                "LOGEC": "LOGEC",
                "BAPPY": "BAPPY",
                "DECLN": "OVERFLY DECLN TRK 275 VECTORS"
            }
        }
    ],
    "approaches": [
        {
            "name": "ILS11",
            "fixes": {
                "BATLL": "BATLL AT OR ABOVE 3000 BATLL BATLL AT OR ABOVE 3000 HOLD AT BATLL RIGHT TURN INBOUNDCOURSE 109 ALT 4000 SPEED 265 LEGDIST 5 FAF CIPEL MAP RNW 11",
                "CIPEL": "CIPEL 2900 RNW 11 TRK 109 UNTIL 2000 TURN LEFT HDG 259 INTERCEPT RADIAL 289 TO"
            },
            "transitions": [
                {
                    "name": "BATLL",
                    "fixes": {
                        "BATLL": "BATLL RIGHT TURN INBOUNDCOURSE 109 ALT 3000 SPEED 265 LEGDIST 5"
                    }
                }
            ]
        },
        {
            "name": "ILS29",
            "fixes": {
                "JIDOR": "JIDOR AT OR ABOVE 4000",
                "HEPAT": "HEPAT 3000 RNW 29 TRK 289 UNTIL 1470",
                "CYLON": "CYLON AT OR ABOVE 3000 HOLD AT CYLON RIGHT TURN INBOUNDCOURSE 106 ALT 4000 SPEED 265 LEGDIST 5 FAF HEPAT MAP RNW 29"
            },
            "transitions": [
                {
                    "name": "CYLON",
                    "fixes": {
                        "CYLON": "CYLON AT OR ABOVE 4000",
                        "AF001": "AF001",
                        "AF002": "AF002",
                        "AF003": "AF003",
                        "AF004": "AF004",
                        "AF005": "AF005",
                        "BEVBE": "BEVBE AT OR ABOVE 4000"
                    }
                }
            ]
        },
        {
            "name": "RNAV11",
            "fixes": {
                "BATLL": "BATLL AT OR ABOVE 3000 OVERFLY BATLL AT OR ABOVE 3000 HOLD AT BATLL RIGHT TURN INBOUNDCOURSE 109 ALT 4000 SPEED 265 LEGDIST 5 FAF CIPEL MAP RNW 11",
                "CIPEL": "CIPEL 2900 RNW 11 TRK 109 UNTIL 2000 TURN LEFT DIRECT"
            },
            "transitions": [
                {
                    "name": "BATLL",
                    "fixes": {
                        "BATLL": "BATLL RIGHT TURN INBOUNDCOURSE 109 ALT 3000 SPEED 265 LEGDIST 5"
                    }
                }
            ]
        },
        {
            "name": "RNAV29",
            "fixes": {
                "SUBIC": "SUBIC AT OR ABOVE 4000",
                "JENAT": "JENAT AT OR ABOVE 4000",
                "DARRY": "DARRY 3000 RNW 29 TRK 289 UNTIL 2000",
                "CYLON": "OVERFLY CYLON AT OR ABOVE 3000 HOLD AT CYLON RIGHT TURN INBOUNDCOURSE 106 ALT 4000 SPEED 265 LEGDIST 5 FAF DARRY MAP RNW 29"
            },
            "transitions": [
                {
                    "name": "SUBIC",
                    "fixes": {
                        "SUBIC": "SUBIC RIGHT TURN INBOUNDCOURSE 289 ALT 4000 SPEED 265 LEGDIST 5"
                    }
                }
            ]
        },
        {
            "name": "VOR11",
            "fixes": {
                "CYLON": "CYLON AT OR ABOVE 3000 CYLON CYLON AT OR ABOVE 3000 HOLD AT CYLON RIGHT TURN INBOUNDCOURSE 106 ALT 4000 SPEED 265 LEGDIST 5 FAF ONTEE MAP KAMSE",
                "ONTEE": "ONTEE 2300",
                "KAMSE": "KAMSE 1292 RNW 11 TRK 106 UNTIL 2000 TURN LEFT HDG 256 INTERCEPT RADIAL 286 TO"
            },
            "transitions": [
                {
                    "name": "CYLON",
                    "fixes": {
                        "CYLON": "CYLON RIGHT TURN INBOUNDCOURSE 106 ALT 3000 SPEED 265 LEGDIST 5"
                    }
                },
                {
                    "name": "WIVAR",
                    "fixes": {
                        "WIVAR": "WIVAR AT OR ABOVE 3000"
                    }
                }
            ]
        },
        {
            "name": "VOR29",
            "fixes": {
                "FINOM": "FINOM AT OR ABOVE 4000",
                "ZODMO": "ZODMO AT OR ABOVE 3100",
                "HOBMO": "HOBMO 2700",
                "ACUVI": "ACUVI 1234 RNW 29",
                "CYLON": "CYLON AT OR ABOVE 3000 HOLD AT CYLON RIGHT TURN INBOUNDCOURSE 106 ALT 4000 SPEED 265 LEGDIST 5 FAF HOBMO MAP ACUVI"
            },
            "transitions": [
                {
                    "name": "CYLON",
                    "fixes": {
                        "CYLON": "CYLON AT OR ABOVE 4000"
                    }
                }
            ]
        }
    ]
}