{
    "fixes": [
        {
            "name": "BASYE",
            "lat": 41.34372221666667,
            "lon": 73.79860833333333
        },
        {
            "name": "BUNRE",
            "lat": 41.579316666666664,
            "lon": 74.04645278333334
        },
        {
            "name": "DATRR",
            "lat": 41.631141666666664,
            "lon": 74.20108611666667
        },
        {
            "name": "EXEBE",
            "lat": 41.55250556666667,
            "lon": 74.12797778333334
        },
        {
            "name": "GETRE",
            "lat": 41.502916666666664,
            "lon": 74.00201666666666
        },
        {
            "name": "HAAYS",
            "lat": 41.320005566666666,
            "lon": 74.46718056666667
        },
        {
            "name": "HELON",
            "lat": 41.667422216666665,
            "lon": 74.28042221666666
        },
        {
            "name": "HUO",
            "lat": 41.40968611666667,
            "lon": 74.59159443333333
        },
        {
            "name": "IGN",
            "lat": 41.665452783333336,
            "lon": 73.82223888333333
        },
        {
            "name": "NUDUE",
            "lat": 41.84873888333333,
            "lon": 74.30995556666667
        },
        {
            "name": "ORGEN",
            "lat": 41.46514166666667,
            "lon": 74.40628888333333
        },
        {
            "name": "ORNGE",
            "lat": 41.53910833333333,
            "lon": 74.16863056666666
        },
        {
            "name": "OSSEK",
            "lat": 41.431561116666664,
            "lon": 74.49273611666666
        },
        {
            "name": "PRNCE",
            "lat": 41.97354166666667,
            "lon": 74.47006943333334
        },
        {
            "name": "SAX",
            "lat": 41.06754166666666,
            "lon": 74.53830833333333
        },
        {
            "name": "SEDLE",
            "lat": 41.34786943333334,
            "lon": 74.35503611666667
        },
        {
            "name": "SPECL",
            "lat": 41.66688056666667,
            "lon": 74.10389721666667
        },
        {
            "name": "STUFF",
            "lat": 41.44051111666667,
            "lon": 74.30485
        },
        {
            "name": "TRESA",
            "lat": 41.88044721666667,
            "lon": 73.81855556666666
        },
        {
            "name": "UTULE",
            "lat": 41.594711116666666,
            "lon": 74.44100278333333
        },
        {
            "name": "WEJTI",
            "lat": 41.472713883333334,
            "lon": 74.36917778333333
        },
        {
            "name": "WERKA",
            "lat": 41.585208333333334,
            "lon": 74.22615278333333
        },
        {
            "name": "YORNO",
            "lat": 41.53981388333333,
            "lon": 74.1665
        },
        {
            "name": "ZEXAT",
            "lat": 41.50625278333333,
            "lon": 74.26805833333333
        },
        {
            "name": "ZOGUL",
            "lat": 41.489702783333335,
            "lon": 74.32381388333333
        },
        {
            "name": "ZUMRI",
            "lat": 41.723711116666664,
            "lon": 74.15046111666666
        }
    ],
    "rnws": [
        "RNW 04",
        "RNW 08",
        "RNW 22",
        "RNW 26"
    ],
    "sids": [],
    "stars": [],
    "approaches": [
        {
            "name": "ILS04",
            "fixes": {
                "SEDLE": "SEDLE AT OR ABOVE 3000",
                "STUFF": "STUFF 1800 RNW 04 TRK 036 UNTIL 1100 TURN LEFT DIRECT",
                "HUO": "HUO AT OR ABOVE 4000 HOLD AT HUO RIGHT TURN INBOUNDCOURSE 093 LEGTIME 1 FAF STUFF MAP RNW 04"
            },
            "transitions": [
                {
                    "name": "HUO",
                    "fixes": {
                        "HUO": "HUO"
                    }
                },
                {
                    "name": "IGN",
                    "fixes": {
                        "IGN": "IGN",
                        "SEDLE": "SEDLE AT OR ABOVE 3600 HOLD AT SEDLE RIGHT TURN INBOUNDCOURSE 036 ALT 3000 LEGTIME 1"
                    }
                },
                {
                    "name": "SAX",
                    "fixes": {
                        "SAX": "SAX"
                    }
                }
            ]
        },
        {
            "name": "RNAV04",
            "fixes": {
                "SEDLE": "SEDLE AT OR ABOVE 3000",
                "STUFF": "STUFF 1800 RNW 04 TRK 036 UNTIL 770",
                "WERKA": "WERKA",
                "HELON": "OVERFLY HELON AT OR ABOVE 5300 HOLD AT HELON RIGHT TURN INBOUNDCOURSE 209 ALT 5300 LEGDIST 4 FAF STUFF MAP RNW 04"
            },
            "transitions": [
                {
                    "name": "HAAYS",
                    "fixes": {
                        "HAAYS": "HAAYS"
                    }
                },
                {
                    "name": "SAX",
                    "fixes": {
                        "SAX": "SAX"
                    }
                },
                {
                    "name": "SEDLE",
                    "fixes": {
                        "SEDLE": "SEDLE RIGHT TURN INBOUNDCOURSE 036 ALT 3000 LEGDIST 4"
                    }
                }
            ]
        },
        {
            "name": "RNAV08",
            "fixes": {
                "OSSEK": "OSSEK AT OR ABOVE 2900",
                "WEJTI": "WEJTI 2000 RNW 08 TRK 080 UNTIL 770",
                "YORNO": "OVERFLY YORNO TURN LEFT DIRECT",
                "HELON": "OVERFLY HELON AT OR ABOVE 5300 HOLD AT HELON RIGHT TURN INBOUNDCOURSE 209 ALT 5300 LEGDIST 4 FAF WEJTI MAP RNW 08"
            },
            "transitions": [
                {
                    "name": "HUO",
                    "fixes": {
                        "HUO": "HUO"
                    }
                }
            ]
        },
        {
            "name": "RNAV22",
            "fixes": {
                "ZUMRI": "ZUMRI AT OR ABOVE 3500",
                "DATRR": "DATRR 2700 RNW 22 TRK 216 UNTIL 1500 TURN RIGHT DIRECT",
                "HELON": "OVERFLY HELON AT OR ABOVE 5300 HOLD AT HELON RIGHT TURN INBOUNDCOURSE 209 ALT 5300 LEGDIST 4 FAF DATRR MAP RNW 22"
            },
            "transitions": [
                {
                    "name": "PRNCE",
                    "fixes": {
                        "PRNCE": "PRNCE",
                        "NUDUE": "NUDUE AT OR ABOVE 5300"
                    }
                },
                {
                    "name": "TRESA",
                    "fixes": {
                        "TRESA": "TRESA"
                    }
                }
            ]
        },
        {
            "name": "RNAV26",
            "fixes": {
                "BUNRE": "BUNRE AT OR ABOVE 3000",
                "EXEBE": "EXEBE AT OR ABOVE 2000",
                "ORNGE": "ORNGE 1800 RNW 26 TRK 260 UNTIL 770",
                "WEJTI": "WEJTI TURN RIGHT DIRECT",
                "UTULE": "UTULE",
                "HELON": "OVERFLY HELON AT OR ABOVE 4000 HOLD AT HELON RIGHT TURN INBOUNDCOURSE 209 LEGDIST 4 FAF ORNGE MAP RNW 26"
            },
            "transitions": [
                {
                    "name": "BASYE",
                    "fixes": {
                        "BASYE": "BASYE",
                        "GETRE": "GETRE AT OR ABOVE 4000"
                    }
                },
                {
                    "name": "BUNRE",
                    "fixes": {
                        "BUNRE": "BUNRE RIGHT TURN INBOUNDCOURSE 260 ALT 3000 LEGDIST 4"
                    }
                },
                {
                    "name": "SPECL",
                    "fixes": {
                        "SPECL": "SPECL"
                    }
                }
            ]
        },
        {
            "name": "VOR08",
            "fixes": {
                "HUO": "HUO AT OR ABOVE 4000 HUO AT OR ABOVE 4000 HOLD AT HUO RIGHT TURN INBOUNDCOURSE 080 LEGTIME 1 FAF ORGEN MAP ZEXA",
                "ORGEN": "ORGEN 2800",
                "ZOGUL": "ZOGUL AT OR ABOVE 1220",
                "ZEXAT": "ZEXAT 392 RNW 08 TRK 080 UNTIL 770 TURN LEFT DIRECT"
            },
            "transitions": [
                {
                    "name": "HUO",
                    "fixes": {
                        "HUO": "HUO RIGHT TURN INBOUNDCOURSE 080 ALT 4000 LEGTIME 1"
                    }
                }
            ]
        }
    ]
}