{
    "fixes": [
        {
            "name": "APPAL",
            "lat": 40.04097778333333,
            "lon": 85.49836111666667
        },
        {
            "name": "BALLL",
            "lat": 40.180908333333335,
            "lon": 85.32085833333333
        },
        {
            "name": "BOHUW",
            "lat": 40.274338883333336,
            "lon": 85.43462778333334
        },
        {
            "name": "CESUD",
            "lat": 40.15712778333334,
            "lon": 85.43787778333333
        },
        {
            "name": "CFVFZ",
            "lat": 40.10865833333333,
            "lon": 85.230625
        },
        {
            "name": "CIKEP",
            "lat": 40.32804721666667,
            "lon": 85.34839721666667
        },
        {
            "name": "CITUK",
            "lat": 40.10368056666667,
            "lon": 85.22430833333334
        },
        {
            "name": "DUNKI",
            "lat": 40.28486388333334,
            "lon": 85.37379166666666
        },
        {
            "name": "FF14",
            "lat": 40.309455566666664,
            "lon": 85.47315833333333
        },
        {
            "name": "FF20",
            "lat": 40.32510833333333,
            "lon": 85.35675278333333
        },
        {
            "name": "HABIP",
            "lat": 40.20356388333333,
            "lon": 85.41360278333333
        },
        {
            "name": "HIXAG",
            "lat": 40.30531388333333,
            "lon": 85.47706111666666
        },
        {
            "name": "IFECA",
            "lat": 40.43698333333333,
            "lon": 85.29111388333334
        },
        {
            "name": "JOGBA",
            "lat": 40.377330566666664,
            "lon": 85.56786666666666
        },
        {
            "name": "MIE",
            "lat": 40.237291666666664,
            "lon": 85.39403611666667
        },
        {
            "name": "MZZ",
            "lat": 40.493330566666664,
            "lon": 85.67925
        },
        {
            "name": "NOMPE",
            "lat": 40.48358888333333,
            "lon": 85.44308888333333
        },
        {
            "name": "PEYIV",
            "lat": 40.17589443333333,
            "lon": 85.31458056666666
        },
        {
            "name": "PI001",
            "lat": 40.13893475,
            "lon": 85.26785295
        },
        {
            "name": "PI002",
            "lat": 40.13764621666667,
            "lon": 85.17412378333333
        },
        {
            "name": "PI003",
            "lat": 40.06091983333334,
            "lon": 85.16958796666667
        },
        {
            "name": "PI004",
            "lat": 40.2819672,
            "lon": 85.44318715
        },
        {
            "name": "PI005",
            "lat": 40.28817566666667,
            "lon": 85.53678153333334
        },
        {
            "name": "PI006",
            "lat": 40.364880766666666,
            "lon": 85.53464018333334
        },
        {
            "name": "PI007",
            "lat": 40.29276756666667,
            "lon": 85.37040321666667
        },
        {
            "name": "PI008",
            "lat": 40.35661518333333,
            "lon": 85.41309973333334
        },
        {
            "name": "PI009",
            "lat": 40.39578143333333,
            "lon": 85.32641043333334
        },
        {
            "name": "UHZAW",
            "lat": 40.390180566666665,
            "lon": 85.13935278333334
        },
        {
            "name": "WAMBO",
            "lat": 40.05741666666667,
            "lon": 85.18567778333333
        }
    ],
    "rnws": [
        "RNW 03",
        "RNW 14",
        "RNW 21",
        "RNW 32"
    ],
    "sids": [],
    "stars": [],
    "approaches": [
        {
            "name": "ILS32",
            "fixes": {
                "CFVFZ": "CFVFZ AT OR ABOVE 2500",
                "BALLL": "BALLL 2462 RNW 32 TRK 319 UNTIL 1460 TURN RIGHT DIRECT BALLL AT OR ABOVE 2900 HOLD AT BALLL RIGHT TURN INBOUNDCOURSE 319 LEGTIME 1 FAF BALLL MAP RNW 32"
            },
            "transitions": [
                {
                    "name": "MIE",
                    "fixes": {
                        "MIE": "MIE",
                        "BALLL": "BALLL AT OR ABOVE 2900",
                        "PI001": "PI001 AT OR ABOVE 2900 SPEED 210",
                        "PI002": "OVERFLY PI002 AT OR ABOVE 2900 SPEED 210",
                        "PI003": "PI003 AT OR ABOVE 2900 SPEED 210"
                    }
                }
            ]
        },
        {
            "name": "RNAV03",
            "fixes": {
                "APPAL": "APPAL AT OR ABOVE 2800",
                "CESUD": "CESUD 2600",
                "HABIP": "HABIP AT OR ABOVE 1640 RNW 03 TRK 025 UNTIL 1190",
                "IFECA": "OVERFLY IFECA AT OR ABOVE 2800 HOLD AT IFECA RIGHT TURN INBOUNDCOURSE 205 LEGDIST 4 FAF CESUD MAP RNW 03"
            },
            "transitions": [
                {
                    "name": "APPAL",
                    "fixes": {
                        "APPAL": "APPAL RIGHT TURN INBOUNDCOURSE 025 ALT 2800 LEGDIST 4"
                    }
                }
            ]
        },
        {
            "name": "RNAV14",
            "fixes": {
                "JOGBA": "JOGBA AT OR ABOVE 2800",
                "HIXAG": "HIXAG 2500 RNW 14 TRK 139 UNTIL 1202",
                "CITUK": "OVERFLY CITUK AT OR ABOVE 2900 HOLD AT CITUK RIGHT TURN INBOUNDCOURSE 319 LEGDIST 5 FAF HIXAG MAP RNW 14"
            },
            "transitions": [
                {
                    "name": "MIE",
                    "fixes": {
                        "MIE": "MIE",
                        "JOGBA": "JOGBA AT OR ABOVE 2800 HOLD AT JOGBA RIGHT TURN INBOUNDCOURSE 139 ALT 2800 LEGDIST 5"
                    }
                },
                {
                    "name": "MZZ",
                    "fixes": {
                        "MZZ": "MZZ"
                    }
                }
            ]
        },
        {
            "name": "RNAV21",
            "fixes": {
                "IFECA": "IFECA AT OR ABOVE 2800",
                "CIKEP": "CIKEP 2600 RNW 21 TRK 205 UNTIL 1195",
                "APPAL": "OVERFLY APPAL AT OR ABOVE 2800 HOLD AT APPAL RIGHT TURN INBOUNDCOURSE 025 LEGDIST 4 FAF CIKEP MAP RNW 21"
            },
            "transitions": [
                {
                    "name": "MIE",
                    "fixes": {
                        "MIE": "MIE",
                        "IFECA": "OVERFLY IFECA AT OR ABOVE 2800 HOLD AT IFECA RIGHT TURN INBOUNDCOURSE 205 ALT 2800 LEGDIST 4"
                    }
                },
                {
                    "name": "NOMPE",
                    "fixes": {
                        "NOMPE": "NOMPE"
                    }
                },
                {
                    "name": "UHZAW",
                    "fixes": {
                        "UHZAW": "UHZAW"
                    }
                }
            ]
        },
        {
            "name": "RNAV32",
            "fixes": {
                "CITUK": "CITUK AT OR ABOVE 2900",
                "PEYIV": "PEYIV 2600 RNW 32 TRK 319 UNTIL 1241",
                "JOGBA": "OVERFLY JOGBA AT OR ABOVE 2800 HOLD AT JOGBA RIGHT TURN INBOUNDCOURSE 139 LEGDIST 5 FAF PEYIV MAP RNW 32"
            },
            "transitions": [
                {
                    "name": "MIE",
                    "fixes": {
                        "MIE": "MIE",
                        "CITUK": "CITUK AT OR ABOVE 2900 HOLD AT CITUK RIGHT TURN INBOUNDCOURSE 319 ALT 2900 LEGDIST 5"
                    }
                },
                {
                    "name": "WAMBO",
                    "fixes": {
                        "WAMBO": "WAMBO"
                    }
                }
            ]
        },
        {
            "name": "VOR14",
            "fixes": {
                "FF14": "FF14 2500",
                "BOHUW": "BOHUW AT OR ABOVE 1480 RNW 14",
                "MIE": "MIE AT OR ABOVE 1337 TRK 143 UNTIL 2600 TURN LEFT DIRECT MIE HOLD AT MIE RIGHT TURN INBOUNDCOURSE 143 LEGTIME 1 FAF FF14 MAP RNW 14"
            },
            "transitions": [
                {
                    "name": "MIE",
                    "fixes": {
                        "PI004": "PI004 AT OR ABOVE 2500 SPEED 210",
                        "PI005": "OVERFLY PI005 AT OR ABOVE 2500 SPEED 210",
                        "PI006": "PI006 AT OR ABOVE 2500 SPEED 210"
                    }
                }
            ]
        },
        {
            "name": "VOR21",
            "fixes": {
                "FF20": "FF20 2500",
                "DUNKI": "DUNKI AT OR ABOVE 1500 RNW 21",
                "MIE": "MIE TRK 201 UNTIL 2200 TURN LEFT DIRECT MIE AT OR ABOVE 2600 HOLD AT MIE RIGHT TURN INBOUNDCOURSE 201 LEGTIME 1 FAF FF20 MAP RNW 21"
            },
            "transitions": [
                {
                    "name": "MIE",
                    "fixes": {
                        "PI007": "PI007 AT OR ABOVE 2500 SPEED 210",
                        "PI008": "OVERFLY PI008 AT OR ABOVE 2500 SPEED 210",
                        "PI009": "PI009 AT OR ABOVE 2500 SPEED 210"
                    }
                }
            ]
        }
    ]
}