{
    "fixes": [
        {
            "name": "ATAXE",
            "lat": 42.166952783333336,
            "lon": 93.012975
        },
        {
            "name": "BEKFY",
            "lat": 42.05847778333333,
            "lon": 92.82010278333334
        },
        {
            "name": "BRIDY",
            "lat": 42.226708333333335,
            "lon": 93.11975278333334
        },
        {
            "name": "IKUDY",
            "lat": 42.13606111666667,
            "lon": 92.95792221666666
        },
        {
            "name": "JIPTI",
            "lat": 42.085647216666665,
            "lon": 92.86829166666666
        },
        {
            "name": "VUNDY",
            "lat": 41.998744433333336,
            "lon": 92.71442221666666
        }
    ],
    "rnws": [
        "RNW 13",
        "RNW 18",
        "RNW 31",
        "RNW 36"
    ],
    "sids": [],
    "stars": [],
    "approaches": [
        {
            "name": "RNAV13",
            "fixes": {
                "BRIDY": "BRIDY AT OR ABOVE 2700",
                "ATAXE": "ATAXE 2600",
                "IKUDY": "IKUDY AT OR ABOVE 1620 RNW 13 TRK 126 UNTIL 1225",
                "VUNDY": "OVERFLY VUNDY AT OR ABOVE 2600 HOLD AT VUNDY RIGHT TURN INBOUNDCOURSE 306 LEGDIST 4 FAF ATAXE MAP RNW 13"
            },
            "transitions": [
                {
                    "name": "BRIDY",
                    "fixes": {
                        "BRIDY": "BRIDY RIGHT TURN INBOUNDCOURSE 126 ALT 2700 LEGDIST 4"
                    }
                }
            ]
        },
        {
            "name": "RNAV31",
            "fixes": {
                "VUNDY": "VUNDY AT OR ABOVE 2600",
                "BEKFY": "BEKFY 2600",
                "JIPTI": "JIPTI AT OR ABOVE 1740 RNW 31 TRK 306 UNTIL 1223",
                "BRIDY": "OVERFLY BRIDY AT OR ABOVE 2700 HOLD AT BRIDY RIGHT TURN INBOUNDCOURSE 126 LEGDIST 4 FAF BEKFY MAP RNW 31"
            },
            "transitions": [
                {
                    "name": "VUNDY",
                    "fixes": {
                        "VUNDY": "VUNDY RIGHT TURN INBOUNDCOURSE 306 ALT 2600 LEGDIST 4"
                    }
                }
            ]
        }
    ]
}