{
    "fixes": [
        {
            "name": "CHANS",
            "lat": 44.4164,
            "lon": 99.419525
        },
        {
            "name": "CLANN",
            "lat": 44.68434166666667,
            "lon": 99.04806111666667
        },
        {
            "name": "FRODO",
            "lat": 44.640483333333336,
            "lon": 99.19953333333333
        },
        {
            "name": "HON",
            "lat": 44.440083333333334,
            "lon": 98.31108611666667
        },
        {
            "name": "KAATS",
            "lat": 43.9459,
            "lon": 98.60117778333333
        },
        {
            "name": "LIVVA",
            "lat": 44.7523,
            "lon": 99.54813333333334
        },
        {
            "name": "OCADE",
            "lat": 44.728,
            "lon": 98.89636111666667
        },
        {
            "name": "ONDUC",
            "lat": 44.399908333333336,
            "lon": 98.71222221666666
        },
        {
            "name": "PALLS",
            "lat": 44.60746666666667,
            "lon": 99.00451388333333
        },
        {
            "name": "PATGE",
            "lat": 44.485108333333336,
            "lon": 98.93546388333333
        },
        {
            "name": "SQUAW",
            "lat": 44.312841666666664,
            "lon": 99.01395278333334
        },
        {
            "name": "TERNR",
            "lat": 44.356475,
            "lon": 98.8632
        },
        {
            "name": "TULLA",
            "lat": 44.789752783333334,
            "lon": 98.33148056666667
        },
        {
            "name": "ZONZO",
            "lat": 44.43375556666667,
            "lon": 98.906575
        }
    ],
    "rnws": [
        "RNW 15",
        "RNW 33"
    ],
    "sids": [],
    "stars": [],
    "approaches": [
        {
            "name": "RNAV15",
            "fixes": {
                "CLANN": "CLANN AT OR ABOVE 3200",
                "PALLS": "PALLS 3200 RNW 15 TRK 151 UNTIL 1883",
                "TERNR": "OVERFLY TERNR AT OR ABOVE 3700 HOLD AT TERNR RIGHT TURN INBOUNDCOURSE 331 LEGDIST 4 FAF PALLS MAP RNW 15"
            },
            "transitions": [
                {
                    "name": "CHANS",
                    "fixes": {
                        "CHANS": "CHANS",
                        "FRODO": "FRODO AT OR ABOVE 3600"
                    }
                },
                {
                    "name": "CLANN",
                    "fixes": {
                        "CLANN": "CLANN LEFT TURN INBOUNDCOURSE 151 ALT 3200 LEGDIST 4"
                    }
                },
                {
                    "name": "HON",
                    "fixes": {
                        "HON": "HON",
                        "OCADE": "OCADE AT OR ABOVE 3200"
                    }
                },
                {
                    "name": "LIVVA",
                    "fixes": {
                        "LIVVA": "LIVVA",
                        "FRODO": "FRODO AT OR ABOVE 4000"
                    }
                },
                {
                    "name": "TULLA",
                    "fixes": {
                        "TULLA": "TULLA",
                        "OCADE": "OCADE AT OR ABOVE 3200"
                    }
                }
            ]
        },
        {
            "name": "RNAV33",
            "fixes": {
                "TERNR": "TERNR AT OR ABOVE 3700",
                "ZONZO": "ZONZO 3400",
                "PATGE": "PATGE AT OR ABOVE 2340 RNW 33 TRK 331 UNTIL 1970",
                "CLANN": "OVERFLY CLANN AT OR ABOVE 3200 HOLD AT CLANN LEFT TURN INBOUNDCOURSE 151 LEGDIST 4 FAF ZONZO MAP RNW 33"
            },
            "transitions": [
                {
                    "name": "CHANS",
                    "fixes": {
                        "CHANS": "CHANS",
                        "SQUAW": "SQUAW AT OR ABOVE 3700"
                    }
                },
                {
                    "name": "HON",
                    "fixes": {
                        "HON": "HON",
                        "ONDUC": "ONDUC AT OR ABOVE 3700"
                    }
                },
                {
                    "name": "KAATS",
                    "fixes": {
                        "KAATS": "KAATS"
                    }
                },
                {
                    "name": "TERNR",
                    "fixes": {
                        "TERNR": "TERNR RIGHT TURN INBOUNDCOURSE 331 ALT 3700 LEGDIST 4"
                    }
                },
                {
                    "name": "TULLA",
                    "fixes": {
                        "TULLA": "TULLA",
                        "ONDUC": "ONDUC AT OR ABOVE 3700"
                    }
                }
            ]
        }
    ]
}