{
    "fixes": [
        {
            "name": "ANX",
            "lat": 39.095425,
            "lon": 94.12883611666666
        },
        {
            "name": "ARENZ",
            "lat": 40.143738883333334,
            "lon": 93.65056111666667
        },
        {
            "name": "AYOCI",
            "lat": 39.40213056666666,
            "lon": 94.44809166666667
        },
        {
            "name": "BEYAV",
            "lat": 38.967522216666666,
            "lon": 94.74966111666667
        },
        {
            "name": "BLUZY",
            "lat": 39.385983333333336,
            "lon": 93.95291111666667
        },
        {
            "name": "BODYN",
            "lat": 40.341963883333335,
            "lon": 92.13501111666666
        },
        {
            "name": "BQS",
            "lat": 39.630555566666665,
            "lon": 93.87527778333333
        },
        {
            "name": "BUM",
            "lat": 38.272080566666666,
            "lon": 94.48826111666666
        },
        {
            "name": "CATTS",
            "lat": 39.30321943333333,
            "lon": 96.15380278333333
        },
        {
            "name": "CAYKO",
            "lat": 39.763708333333334,
            "lon": 94.13650556666667
        },
        {
            "name": "CEVKO",
            "lat": 39.26338056666667,
            "lon": 94.40232778333333
        },
        {
            "name": "CNU",
            "lat": 37.626158333333336,
            "lon": 95.59346943333334
        },
        {
            "name": "COU",
            "lat": 38.810822216666665,
            "lon": 92.218275
        },
        {
            "name": "COVRI",
            "lat": 39.339652783333335,
            "lon": 94.53010833333333
        },
        {
            "name": "DIGGY",
            "lat": 39.45486666666667,
            "lon": 95.34366388333333
        },
        {
            "name": "DOCAB",
            "lat": 39.04731111666667,
            "lon": 94.66871111666667
        },
        {
            "name": "DODSN",
            "lat": 38.724480566666664,
            "lon": 95.03844721666667
        },
        {
            "name": "DONNS",
            "lat": 39.539566666666666,
            "lon": 94.05595833333334
        },
        {
            "name": "DOSOA",
            "lat": 38.17071943333333,
            "lon": 95.12681388333333
        },
        {
            "name": "EMP",
            "lat": 38.29114166666667,
            "lon": 96.13811666666666
        },
        {
            "name": "FENEN",
            "lat": 39.04948888333333,
            "lon": 94.66178888333333
        },
        {
            "name": "FISGO",
            "lat": 39.13210278333333,
            "lon": 94.58240556666667
        },
        {
            "name": "FONIX",
            "lat": 39.83503888333333,
            "lon": 93.36642778333334
        },
        {
            "name": "FRANC",
            "lat": 39.00835,
            "lon": 92.85031943333334
        },
        {
            "name": "GRILD",
            "lat": 38.69558056666666,
            "lon": 94.59135833333333
        },
        {
            "name": "HEBKI",
            "lat": 39.24795833333334,
            "lon": 94.46403888333333
        },
        {
            "name": "HEPTO",
            "lat": 38.969152783333335,
            "lon": 94.73723333333334
        },
        {
            "name": "HOOZE",
            "lat": 38.895077783333335,
            "lon": 95.29440278333334
        },
        {
            "name": "HOTVA",
            "lat": 39.05795,
            "lon": 94.68363888333333
        },
        {
            "name": "HUGIN",
            "lat": 39.72873333333333,
            "lon": 92.26821666666666
        },
        {
            "name": "ICT",
            "lat": 37.74525833333333,
            "lon": 97.58382778333333
        },
        {
            "name": "IRK",
            "lat": 40.135016666666665,
            "lon": 92.59171388333333
        },
        {
            "name": "JDOGG",
            "lat": 39.949944433333336,
            "lon": 94.66150833333333
        },
        {
            "name": "JHAWK",
            "lat": 38.80551388333333,
            "lon": 95.42093888333333
        },
        {
            "name": "JTHRO",
            "lat": 40.001730566666666,
            "lon": 93.83311111666667
        },
        {
            "name": "KENTN",
            "lat": 39.14666388333333,
            "lon": 95.94635
        },
        {
            "name": "KMKC",
            "lat": 39.12294443333333,
            "lon": 94.59283333333333
        },
        {
            "name": "KRAZO",
            "lat": 38.11830833333333,
            "lon": 93.76085
        },
        {
            "name": "LMN",
            "lat": 40.59676388333333,
            "lon": 93.96759166666666
        },
        {
            "name": "LYMES",
            "lat": 39.249575,
            "lon": 94.11260556666667
        },
        {
            "name": "MCI",
            "lat": 39.28528333333333,
            "lon": 94.73706111666667
        },
        {
            "name": "MIFEV",
            "lat": 39.02057778333333,
            "lon": 94.78448056666667
        },
        {
            "name": "MORAY",
            "lat": 38.95481388333333,
            "lon": 94.37643888333334
        },
        {
            "name": "NEDBE",
            "lat": 39.08339443333333,
            "lon": 94.63201666666667
        },
        {
            "name": "NOAHS",
            "lat": 39.174072216666666,
            "lon": 94.89693056666667
        },
        {
            "name": "OKTUE",
            "lat": 39.183575,
            "lon": 94.511925
        },
        {
            "name": "OLATH",
            "lat": 38.892130566666665,
            "lon": 94.80936111666666
        },
        {
            "name": "OZAKI",
            "lat": 39.29526943333333,
            "lon": 95.35947778333333
        },
        {
            "name": "RUGBB",
            "lat": 39.00686666666667,
            "lon": 95.13581943333334
        },
        {
            "name": "SGF",
            "lat": 37.355947216666664,
            "lon": 93.33404166666666
        },
        {
            "name": "SLABB",
            "lat": 39.171019433333335,
            "lon": 94.61184721666666
        },
        {
            "name": "SLN",
            "lat": 38.92513888333333,
            "lon": 97.62133333333334
        },
        {
            "name": "SPI",
            "lat": 39.839733333333335,
            "lon": 89.67773611666667
        },
        {
            "name": "SPRNT",
            "lat": 38.73839443333333,
            "lon": 94.92986943333334
        },
        {
            "name": "STJ",
            "lat": 39.960577783333335,
            "lon": 94.92521943333334
        },
        {
            "name": "TIFTO",
            "lat": 39.60476666666667,
            "lon": 95.89210556666667
        },
        {
            "name": "TONCE",
            "lat": 40.282225,
            "lon": 94.62318333333333
        },
        {
            "name": "TOP",
            "lat": 39.13707778333333,
            "lon": 95.54916943333333
        },
        {
            "name": "TRIKE",
            "lat": 38.84015556666667,
            "lon": 94.25238888333334
        },
        {
            "name": "TWAIN",
            "lat": 39.672375,
            "lon": 91.44309166666666
        },
        {
            "name": "TYGER",
            "lat": 38.68336943333333,
            "lon": 94.08363333333334
        },
        {
            "name": "TYTUS",
            "lat": 39.21389166666667,
            "lon": 95.374125
        },
        {
            "name": "ULKEC",
            "lat": 38.91956388333333,
            "lon": 94.44059443333333
        },
        {
            "name": "WALOR",
            "lat": 39.146311116666666,
            "lon": 94.58620556666666
        },
        {
            "name": "WOTUR",
            "lat": 39.21211388333333,
            "lon": 94.26741666666666
        },
        {
            "name": "WOWTA",
            "lat": 39.14694443333333,
            "lon": 94.5621
        },
        {
            "name": "YETUK",
            "lat": 38.932777783333336,
            "lon": 94.95733333333334
        },
        {
            "name": "ZADGU",
            "lat": 38.926513883333335,
            "lon": 94.65396943333333
        },
        {
            "name": "ZEGAP",
            "lat": 39.17887221666667,
            "lon": 94.57678333333334
        },
        {
            "name": "ZODGA",
            "lat": 39.224122216666665,
            "lon": 94.56366943333333
        }
    ],
    "rnws": [
        "RNW 01",
        "RNW 03",
        "RNW 19",
        "RNW 21"
    ],
    "sids": [
        {
            "name": "CHIEF8",
            "rnw": "29",
            "fixes": {},
            "sub_fixes": [
                {
                    "rwy": "RNW 01",
                    "fixes": {
                        "RNW 01": "RNW 01 HDG 012 UNTIL 2000 HDG 012 VECTORS",
                        "MCI": "MCI"
                    }
                },
                {
                    "rwy": "RNW 03",
                    "fixes": {
                        "RNW 03": "RNW 03 HDG 037 UNTIL 1900 HDG 037 VECTORS",
                        "MCI": "MCI"
                    }
                },
                {
                    "rwy": "RNW 19",
                    "fixes": {
                        "RNW 19": "RNW 19 HDG 192 UNTIL 1160 HDG 215 UNTIL 2500 HDG 215 VECTORS",
                        "MCI": "MCI"
                    }
                },
                {
                    "rwy": "RNW 21",
                    "fixes": {
                        "RNW 21": "RNW 21 HDG 217 UNTIL 2300 HDG 217 VECTORS",
                        "MCI": "MCI"
                    }
                }
            ],
            "transitions": [
                {
                    "name": "CATTS",
                    "fixes": [
                        "OZAKI",
                        "CATTS"
                    ]
                },
                {
                    "name": "STJ",
                    "fixes": [
                        "STJ"
                    ]
                }
            ]
        },
        {
            "name": "LAKES4",
            "rnw": "29",
            "fixes": {},
            "sub_fixes": [
                {
                    "rwy": "RNW 01",
                    "fixes": {
                        "RNW 01": "RNW 01 HDG 012 UNTIL 2000 HDG 012 VECTORS"
                    }
                },
                {
                    "rwy": "RNW 03",
                    "fixes": {
                        "RNW 03": "RNW 03 HDG 037 UNTIL 1900 HDG 037 VECTORS"
                    }
                },
                {
                    "rwy": "RNW 19",
                    "fixes": {
                        "RNW 19": "RNW 19 HDG 192 UNTIL 1160 HDG 215 UNTIL 2500 HDG 215 VECTORS"
                    }
                },
                {
                    "rwy": "RNW 21",
                    "fixes": {
                        "RNW 21": "RNW 21 HDG 217 UNTIL 2300 HDG 217 VECTORS"
                    }
                }
            ],
            "transitions": [
                {
                    "name": "COU",
                    "fixes": [
                        "MCI",
                        "ANX",
                        "FRANC",
                        "COU"
                    ]
                },
                {
                    "name": "FRANC",
                    "fixes": [
                        "MCI",
                        "ANX",
                        "FRANC"
                    ]
                },
                {
                    "name": "SPI",
                    "fixes": [
                        "MCI",
                        "BLUZY",
                        "TWAIN",
                        "SPI"
                    ]
                },
                {
                    "name": "TWAIN",
                    "fixes": [
                        "MCI",
                        "BLUZY",
                        "TWAIN"
                    ]
                }
            ]
        },
        {
            "name": "RACER7",
            "rnw": "29",
            "fixes": {},
            "sub_fixes": [
                {
                    "rwy": "RNW 01",
                    "fixes": {
                        "RNW 01": "RNW 01 HDG 012 UNTIL 2000 HDG 012 VECTORS"
                    }
                },
                {
                    "rwy": "RNW 03",
                    "fixes": {
                        "RNW 03": "RNW 03 HDG 037 UNTIL 1900 HDG 037 VECTORS"
                    }
                },
                {
                    "rwy": "RNW 19",
                    "fixes": {
                        "RNW 19": "RNW 19 HDG 192 UNTIL 1160 HDG 215 UNTIL 2500 HDG 215 VECTORS"
                    }
                },
                {
                    "rwy": "RNW 21",
                    "fixes": {
                        "RNW 21": "RNW 21 HDG 217 UNTIL 2300 HDG 217 VECTORS"
                    }
                }
            ],
            "transitions": [
                {
                    "name": "BUM",
                    "fixes": [
                        "MCI",
                        "GRILD",
                        "BUM"
                    ]
                },
                {
                    "name": "DOSOA",
                    "fixes": [
                        "MCI",
                        "SPRNT",
                        "DOSOA"
                    ]
                },
                {
                    "name": "SGF",
                    "fixes": [
                        "MCI",
                        "GRILD",
                        "BUM",
                        "SGF"
                    ]
                }
            ]
        },
        {
            "name": "ROYAL9",
            "rnw": "29",
            "fixes": {},
            "sub_fixes": [
                {
                    "rwy": "RNW 01",
                    "fixes": {
                        "RNW 01": "RNW 01 HDG 012 UNTIL 2000 HDG 012 VECTORS"
                    }
                },
                {
                    "rwy": "RNW 03",
                    "fixes": {
                        "RNW 03": "RNW 03 HDG 037 UNTIL 1900 HDG 037 VECTORS"
                    }
                },
                {
                    "rwy": "RNW 19",
                    "fixes": {
                        "RNW 19": "RNW 19 HDG 192 UNTIL 1160 HDG 215 UNTIL 2500 HDG 215 VECTORS"
                    }
                },
                {
                    "rwy": "RNW 21",
                    "fixes": {
                        "RNW 21": "RNW 21 HDG 217 UNTIL 2300 HDG 217 VECTORS"
                    }
                }
            ],
            "transitions": [
                {
                    "name": "ARENZ",
                    "fixes": [
                        "MCI",
                        "CAYKO",
                        "JTHRO",
                        "ARENZ"
                    ]
                },
                {
                    "name": "BODYN",
                    "fixes": [
                        "MCI",
                        "CAYKO",
                        "JTHRO",
                        "ARENZ",
                        "BODYN"
                    ]
                },
                {
                    "name": "TONCE",
                    "fixes": [
                        "MCI",
                        "JDOGG",
                        "TONCE"
                    ]
                }
            ]
        },
        {
            "name": "TIFTO7",
            "rnw": "29",
            "fixes": {},
            "sub_fixes": [
                {
                    "rwy": "RNW 01",
                    "fixes": {
                        "RNW 01": "RNW 01 HDG 012 UNTIL 2000 HDG 012 VECTORS",
                        "MCI": "MCI"
                    }
                },
                {
                    "rwy": "RNW 03",
                    "fixes": {
                        "RNW 03": "RNW 03 HDG 037 UNTIL 1900 HDG 037 VECTORS",
                        "MCI": "MCI"
                    }
                },
                {
                    "rwy": "RNW 19",
                    "fixes": {
                        "RNW 19": "RNW 19 HDG 192 UNTIL 1160 HDG 215 UNTIL 2500 HDG 215 VECTORS",
                        "MCI": "MCI"
                    }
                },
                {
                    "rwy": "RNW 21",
                    "fixes": {
                        "RNW 21": "RNW 21 HDG 217 UNTIL 2300 HDG 217 VECTORS",
                        "MCI": "MCI"
                    }
                }
            ],
            "transitions": [
                {
                    "name": "TIFTO",
                    "fixes": [
                        "DIGGY",
                        "TIFTO"
                    ]
                }
            ]
        },
        {
            "name": "WLDCT5",
            "rnw": "29",
            "fixes": {},
            "sub_fixes": [
                {
                    "rwy": "RNW 01",
                    "fixes": {
                        "RNW 01": "RNW 01 HDG 012 UNTIL 2000 HDG 012 VECTORS"
                    }
                },
                {
                    "rwy": "RNW 03",
                    "fixes": {
                        "RNW 03": "RNW 03 HDG 037 UNTIL 1900 HDG 037 VECTORS"
                    }
                },
                {
                    "rwy": "RNW 19",
                    "fixes": {
                        "RNW 19": "RNW 19 HDG 192 UNTIL 1160 HDG 215 UNTIL 2500 HDG 215 VECTORS"
                    }
                },
                {
                    "rwy": "RNW 21",
                    "fixes": {
                        "RNW 21": "RNW 21 HDG 217 UNTIL 2300 HDG 217 VECTORS"
                    }
                }
            ],
            "transitions": [
                {
                    "name": "ICT",
                    "fixes": [
                        "MCI",
                        "TYTUS",
                        "KENTN",
                        "ICT"
                    ]
                },
                {
                    "name": "KENTN",
                    "fixes": [
                        "MCI",
                        "TYTUS",
                        "KENTN"
                    ]
                },
                {
                    "name": "SLN",
                    "fixes": [
                        "MCI",
                        "TYTUS",
                        "KENTN",
                        "SLN"
                    ]
                }
            ]
        }
    ],
    "stars": [
        {
            "name": "BQS8",
            "runway": "RNW 01 RNW 03 RNW 19 RNW 21",
            "fixes": {
                "BQS": "BQS AT OR BELOW 14000 AT OR ABOVE 12000",
                "DONNS": "DONNS AT OR ABOVE 12000 HDG 241 VECTORS"
            }
        },
        {
            "name": "JHAWK6.01",
            "runway": "RNW 01",
            "fixes": {
                "JHAWK": "JHAWK",
                "HOOZE": "HOOZE"
            }
        },
        {
            "name": "JHAWK6.03",
            "runway": "RNW 03",
            "fixes": {
                "JHAWK": "JHAWK",
                "HOOZE": "HOOZE"
            }
        },
        {
            "name": "JHAWK6.19",
            "runway": "RNW 19",
            "fixes": {
                "JHAWK": "JHAWK",
                "HOOZE": "HOOZE",
                "RUGBB": "RUGBB",
                "NOAHS": "NOAHS SPEED 210 HDG 010 VECTORS"
            }
        },
        {
            "name": "JHAWK6.21",
            "runway": "RNW 21",
            "fixes": {
                "JHAWK": "JHAWK",
                "HOOZE": "HOOZE",
                "RUGBB": "RUGBB",
                "NOAHS": "NOAHS SPEED 210 HDG 010 VECTORS"
            }
        },
        {
            "name": "TYGER6.01",
            "runway": "RNW 01",
            "fixes": {
                "TYGER": "TYGER",
                "TRIKE": "TRIKE"
            }
        },
        {
            "name": "TYGER6.03",
            "runway": "RNW 03",
            "fixes": {
                "TYGER": "TYGER",
                "TRIKE": "TRIKE"
            }
        },
        {
            "name": "TYGER6.19",
            "runway": "RNW 19",
            "fixes": {
                "TYGER": "TYGER",
                "TRIKE": "TRIKE",
                "MORAY": "MORAY",
                "SLABB": "SLABB SPEED 210 HDG 010 VECTORS"
            }
        },
        {
            "name": "TYGER6.21",
            "runway": "RNW 21",
            "fixes": {
                "TYGER": "TYGER",
                "TRIKE": "TRIKE",
                "MORAY": "MORAY",
                "SLABB": "SLABB SPEED 210 HDG 010 VECTORS"
            }
        }
    ],
    "approaches": [
        {
            "name": "ILS03",
            "fixes": {
                "HEPTO": "HEPTO AT OR ABOVE 3000",
                "FENEN": "FENEN 2400 RNW 03 HDG 035 INTERCEPT RADIAL 115 TO",
                "ANX": "ANX ANX AT OR ABOVE 3000 HOLD AT ANX RIGHT TURN INBOUNDCOURSE 333 LEGTIME 1 FAF FENEN MAP RNW 03"
            },
            "transitions": [
                {
                    "name": "OLATH",
                    "fixes": {
                        "OLATH": "OLATH"
                    }
                },
                {
                    "name": "TOP",
                    "fixes": {
                        "TOP": "TOP"
                    }
                }
            ]
        },
        {
            "name": "ILS19",
            "fixes": {
                "COVRI": "COVRI AT OR ABOVE 3000",
                "ZODGA": "ZODGA 2600 RNW 19 TRK 192 UNTIL 1300 TURN RIGHT DIRECT",
                "TOP": "TOP AT OR ABOVE 4000 HOLD AT TOP LEFT TURN INBOUNDCOURSE 205 LEGTIME 1 FAF ZODGA MAP RNW 19"
            },
            "transitions": [
                {
                    "name": "ANX",
                    "fixes": {
                        "ANX": "ANX",
                        "COVRI": "COVRI AT OR ABOVE 3000 HOLD AT COVRI RIGHT TURN INBOUNDCOURSE 192 ALT 3000 LEGTIME 1"
                    }
                }
            ]
        },
        {
            "name": "RNAV03",
            "fixes": {
                "BEYAV": "BEYAV AT OR ABOVE 3000",
                "DOCAB": "DOCAB 2500",
                "NEDBE": "NEDBE AT OR ABOVE 1620 RNW 03 TRK 037 UNTIL 999",
                "HEBKI": "HEBKI",
                "LYMES": "OVERFLY LYMES AT OR ABOVE 3000 HOLD AT LYMES LEFT TURN INBOUNDCOURSE 274 LEGDIST 4 FAF DOCAB MAP RNW 03"
            },
            "transitions": [
                {
                    "name": "DODSN",
                    "fixes": {
                        "DODSN": "DODSN"
                    }
                }
            ]
        },
        {
            "name": "RNAV19",
            "fixes": {
                "COVRI": "COVRI AT OR ABOVE 3000",
                "ZODGA": "ZODGA 2600",
                "ZEGAP": "ZEGAP AT OR ABOVE 1700",
                "WALOR": "OVERFLY WALOR 1078 RNW 19 TRK 192 UNTIL 1157",
                "MIFEV": "MIFEV",
                "YETUK": "OVERFLY YETUK AT OR ABOVE 4000 FAF ZODGA MAP WALOR"
            },
            "transitions": [
                {
                    "name": "BQS",
                    "fixes": {
                        "BQS": "BQS",
                        "DONNS": "DONNS AT OR ABOVE 3000"
                    }
                },
                {
                    "name": "COVRI",
                    "fixes": {
                        "COVRI": "COVRI RIGHT TURN INBOUNDCOURSE 192 ALT 3000 LEGDIST 4"
                    }
                }
            ]
        },
        {
            "name": "RNAV21",
            "fixes": {
                "CEVKO": "CEVKO AT OR ABOVE 3700",
                "OKTUE": "OKTUE 2600",
                "WOWTA": "WOWTA AT OR ABOVE 1440",
                "FISGO": "OVERFLY FISGO 978 RNW 21 TRK 226 UNTIL 1157",
                "HOTVA": "HOTVA",
                "ZADGU": "ZADGU",
                "ULKEC": "ULKEC",
                "ANX": "OVERFLY ANX AT OR ABOVE 3700 HOLD AT ANX RIGHT TURN INBOUNDCOURSE 335 LEGDIST 4 FAF OKTUE MAP FISGO"
            },
            "transitions": [
                {
                    "name": "ANX",
                    "fixes": {
                        "ANX": "ANX",
                        "WOTUR": "WOTUR AT OR ABOVE 3700"
                    }
                },
                {
                    "name": "AYOCI",
                    "fixes": {
                        "AYOCI": "AYOCI"
                    }
                }
            ]
        }
    ]
}