{
    "fixes": [
        {
            "name": "ACCRA",
            "lat": 41.93333333333333,
            "lon": 88.01944443333333
        },
        {
            "name": "ADELE",
            "lat": 43.18075278333333,
            "lon": 87.85471111666666
        },
        {
            "name": "AXIOM",
            "lat": 42.94875,
            "lon": 87.707525
        },
        {
            "name": "BAE",
            "lat": 43.116852783333336,
            "lon": 88.28434443333333
        },
        {
            "name": "BALMS",
            "lat": 42.94437778333333,
            "lon": 88.240725
        },
        {
            "name": "BAYZE",
            "lat": 42.99856388333333,
            "lon": 87.88599721666667
        },
        {
            "name": "BETTA",
            "lat": 43.045063883333334,
            "lon": 87.81116388333334
        },
        {
            "name": "BOCCI",
            "lat": 43.01854721666667,
            "lon": 87.73941111666667
        },
        {
            "name": "BONOT",
            "lat": 42.871716666666664,
            "lon": 88.19230833333333
        },
        {
            "name": "BRANS",
            "lat": 43.17715556666667,
            "lon": 87.69595833333334
        },
        {
            "name": "BUMRE",
            "lat": 42.900666666666666,
            "lon": 87.74571111666667
        },
        {
            "name": "CEMAX",
            "lat": 42.84626943333333,
            "lon": 88.10616388333334
        },
        {
            "name": "CEXIS",
            "lat": 43.06884721666667,
            "lon": 88.06985
        },
        {
            "name": "CIKEM",
            "lat": 42.88578056666667,
            "lon": 88.17836666666666
        },
        {
            "name": "CITKI",
            "lat": 43.01085833333333,
            "lon": 87.62141666666666
        },
        {
            "name": "CULEK",
            "lat": 43.067591666666665,
            "lon": 87.69066666666667
        },
        {
            "name": "CUSIT",
            "lat": 43.19207778333333,
            "lon": 87.848925
        },
        {
            "name": "CUTMO",
            "lat": 42.835725,
            "lon": 87.91379443333334
        },
        {
            "name": "DELEY",
            "lat": 43.04323333333333,
            "lon": 87.87455556666667
        },
        {
            "name": "DELHI",
            "lat": 41.93333333333333,
            "lon": 87.78611111666666
        },
        {
            "name": "DETIE",
            "lat": 42.359344433333334,
            "lon": 88.36343888333333
        },
        {
            "name": "DREWD",
            "lat": 42.548155566666665,
            "lon": 88.39603333333334
        },
        {
            "name": "DUSAY",
            "lat": 42.83496111666667,
            "lon": 87.71932221666667
        },
        {
            "name": "EGGED",
            "lat": 42.93754166666667,
            "lon": 87.64442778333333
        },
        {
            "name": "EMEWO",
            "lat": 42.87081666666667,
            "lon": 88.19595833333334
        },
        {
            "name": "FAHEY",
            "lat": 42.975177783333336,
            "lon": 87.76919443333334
        },
        {
            "name": "FANZI",
            "lat": 42.694119433333334,
            "lon": 88.14673888333333
        },
        {
            "name": "FEKAR",
            "lat": 42.857447216666664,
            "lon": 87.90636388333333
        },
        {
            "name": "FETIX",
            "lat": 43.009380566666664,
            "lon": 87.67182778333333
        },
        {
            "name": "FIBSO",
            "lat": 43.20470556666667,
            "lon": 87.98454443333333
        },
        {
            "name": "FIDNO",
            "lat": 42.90733611666667,
            "lon": 88.04761666666667
        },
        {
            "name": "FIKIT",
            "lat": 42.99082778333333,
            "lon": 87.70449721666667
        },
        {
            "name": "FIKUP",
            "lat": 42.97918056666666,
            "lon": 87.93498611666666
        },
        {
            "name": "FITGU",
            "lat": 42.84450833333333,
            "lon": 87.547275
        },
        {
            "name": "FOGBI",
            "lat": 42.92344443333333,
            "lon": 88.02522221666666
        },
        {
            "name": "GAUSS",
            "lat": 42.850791666666666,
            "lon": 87.95173611666667
        },
        {
            "name": "GERLE",
            "lat": 42.89278611666667,
            "lon": 87.80560833333334
        },
        {
            "name": "GIWFY",
            "lat": 42.762113883333335,
            "lon": 89.01795
        },
        {
            "name": "GOMPE",
            "lat": 43.20340278333333,
            "lon": 88.10341111666666
        },
        {
            "name": "GOPAC",
            "lat": 42.816738883333336,
            "lon": 88.41585278333334
        },
        {
            "name": "GUGGE",
            "lat": 43.0122,
            "lon": 87.98458888333333
        },
        {
            "name": "HAGIN",
            "lat": 43.15756388333333,
            "lon": 87.60619721666667
        },
        {
            "name": "HARGU",
            "lat": 42.979922216666665,
            "lon": 88.07783888333333
        },
        {
            "name": "HARIR",
            "lat": 42.749355566666665,
            "lon": 87.92851943333334
        },
        {
            "name": "HAXUT",
            "lat": 42.906588883333335,
            "lon": 88.10738056666666
        },
        {
            "name": "HERUL",
            "lat": 42.99790278333333,
            "lon": 87.88233611666666
        },
        {
            "name": "HHHUL",
            "lat": 42.059097216666665,
            "lon": 88.04979166666666
        },
        {
            "name": "HONUR",
            "lat": 42.863919433333336,
            "lon": 87.89796943333333
        },
        {
            "name": "HUBAN",
            "lat": 42.93592221666667,
            "lon": 87.974225
        },
        {
            "name": "HULOX",
            "lat": 42.929619433333336,
            "lon": 87.95651666666667
        },
        {
            "name": "HUVED",
            "lat": 43.069383333333334,
            "lon": 88.11573888333334
        },
        {
            "name": "IRONY",
            "lat": 42.905675,
            "lon": 88.05436666666667
        },
        {
            "name": "JANSI",
            "lat": 42.899033333333335,
            "lon": 88.081425
        },
        {
            "name": "JEPSA",
            "lat": 42.98293056666667,
            "lon": 87.78113056666666
        },
        {
            "name": "JITNU",
            "lat": 42.829316666666664,
            "lon": 88.03941943333334
        },
        {
            "name": "JUTAX",
            "lat": 42.737777783333335,
            "lon": 87.93048611666667
        },
        {
            "name": "JUVAD",
            "lat": 42.930125,
            "lon": 87.60116111666666
        },
        {
            "name": "KAJJY",
            "lat": 42.413611116666665,
            "lon": 88.14060278333334
        },
        {
            "name": "KNARF",
            "lat": 42.738825,
            "lon": 88.43286666666667
        },
        {
            "name": "KPACK",
            "lat": 42.76812221666667,
            "lon": 88.861675
        },
        {
            "name": "LADDI",
            "lat": 42.07691943333333,
            "lon": 87.78205556666667
        },
        {
            "name": "LEEDN",
            "lat": 41.71315833333333,
            "lon": 88.31635278333333
        },
        {
            "name": "LEEDR",
            "lat": 42.796536116666665,
            "lon": 88.53213056666667
        },
        {
            "name": "LVENS",
            "lat": 42.304738883333336,
            "lon": 88.11140278333333
        },
        {
            "name": "MAULT",
            "lat": 42.426836116666664,
            "lon": 87.62324443333333
        },
        {
            "name": "MUMPR",
            "lat": 42.24358333333333,
            "lon": 88.34980278333333
        },
        {
            "name": "OCEBE",
            "lat": 42.884991666666664,
            "lon": 87.81030556666667
        },
        {
            "name": "OGECA",
            "lat": 42.640152783333335,
            "lon": 92.08363056666667
        },
        {
            "name": "OHLIE",
            "lat": 42.72581666666667,
            "lon": 90.19743056666667
        },
        {
            "name": "OMOGE",
            "lat": 43.063319433333334,
            "lon": 87.87489721666667
        },
        {
            "name": "OMTOE",
            "lat": 42.88898056666667,
            "lon": 88.12228611666667
        },
        {
            "name": "OZAUK",
            "lat": 42.53451666666667,
            "lon": 87.63188611666666
        },
        {
            "name": "PRFEC",
            "lat": 42.69409721666667,
            "lon": 87.64363888333334
        },
        {
            "name": "PROOT",
            "lat": 43.134658333333334,
            "lon": 87.70330278333333
        },
        {
            "name": "RALTE",
            "lat": 42.97148611666667,
            "lon": 87.72257221666666
        },
        {
            "name": "RF001",
            "lat": 42.9891341,
            "lon": 87.73421388333334
        },
        {
            "name": "RF002",
            "lat": 43.01097885,
            "lon": 87.70726508333334
        },
        {
            "name": "RF003",
            "lat": 43.03824433333333,
            "lon": 87.6921419
        },
        {
            "name": "RF004",
            "lat": 42.82746913333333,
            "lon": 88.06383626666667
        },
        {
            "name": "RF005",
            "lat": 42.8329353,
            "lon": 88.08679193333333
        },
        {
            "name": "RF006",
            "lat": 42.866273166666666,
            "lon": 88.11425331666666
        },
        {
            "name": "RF007",
            "lat": 42.88633333333333,
            "lon": 88.10510986666667
        },
        {
            "name": "RF008",
            "lat": 42.9691905,
            "lon": 88.10080556666666
        },
        {
            "name": "RF009",
            "lat": 42.951711583333335,
            "lon": 88.11457688333333
        },
        {
            "name": "RF010",
            "lat": 42.90288176666667,
            "lon": 88.1131525
        },
        {
            "name": "RF011",
            "lat": 42.9211842,
            "lon": 88.16562206666667
        },
        {
            "name": "RF012",
            "lat": 42.95580976666667,
            "lon": 88.19943655
        },
        {
            "name": "RF013",
            "lat": 42.99809428333333,
            "lon": 88.20609933333333
        },
        {
            "name": "RF014",
            "lat": 43.03743896666667,
            "lon": 88.18388741666666
        },
        {
            "name": "RF015",
            "lat": 42.910952566666666,
            "lon": 87.723191
        },
        {
            "name": "RF016",
            "lat": 42.92761351666667,
            "lon": 87.70923148333333
        },
        {
            "name": "RF017",
            "lat": 43.04613031666667,
            "lon": 87.78152358333334
        },
        {
            "name": "RF018",
            "lat": 43.03636026666667,
            "lon": 87.75530696666667
        },
        {
            "name": "SAMPL",
            "lat": 41.979166666666664,
            "lon": 87.4625
        },
        {
            "name": "SNAPS",
            "lat": 42.835005566666666,
            "lon": 88.016225
        },
        {
            "name": "TAAIL",
            "lat": 42.851216666666666,
            "lon": 88.27982778333333
        },
        {
            "name": "TRUDO",
            "lat": 42.68402221666667,
            "lon": 88.41979721666667
        },
        {
            "name": "UECKR",
            "lat": 42.31461388333334,
            "lon": 87.6471
        },
        {
            "name": "UHEFY",
            "lat": 42.886955566666664,
            "lon": 87.61706388333333
        },
        {
            "name": "UNWED",
            "lat": 43.02305833333333,
            "lon": 87.90177221666667
        },
        {
            "name": "WALUM",
            "lat": 42.922216666666664,
            "lon": 87.9868
        },
        {
            "name": "WENUL",
            "lat": 42.54941111666667,
            "lon": 88.14604721666667
        },
        {
            "name": "WIDOS",
            "lat": 42.930483333333335,
            "lon": 88.11518611666666
        },
        {
            "name": "WIPED",
            "lat": 42.733983333333335,
            "lon": 88.140925
        },
        {
            "name": "YEDSU",
            "lat": 42.75871943333333,
            "lon": 89.17688056666667
        },
        {
            "name": "ZAMIN",
            "lat": 43.164338883333336,
            "lon": 87.95173888333333
        },
        {
            "name": "ZOLBO",
            "lat": 42.739675,
            "lon": 87.83712221666667
        },
        {
            "name": "ZOWRO",
            "lat": 42.77284721666667,
            "lon": 88.66568056666667
        },
        {
            "name": "ZUGUN",
            "lat": 43.00100833333333,
            "lon": 87.99166388333333
        }
    ],
    "rnws": [
        "RNW 01L",
        "RNW 01R",
        "RNW 07L",
        "RNW 07R",
        "RNW 13",
        "RNW 19L",
        "RNW 19R",
        "RNW 25L",
        "RNW 25R",
        "RNW 31"
    ],
    "sids": [
        {
            "name": "ACCRA5",
            "rnw": "01L",
            "fixes": {
                "FANZI": "FANZI",
                "WENUL": "WENUL AT OR ABOVE 11000",
                "KAJJY": "KAJJY AT OR ABOVE 13000",
                "LVENS": "LVENS AT OR ABOVE 16000",
                "HHHUL": "HHHUL",
                "ACCRA": "ACCRA"
            },
            "sub_fixes": [],
            "transitions": []
        },
        {
            "name": "MKE8",
            "rnw": "01L",
            "fixes": {},
            "sub_fixes": [
                {
                    "rwy": "RNW 01L",
                    "fixes": {
                        "RNW 01L": "RNW 01L HDG 011 UNTIL 1130 HDG 011 VECTORS"
                    }
                },
                {
                    "rwy": "RNW 01R",
                    "fixes": {
                        "RNW 01R": "RNW 01R HDG 011 UNTIL 1130 HDG 011 VECTORS"
                    }
                },
                {
                    "rwy": "RNW 07L",
                    "fixes": {
                        "RNW 07L": "RNW 07L HDG 076 UNTIL 1130 HDG 076 VECTORS"
                    }
                },
                {
                    "rwy": "RNW 07R",
                    "fixes": {
                        "RNW 07R": "RNW 07R HDG 076 UNTIL 1130 HDG 076 VECTORS"
                    }
                },
                {
                    "rwy": "RNW 13",
                    "fixes": {
                        "RNW 13": "RNW 13 HDG 136 UNTIL 1130 HDG 136 VECTORS"
                    }
                },
                {
                    "rwy": "RNW 19L",
                    "fixes": {
                        "RNW 19L": "RNW 19L HDG 191 UNTIL 1130 HDG 191 VECTORS"
                    }
                },
                {
                    "rwy": "RNW 19R",
                    "fixes": {
                        "RNW 19R": "RNW 19R HDG 191 UNTIL 1130 HDG 191 VECTORS"
                    }
                },
                {
                    "rwy": "RNW 25L",
                    "fixes": {
                        "RNW 25L": "RNW 25L HDG 256 UNTIL 1130 HDG 256 VECTORS"
                    }
                },
                {
                    "rwy": "RNW 25R",
                    "fixes": {
                        "RNW 25R": "RNW 25R HDG 256 UNTIL 1130 HDG 256 VECTORS"
                    }
                },
                {
                    "rwy": "RNW 31",
                    "fixes": {
                        "RNW 31": "RNW 31 HDG 316 UNTIL 1130 HDG 316 VECTORS"
                    }
                }
            ],
            "transitions": []
        },
        {
            "name": "UECKR6",
            "rnw": "01L",
            "fixes": {
                "PRFEC": "PRFEC",
                "OZAUK": "OZAUK AT OR ABOVE 11000",
                "MAULT": "MAULT AT OR ABOVE 13000",
                "UECKR": "UECKR AT OR ABOVE 16000"
            },
            "sub_fixes": [],
            "transitions": [
                {
                    "name": "DELHI",
                    "fixes": [
                        "LADDI",
                        "DELHI"
                    ]
                },
                {
                    "name": "SAMPL",
                    "fixes": [
                        "SAMPL"
                    ]
                }
            ]
        }
    ],
    "stars": [
        {
            "name": "GOPAC2",
            "runway": "RNW 01L RNW 01R RNW 07L RNW 07R RNW 13 RNW 19L RNW 19R RNW 25L RNW 25R RNW 31",
            "fixes": {
                "GOPAC": "GOPAC",
                "TAAIL": "TAAIL",
                "BONOT": "OVERFLY BONOT TRK 076 VECTORS"
            }
        }
    ],
    "approaches": [
        {
            "name": "ILS01L",
            "fixes": {
                "JUTAX": "JUTAX AT OR ABOVE 2700",
                "CUTMO": "CUTMO 2600 RNW 01L TRK 011 UNTIL 1200",
                "BAE": "BAE AT OR ABOVE 2900 HOLD AT BAE RIGHT TURN INBOUNDCOURSE 090 LEGTIME 1 FAF CUTMO MAP RNW 01L"
            },
            "transitions": [
                {
                    "name": "BAE",
                    "fixes": {
                        "BAE": "BAE",
                        "JUTAX": "JUTAX AT OR ABOVE 2700 HOLD AT JUTAX RIGHT TURN INBOUNDCOURSE 011 ALT 2700 LEGTIME 1"
                    }
                }
            ]
        },
        {
            "name": "ILS07R",
            "fixes": {
                "BONOT": "BONOT AT OR ABOVE 2900",
                "FIDNO": "FIDNO 2700 RNW 07R TRK 076 UNTIL 2900 TURN LEFT DIRECT",
                "BAE": "BAE HOLD AT BAE RIGHT TURN INBOUNDCOURSE 090 LEGTIME 1 FAF FIDNO MAP RNW 07R"
            },
            "transitions": []
        },
        {
            "name": "ILS19R",
            "fixes": {
                "ADELE": "ADELE AT OR ABOVE 2900",
                "OMOGE": "OMOGE 2800 RNW 19R TRK 191 UNTIL 2800 TURN RIGHT DIRECT",
                "BAE": "BAE HOLD AT BAE RIGHT TURN INBOUNDCOURSE 090 LEGTIME 1 FAF OMOGE MAP RNW 19R"
            },
            "transitions": [
                {
                    "name": "ADELE",
                    "fixes": {
                        "ADELE": "ADELE RIGHT TURN INBOUNDCOURSE 191 ALT 2900 LEGTIME 1"
                    }
                }
            ]
        },
        {
            "name": "LOC25L",
            "fixes": {
                "CITKI": "CITKI AT OR ABOVE 2900",
                "FAHEY": "FAHEY 2500 RNW 25L TRK 256 UNTIL 2800",
                "BAE": "BAE HOLD AT BAE RIGHT TURN INBOUNDCOURSE 090 LEGTIME 1 FAF FAHEY MAP RNW 25L"
            },
            "transitions": [
                {
                    "name": "CITKI",
                    "fixes": {
                        "CITKI": "CITKI RIGHT TURN INBOUNDCOURSE 256 ALT 2900 LEGTIME 1"
                    }
                }
            ]
        },
        {
            "name": "RNAV01L",
            "fixes": {
                "JUTAX": "JUTAX AT OR ABOVE 2700",
                "CUTMO": "CUTMO 2600 RNW 01L TRK 011 UNTIL 1130",
                "BAE": "OVERFLY BAE AT OR ABOVE 2900 HOLD AT BAE RIGHT TURN INBOUNDCOURSE 090 LEGDIST 4 FAF CUTMO MAP RNW 01L"
            },
            "transitions": [
                {
                    "name": "BAE",
                    "fixes": {
                        "BAE": "BAE",
                        "JUTAX": "OVERFLY JUTAX AT OR ABOVE 2700 HOLD AT JUTAX RIGHT TURN INBOUNDCOURSE 011 ALT 2700 LEGDIST 4"
                    }
                },
                {
                    "name": "WIPED",
                    "fixes": {
                        "WIPED": "WIPED"
                    }
                }
            ]
        },
        {
            "name": "RNAV01R",
            "fixes": {
                "HARIR": "HARIR AT OR ABOVE 2700",
                "FEKAR": "FEKAR 2300 RNW 01R TRK 011 UNTIL 928",
                "CUSIT": "OVERFLY CUSIT AT OR ABOVE 2900 HOLD AT CUSIT RIGHT TURN INBOUNDCOURSE 191 LEGDIST 4 FAF FEKAR MAP RNW 01R"
            },
            "transitions": [
                {
                    "name": "BAE",
                    "fixes": {
                        "BAE": "BAE",
                        "HARIR": "OVERFLY HARIR AT OR ABOVE 2700 HOLD AT HARIR RIGHT TURN INBOUNDCOURSE 013 ALT 2700 LEGDIST 4"
                    }
                },
                {
                    "name": "WIPED",
                    "fixes": {
                        "WIPED": "WIPED"
                    }
                }
            ]
        },
        {
            "name": "RNAV07L",
            "fixes": {
                "CIKEM": "CIKEM AT OR ABOVE 2900",
                "FOGBI": "FOGBI 2500",
                "HUBAN": "HUBAN AT OR ABOVE 1740 RNW 07L TRK 076 UNTIL 922",
                "FETIX": "OVERFLY FETIX AT OR ABOVE 2900 HOLD AT FETIX RIGHT TURN INBOUNDCOURSE 256 LEGDIST 4 FAF FOGBI MAP RNW 07L"
            },
            "transitions": [
                {
                    "name": "BAE",
                    "fixes": {
                        "BAE": "BAE"
                    }
                },
                {
                    "name": "WIPED",
                    "fixes": {
                        "WIPED": "WIPED"
                    }
                }
            ]
        },
        {
            "name": "RNAV07RY",
            "fixes": {
                "IRONY": "IRONY AT OR ABOVE 2800",
                "WALUM": "WALUM 1800 RNW 07R",
                "FAHEY": "FAHEY",
                "RF001": "RF001",
                "RF002": "RF002",
                "RF003": "RF003",
                "CULEK": "CULEK",
                "PROOT": "OVERFLY PROOT AT OR ABOVE 3700 HOLD AT PROOT RIGHT TURN INBOUNDCOURSE 174 LEGDIST 4 FAF WALUM MAP RNW 07R"
            },
            "transitions": [
                {
                    "name": "BALMS",
                    "fixes": {
                        "BALMS": "BALMS 5400 SPEED 210",
                        "HAXUT": "HAXUT AT OR ABOVE 3500"
                    }
                },
                {
                    "name": "BONOT",
                    "fixes": {
                        "BONOT": "BONOT AT OR ABOVE 4800",
                        "JANSI": "JANSI AT OR ABOVE 3200"
                    }
                },
                {
                    "name": "HONUR",
                    "fixes": {
                        "HONUR": "HONUR AT OR ABOVE 7000 SPEED 220",
                        "GAUSS": "GAUSS AT OR ABOVE 6500",
                        "SNAPS": "SNAPS 6000 SPEED 210",
                        "JITNU": "JITNU AT OR ABOVE 5700",
                        "RF004": "RF004",
                        "RF005": "RF005",
                        "CEMAX": "CEMAX AT OR ABOVE 4500 SPEED 190",
                        "RF006": "RF006",
                        "RF007": "RF007",
                        "JANSI": "JANSI AT OR ABOVE 3200"
                    }
                },
                {
                    "name": "ZUGUN",
                    "fixes": {
                        "ZUGUN": "ZUGUN 6000 SPEED 210",
                        "HARGU": "HARGU AT OR ABOVE 4900",
                        "RF008": "RF008",
                        "RF009": "RF009",
                        "WIDOS": "WIDOS AT OR ABOVE 3800 SPEED 190"
                    }
                }
            ]
        },
        {
            "name": "RNAV07RZ",
            "fixes": {
                "EMEWO": "EMEWO AT OR ABOVE 2900",
                "FIDNO": "FIDNO 2700",
                "HULOX": "HULOX AT OR ABOVE 1340 RNW 07R TRK 076 UNTIL 2900 TURN LEFT DIRECT",
                "BAE": "OVERFLY BAE AT OR ABOVE 3000 HOLD AT BAE RIGHT TURN INBOUNDCOURSE 090 LEGDIST 4 FAF FIDNO MAP RNW 07R"
            },
            "transitions": []
        },
        {
            "name": "RNAV13",
            "fixes": {
                "CEXIS": "CEXIS AT OR ABOVE 2700",
                "GUGGE": "GUGGE 2300",
                "FIKUP": "FIKUP AT OR ABOVE 1360 RNW 13 TRK 136 UNTIL 971",
                "DUSAY": "OVERFLY DUSAY AT OR ABOVE 2900 HOLD AT DUSAY RIGHT TURN INBOUNDCOURSE 316 LEGDIST 4 FAF GUGGE MAP RNW 13"
            },
            "transitions": [
                {
                    "name": "BAE",
                    "fixes": {
                        "BAE": "BAE"
                    }
                },
                {
                    "name": "ZAMIN",
                    "fixes": {
                        "ZAMIN": "ZAMIN"
                    }
                }
            ]
        },
        {
            "name": "RNAV19L",
            "fixes": {
                "CUSIT": "CUSIT AT OR ABOVE 2900 SPEED 220",
                "DELEY": "DELEY 2500",
                "HERUL": "HERUL AT OR ABOVE 1620 RNW 19L TRK 191 UNTIL 1600 TURN RIGHT DIRECT",
                "BAE": "OVERFLY BAE AT OR ABOVE 2900 HOLD AT BAE RIGHT TURN INBOUNDCOURSE 090 LEGDIST 4 FAF DELEY MAP RNW 19L"
            },
            "transitions": [
                {
                    "name": "BAE",
                    "fixes": {
                        "BAE": "BAE",
                        "FIBSO": "FIBSO AT OR ABOVE 2900"
                    }
                }
            ]
        },
        {
            "name": "RNAV19R",
            "fixes": {
                "ADELE": "ADELE AT OR ABOVE 2900",
                "OMOGE": "OMOGE 2800",
                "BAYZE": "BAYZE AT OR ABOVE 1540 RNW 19R TRK 191 UNTIL 2000 TURN RIGHT DIRECT",
                "BAE": "OVERFLY BAE AT OR ABOVE 2800 HOLD AT BAE RIGHT TURN INBOUNDCOURSE 090 LEGDIST 4 FAF OMOGE MAP RNW 19R"
            },
            "transitions": [
                {
                    "name": "GOMPE",
                    "fixes": {
                        "GOMPE": "GOMPE"
                    }
                },
                {
                    "name": "HAGIN",
                    "fixes": {
                        "HAGIN": "HAGIN"
                    }
                }
            ]
        },
        {
            "name": "RNAV25LY",
            "fixes": {
                "FAHEY": "FAHEY 2500 RNW 25L",
                "IRONY": "IRONY",
                "RF010": "RF010",
                "RF011": "RF011",
                "RF012": "RF012",
                "RF013": "RF013",
                "RF014": "RF014",
                "HUVED": "HUVED",
                "PROOT": "OVERFLY PROOT AT OR ABOVE 3700 HOLD AT PROOT RIGHT TURN INBOUNDCOURSE 174 LEGDIST 4 FAF FAHEY MAP RNW 25L"
            },
            "transitions": [
                {
                    "name": "CITKI",
                    "fixes": {
                        "CITKI": "CITKI AT OR ABOVE 4600",
                        "FIKIT": "FIKIT AT OR ABOVE 3400"
                    }
                },
                {
                    "name": "EGGED",
                    "fixes": {
                        "EGGED": "EGGED 4300 SPEED 210",
                        "RALTE": "RALTE AT OR ABOVE 3100"
                    }
                },
                {
                    "name": "OCEBE",
                    "fixes": {
                        "OCEBE": "OCEBE 6000 SPEED 210",
                        "BUMRE": "BUMRE AT OR ABOVE 5000",
                        "RF015": "RF015",
                        "RF016": "RF016",
                        "AXIOM": "AXIOM AT OR ABOVE 3700 SPEED 190"
                    }
                },
                {
                    "name": "UNWED",
                    "fixes": {
                        "UNWED": "UNWED 6000 SPEED 210",
                        "BETTA": "BETTA AT OR ABOVE 4700",
                        "RF017": "RF017",
                        "RF018": "RF018",
                        "BOCCI": "BOCCI AT OR ABOVE 3500 SPEED 190"
                    }
                }
            ]
        },
        {
            "name": "RNAV25LZ",
            "fixes": {
                "CITKI": "CITKI AT OR ABOVE 2900",
                "FAHEY": "FAHEY 2500 RNW 25L TRK 256 UNTIL 973",
                "OMTOE": "OMTOE",
                "BAE": "OVERFLY BAE AT OR ABOVE 2900 HOLD AT BAE RIGHT TURN INBOUNDCOURSE 090 LEGDIST 4 FAF FAHEY MAP RNW 25L"
            },
            "transitions": [
                {
                    "name": "BRANS",
                    "fixes": {
                        "BRANS": "BRANS"
                    }
                },
                {
                    "name": "FITGU",
                    "fixes": {
                        "FITGU": "FITGU"
                    }
                }
            ]
        },
        {
            "name": "RNAV25R",
            "fixes": {
                "FETIX": "FETIX AT OR ABOVE 2900",
                "JEPSA": "JEPSA 2300 RNW 25R TRK 256 UNTIL 1080",
                "CIKEM": "OVERFLY CIKEM AT OR ABOVE 2900 HOLD AT CIKEM RIGHT TURN INBOUNDCOURSE 075 LEGDIST 4 FAF JEPSA MAP RNW 25R"
            },
            "transitions": [
                {
                    "name": "PROOT",
                    "fixes": {
                        "PROOT": "PROOT"
                    }
                },
                {
                    "name": "UHEFY",
                    "fixes": {
                        "UHEFY": "UHEFY"
                    }
                }
            ]
        },
        {
            "name": "RNAV31",
            "fixes": {
                "DUSAY": "DUSAY AT OR ABOVE 2900",
                "GERLE": "GERLE 2300 RNW 31 TRK 316 UNTIL 948",
                "CEXIS": "OVERFLY CEXIS AT OR ABOVE 2900 HOLD AT CEXIS RIGHT TURN INBOUNDCOURSE 136 LEGDIST 4 FAF GERLE MAP RNW 31"
            },
            "transitions": [
                {
                    "name": "JUVAD",
                    "fixes": {
                        "JUVAD": "JUVAD"
                    }
                },
                {
                    "name": "ZOLBO",
                    "fixes": {
                        "ZOLBO": "ZOLBO"
                    }
                }
            ]
        }
    ]
}