{
    "fixes": [
        {
            "name": "BOPMY",
            "lat": 44.32621111666667,
            "lon": 95.61798611666667
        },
        {
            "name": "CARIT",
            "lat": 44.46799443333333,
            "lon": 96.20319443333334
        },
        {
            "name": "CEGUL",
            "lat": 44.483775,
            "lon": 95.87415833333333
        },
        {
            "name": "CF12",
            "lat": 44.56616111666666,
            "lon": 96.01841111666667
        },
        {
            "name": "DABLE",
            "lat": 44.47993056666667,
            "lon": 95.87381388333333
        },
        {
            "name": "FF12",
            "lat": 44.51628888333333,
            "lon": 95.91966943333334
        },
        {
            "name": "FSD",
            "lat": 43.64949166666667,
            "lon": 96.781125
        },
        {
            "name": "GARNO",
            "lat": 44.502158333333334,
            "lon": 95.91102778333334
        },
        {
            "name": "HIBUM",
            "lat": 44.50445833333333,
            "lon": 95.91485278333333
        },
        {
            "name": "MML",
            "lat": 44.44841111666667,
            "lon": 95.82476111666666
        },
        {
            "name": "OHEXE",
            "lat": 44.39271111666667,
            "lon": 95.72837221666667
        },
        {
            "name": "PELBE",
            "lat": 44.57308056666667,
            "lon": 96.03005556666666
        },
        {
            "name": "PI001",
            "lat": 44.539637133333336,
            "lon": 95.97372151666667
        },
        {
            "name": "PI002",
            "lat": 44.61103075,
            "lon": 95.98249556666667
        },
        {
            "name": "PI003",
            "lat": 44.60914945,
            "lon": 96.09036701666666
        },
        {
            "name": "PI004",
            "lat": 44.48964443333333,
            "lon": 95.88258171666666
        },
        {
            "name": "PI005",
            "lat": 44.5613111,
            "lon": 95.88258171666666
        },
        {
            "name": "PI006",
            "lat": 44.566143016666665,
            "lon": 95.99017993333334
        },
        {
            "name": "PILIY",
            "lat": 44.32758056666667,
            "lon": 95.41740833333333
        },
        {
            "name": "RWF",
            "lat": 44.467275,
            "lon": 95.12823056666667
        },
        {
            "name": "WUSKA",
            "lat": 44.42231388333333,
            "lon": 95.77765
        },
        {
            "name": "ZERAD",
            "lat": 44.21998611666667,
            "lon": 95.63818056666666
        }
    ],
    "rnws": [
        "RNW 02",
        "RNW 12",
        "RNW 20",
        "RNW 30"
    ],
    "sids": [],
    "stars": [],
    "approaches": [
        {
            "name": "ILS12",
            "fixes": {
                "CF12": "CF12 AT OR ABOVE 3000",
                "GARNO": "GARNO 2547 RNW 12 TRK 125 UNTIL 2000 TURN LEFT DIRECT GARNO AT OR ABOVE 3000 HOLD AT GARNO LEFT TURN INBOUNDCOURSE 125 LEGTIME 1 FAF GARNO MAP RNW 12"
            },
            "transitions": [
                {
                    "name": "FSD",
                    "fixes": {
                        "FSD": "FSD",
                        "MML": "MML AT OR ABOVE 3500",
                        "GARNO": "GARNO AT OR BELOW 6000 AT OR ABOVE 3000",
                        "PI001": "PI001 AT OR ABOVE 3000 SPEED 210",
                        "PI002": "OVERFLY PI002 AT OR ABOVE 3000 SPEED 210",
                        "PI003": "PI003 AT OR ABOVE 3000 SPEED 210"
                    }
                },
                {
                    "name": "RWF",
                    "fixes": {
                        "RWF": "RWF",
                        "GARNO": "GARNO AT OR BELOW 6000 AT OR ABOVE 3000",
                        "PI001": "PI001 AT OR ABOVE 3000 SPEED 210",
                        "PI002": "OVERFLY PI002 AT OR ABOVE 3000 SPEED 210",
                        "PI003": "PI003 AT OR ABOVE 3000 SPEED 210"
                    }
                }
            ]
        },
        {
            "name": "RNAV12",
            "fixes": {
                "PELBE": "PELBE AT OR ABOVE 3200",
                "HIBUM": "HIBUM 2600",
                "DABLE": "DABLE AT OR ABOVE 1860 RNW 12 TRK 125 UNTIL 1383",
                "BOPMY": "OVERFLY BOPMY AT OR ABOVE 3000 HOLD AT BOPMY RIGHT TURN INBOUNDCOURSE 305 LEGDIST 4 FAF HIBUM MAP RNW 12"
            },
            "transitions": [
                {
                    "name": "CARIT",
                    "fixes": {
                        "CARIT": "CARIT"
                    }
                },
                {
                    "name": "RWF",
                    "fixes": {
                        "RWF": "RWF",
                        "PELBE": "OVERFLY PELBE AT OR ABOVE 3200 HOLD AT PELBE RIGHT TURN INBOUNDCOURSE 125 ALT 3200 LEGDIST 4"
                    }
                }
            ]
        },
        {
            "name": "RNAV30",
            "fixes": {
                "BOPMY": "BOPMY AT OR ABOVE 3000",
                "OHEXE": "OHEXE 2800",
                "WUSKA": "WUSKA AT OR ABOVE 1900 RNW 30 TRK 305 UNTIL 1429",
                "PELBE": "OVERFLY PELBE AT OR ABOVE 3200 HOLD AT PELBE RIGHT TURN INBOUNDCOURSE 125 LEGDIST 4 FAF OHEXE MAP RNW 30"
            },
            "transitions": [
                {
                    "name": "BOPMY",
                    "fixes": {
                        "BOPMY": "BOPMY RIGHT TURN INBOUNDCOURSE 305 ALT 3000 LEGDIST 4"
                    }
                },
                {
                    "name": "PILIY",
                    "fixes": {
                        "PILIY": "PILIY"
                    }
                },
                {
                    "name": "ZERAD",
                    "fixes": {
                        "ZERAD": "ZERAD"
                    }
                }
            ]
        },
        {
            "name": "VOR12",
            "fixes": {
                "FF12": "FF12 2800",
                "CEGUL": "CEGUL AT OR ABOVE 1760 RNW 12",
                "MML": "MML AT OR ABOVE 1583 TRK 130 UNTIL 2000 TURN LEFT DIRECT MML AT OR ABOVE 2800 HOLD AT MML RIGHT TURN INBOUNDCOURSE 310 LEGTIME 1 FAF FF12 MAP RNW 12"
            },
            "transitions": [
                {
                    "name": "FSD",
                    "fixes": {
                        "FSD": "FSD",
                        "MML": "MML AT OR BELOW 6000 AT OR ABOVE 3500",
                        "PI004": "PI004 AT OR ABOVE 2800 SPEED 210",
                        "PI005": "OVERFLY PI005 AT OR ABOVE 2800 SPEED 210",
                        "PI006": "PI006 AT OR ABOVE 2800 SPEED 210"
                    }
                },
                {
                    "name": "RWF",
                    "fixes": {
                        "RWF": "RWF",
                        "MML": "MML AT OR BELOW 6000 AT OR ABOVE 2800",
                        "PI004": "PI004 AT OR ABOVE 2800 SPEED 210",
                        "PI005": "OVERFLY PI005 AT OR ABOVE 2800 SPEED 210",
                        "PI006": "PI006 AT OR ABOVE 2800 SPEED 210"
                    }
                }
            ]
        }
    ]
}