{
    "fixes": [
        {
            "name": "BERNI",
            "lat": 45.12093611666667,
            "lon": 123.20766666666667
        },
        {
            "name": "BTG",
            "lat": 45.74781111666667,
            "lon": 122.59153611666666
        },
        {
            "name": "COGOK",
            "lat": 45.081755566666665,
            "lon": 123.360975
        },
        {
            "name": "CRAAF",
            "lat": 44.760325,
            "lon": 123.35163888333334
        },
        {
            "name": "HIXUR",
            "lat": 45.1688,
            "lon": 123.16057221666667
        },
        {
            "name": "JODVI",
            "lat": 45.14422221666667,
            "lon": 123.25226111666667
        },
        {
            "name": "KIGKE",
            "lat": 45.22507221666667,
            "lon": 123.07501111666667
        },
        {
            "name": "LIYEV",
            "lat": 45.24678611666667,
            "lon": 123.02721666666666
        },
        {
            "name": "LUSEY",
            "lat": 45.28253333333333,
            "lon": 123.078375
        },
        {
            "name": "MABEZ",
            "lat": 45.18835833333333,
            "lon": 123.14129166666666
        },
        {
            "name": "OBDAE",
            "lat": 45.03884166666667,
            "lon": 123.28823333333334
        },
        {
            "name": "OVUGE",
            "lat": 45.17214166666667,
            "lon": 123.191175
        },
        {
            "name": "OZIER",
            "lat": 45.30396388333333,
            "lon": 122.90098888333333
        },
        {
            "name": "PUCIV",
            "lat": 45.053572216666666,
            "lon": 123.44969443333333
        },
        {
            "name": "RAWER",
            "lat": 45.235644433333334,
            "lon": 122.79431666666666
        },
        {
            "name": "RIGOE",
            "lat": 45.09893888333333,
            "lon": 123.35105556666667
        },
        {
            "name": "TIYOT",
            "lat": 44.99141111666667,
            "lon": 123.48716943333334
        },
        {
            "name": "TOCBU",
            "lat": 45.377369433333335,
            "lon": 122.85020278333333
        },
        {
            "name": "UBG",
            "lat": 45.353233333333336,
            "lon": 122.97814721666667
        },
        {
            "name": "UNECE",
            "lat": 45.281086116666664,
            "lon": 122.95156388333334
        },
        {
            "name": "VESYU",
            "lat": 45.187297216666664,
            "lon": 123.15795833333334
        }
    ],
    "rnws": [
        "RNW 04",
        "RNW 17",
        "RNW 22",
        "RNW 35"
    ],
    "sids": [],
    "stars": [],
    "approaches": [
        {
            "name": "VORDB04",
            "fixes": {
                "OBDAE": "OBDAE AT OR ABOVE 4000",
                "BERNI": "BERNI 2400",
                "HIXUR": "HIXUR AT OR ABOVE 1260",
                "MABEZ": "MABEZ 920 RNW 04 TURN LEFT HDG 180 INTERCEPT RADIAL 204 TO",
                "COGOK": "COGOK COGOK AT OR ABOVE 4800 HOLD AT COGOK LEFT TURN INBOUNDCOURSE 024 ALT 4800 LEGTIME 1 FAF BERNI MAP MABEZ"
            },
            "transitions": [
                {
                    "name": "COGOK",
                    "fixes": {
                        "COGOK": "COGOK"
                    }
                },
                {
                    "name": "UBG",
                    "fixes": {
                        "UBG": "UBG",
                        "BERNI": "BERNI AT OR ABOVE 3500 HOLD AT BERNI LEFT TURN INBOUNDCOURSE 014 ALT 2700 LEGTIME 1"
                    }
                }
            ]
        },
        {
            "name": "VORDB17",
            "fixes": {
                "OBDAE": "OBDAE AT OR ABOVE 4000",
                "BERNI": "BERNI 2400",
                "HIXUR": "HIXUR AT OR ABOVE 1260",
                "MABEZ": "MABEZ 920 RNW 17 TURN LEFT HDG 180 INTERCEPT RADIAL 204 TO",
                "COGOK": "COGOK COGOK AT OR ABOVE 4800 HOLD AT COGOK LEFT TURN INBOUNDCOURSE 024 ALT 4800 LEGTIME 1 FAF BERNI MAP MABEZ"
            },
            "transitions": [
                {
                    "name": "COGOK",
                    "fixes": {
                        "COGOK": "COGOK"
                    }
                },
                {
                    "name": "UBG",
                    "fixes": {
                        "UBG": "UBG",
                        "BERNI": "BERNI AT OR ABOVE 3500 HOLD AT BERNI LEFT TURN INBOUNDCOURSE 014 ALT 2700 LEGTIME 1"
                    }
                }
            ]
        },
        {
            "name": "VORDB22",
            "fixes": {
                "OBDAE": "OBDAE AT OR ABOVE 4000",
                "BERNI": "BERNI 2400",
                "HIXUR": "HIXUR AT OR ABOVE 1260",
                "MABEZ": "MABEZ 920 RNW 22 TURN LEFT HDG 180 INTERCEPT RADIAL 204 TO",
                "COGOK": "COGOK COGOK AT OR ABOVE 4800 HOLD AT COGOK LEFT TURN INBOUNDCOURSE 024 ALT 4800 LEGTIME 1 FAF BERNI MAP MABEZ"
            },
            "transitions": [
                {
                    "name": "COGOK",
                    "fixes": {
                        "COGOK": "COGOK"
                    }
                },
                {
                    "name": "UBG",
                    "fixes": {
                        "UBG": "UBG",
                        "BERNI": "BERNI AT OR ABOVE 3500 HOLD AT BERNI LEFT TURN INBOUNDCOURSE 014 ALT 2700 LEGTIME 1"
                    }
                }
            ]
        },
        {
            "name": "VORDB35",
            "fixes": {
                "OBDAE": "OBDAE AT OR ABOVE 4000",
                "BERNI": "BERNI 2400",
                "HIXUR": "HIXUR AT OR ABOVE 1260",
                "MABEZ": "MABEZ 920 RNW 35 TURN LEFT HDG 180 INTERCEPT RADIAL 204 TO",
                "COGOK": "COGOK COGOK AT OR ABOVE 4800 HOLD AT COGOK LEFT TURN INBOUNDCOURSE 024 ALT 4800 LEGTIME 1 FAF BERNI MAP MABEZ"
            },
            "transitions": [
                {
                    "name": "COGOK",
                    "fixes": {
                        "COGOK": "COGOK"
                    }
                },
                {
                    "name": "UBG",
                    "fixes": {
                        "UBG": "UBG",
                        "BERNI": "BERNI AT OR ABOVE 3500 HOLD AT BERNI LEFT TURN INBOUNDCOURSE 014 ALT 2700 LEGTIME 1"
                    }
                }
            ]
        },
        {
            "name": "ILS22",
            "fixes": {
                "UNECE": "UNECE AT OR ABOVE 2500",
                "LIYEV": "LIYEV 1900 RNW 22 TRK 218 UNTIL 900 TURN RIGHT HDG 069 INTERCEPT RADIAL 024 TO",
                "LUSEY": "LUSEY LUSEY AT OR ABOVE 3000 HOLD AT LUSEY RIGHT TURN INBOUNDCOURSE 024 LEGTIME 1 FAF LIYEV MAP RNW 22"
            },
            "transitions": [
                {
                    "name": "BTG",
                    "fixes": {
                        "BTG": "BTG",
                        "TOCBU": "TOCBU AT OR ABOVE 3100",
                        "OZIER": "OZIER AT OR ABOVE 2900"
                    }
                },
                {
                    "name": "RAWER",
                    "fixes": {
                        "RAWER": "RAWER",
                        "OZIER": "OZIER AT OR ABOVE 2900"
                    }
                },
                {
                    "name": "UBG",
                    "fixes": {
                        "UBG": "UBG",
                        "OZIER": "OZIER AT OR ABOVE 3800 HOLD AT OZIER RIGHT TURN INBOUNDCOURSE 218 ALT 2900 LEGTIME 1"
                    }
                }
            ]
        },
        {
            "name": "RNAV04",
            "fixes": {
                "RIGOE": "RIGOE AT OR ABOVE 3400",
                "JODVI": "JODVI 1900",
                "VESYU": "OVERFLY VESYU 369 RNW 04 TRK 038 UNTIL 563 TURN LEFT DIRECT",
                "PUCIV": "OVERFLY PUCIV AT OR ABOVE 4900 HOLD AT PUCIV LEFT TURN INBOUNDCOURSE 038 LEGDIST 5 FAF JODVI MAP VESYU"
            },
            "transitions": [
                {
                    "name": "CRAAF",
                    "fixes": {
                        "CRAAF": "CRAAF",
                        "PUCIV": "PUCIV AT OR ABOVE 4900"
                    }
                },
                {
                    "name": "TIYOT",
                    "fixes": {
                        "TIYOT": "TIYOT",
                        "PUCIV": "PUCIV AT OR ABOVE 4900"
                    }
                },
                {
                    "name": "UBG",
                    "fixes": {
                        "UBG": "UBG",
                        "PUCIV": "OVERFLY PUCIV AT OR ABOVE 4900 HOLD AT PUCIV LEFT TURN INBOUNDCOURSE 038 ALT 4900 LEGDIST 5"
                    }
                }
            ]
        },
        {
            "name": "RNAV22",
            "fixes": {
                "UNECE": "UNECE AT OR ABOVE 2500",
                "LIYEV": "LIYEV 1900",
                "KIGKE": "KIGKE AT OR ABOVE 1100 RNW 22",
                "OVUGE": "OVUGE",
                "PUCIV": "OVERFLY PUCIV AT OR ABOVE 4900 HOLD AT PUCIV LEFT TURN INBOUNDCOURSE 038 LEGDIST 5 FAF LIYEV MAP RNW 22"
            },
            "transitions": [
                {
                    "name": "BTG",
                    "fixes": {
                        "BTG": "BTG",
                        "TOCBU": "TOCBU AT OR ABOVE 3100",
                        "OZIER": "OZIER AT OR ABOVE 2900"
                    }
                },
                {
                    "name": "RAWER",
                    "fixes": {
                        "RAWER": "RAWER",
                        "OZIER": "OZIER AT OR ABOVE 2900"
                    }
                },
                {
                    "name": "UBG",
                    "fixes": {
                        "UBG": "UBG",
                        "OZIER": "OVERFLY OZIER AT OR ABOVE 3800 HOLD AT OZIER RIGHT TURN INBOUNDCOURSE 218 ALT 2900 LEGDIST 4"
                    }
                }
            ]
        }
    ]
}