{
    "fixes": [
        {
            "name": "COGOL",
            "lat": 37.28475,
            "lon": 119.79181388333333
        },
        {
            "name": "HOFED",
            "lat": 37.77557778333333,
            "lon": 120.44780556666667
        },
        {
            "name": "RICOD",
            "lat": 37.60000278333333,
            "lon": 120.27598611666667
        },
        {
            "name": "SUCOL",
            "lat": 37.503791666666665,
            "lon": 120.02684721666667
        },
        {
            "name": "SURAE",
            "lat": 37.55145556666667,
            "lon": 120.16597221666666
        },
        {
            "name": "TOTOY",
            "lat": 37.493375,
            "lon": 119.99436388333334
        },
        {
            "name": "TOTVE",
            "lat": 37.45818333333333,
            "lon": 119.94521943333334
        },
        {
            "name": "WOSMA",
            "lat": 37.39246111666667,
            "lon": 119.85051388333333
        },
        {
            "name": "WOSOD",
            "lat": 37.51232778333333,
            "lon": 120.05025278333333
        }
    ],
    "rnws": [
        "RNW 08",
        "RNW 26"
    ],
    "sids": [],
    "stars": [],
    "approaches": [
        {
            "name": "RNAVA08",
            "fixes": {
                "WOSMA": "WOSMA AT OR ABOVE 5700",
                "TOTVE": "TOTVE 4600",
                "SUCOL": "SUCOL 3900 RNW 08 TRK 290 UNTIL 3900 TURN LEFT DIRECT",
                "COGOL": "COGOL AT OR ABOVE 7000 HOLD AT COGOL RIGHT TURN INBOUNDCOURSE 322 LEGDIST 7 FAF TOTVE MAP SUCOL"
            },
            "transitions": [
                {
                    "name": "COGOL",
                    "fixes": {
                        "COGOL": "COGOL"
                    }
                }
            ]
        },
        {
            "name": "RNAVB08",
            "fixes": {
                "RICOD": "RICOD AT OR ABOVE 5100",
                "SURAE": "SURAE 4300",
                "WOSOD": "WOSOD 4180 RNW 08 TRK 098 UNTIL 4180",
                "TOTOY": "TOTOY",
                "COGOL": "COGOL AT OR ABOVE 7000 HOLD AT COGOL RIGHT TURN INBOUNDCOURSE 322 LEGDIST 7 FAF SURAE MAP WOSOD"
            },
            "transitions": [
                {
                    "name": "HOFED",
                    "fixes": {
                        "HOFED": "HOFED"
                    }
                }
            ]
        },
        {
            "name": "RNAVA26",
            "fixes": {
                "WOSMA": "WOSMA AT OR ABOVE 5700",
                "TOTVE": "TOTVE 4600",
                "SUCOL": "SUCOL 3900 RNW 26 TRK 290 UNTIL 3900 TURN LEFT DIRECT",
                "COGOL": "COGOL AT OR ABOVE 7000 HOLD AT COGOL RIGHT TURN INBOUNDCOURSE 322 LEGDIST 7 FAF TOTVE MAP SUCOL"
            },
            "transitions": [
                {
                    "name": "COGOL",
                    "fixes": {
                        "COGOL": "COGOL"
                    }
                }
            ]
        },
        {
            "name": "RNAVB26",
            "fixes": {
                "RICOD": "RICOD AT OR ABOVE 5100",
                "SURAE": "SURAE 4300",
                "WOSOD": "WOSOD 4180 RNW 26 TRK 098 UNTIL 4180",
                "TOTOY": "TOTOY",
                "COGOL": "COGOL AT OR ABOVE 7000 HOLD AT COGOL RIGHT TURN INBOUNDCOURSE 322 LEGDIST 7 FAF SURAE MAP WOSOD"
            },
            "transitions": [
                {
                    "name": "HOFED",
                    "fixes": {
                        "HOFED": "HOFED"
                    }
                }
            ]
        }
    ]
}