{
    "fixes": [
        {
            "name": "AABEZ",
            "lat": 44.78808333333333,
            "lon": 93.00471111666667
        },
        {
            "name": "AANAH",
            "lat": 44.42815556666667,
            "lon": 93.32200833333333
        },
        {
            "name": "AASUN",
            "lat": 44.907677783333334,
            "lon": 93.25504443333334
        },
        {
            "name": "ABR",
            "lat": 45.417355566666664,
            "lon": 98.36871943333334
        },
        {
            "name": "AFTYN",
            "lat": 44.86456666666667,
            "lon": 92.796925
        },
        {
            "name": "AHMIT",
            "lat": 44.49794166666667,
            "lon": 93.19518056666666
        },
        {
            "name": "ALGIN",
            "lat": 45.00446388333334,
            "lon": 93.47988611666666
        },
        {
            "name": "ALO",
            "lat": 42.55649721666666,
            "lon": 92.398925
        },
        {
            "name": "ARJAE",
            "lat": 45.084302783333335,
            "lon": 93.29352221666667
        },
        {
            "name": "ARREX",
            "lat": 44.425730566666665,
            "lon": 94.142775
        },
        {
            "name": "AXN",
            "lat": 45.958388883333335,
            "lon": 95.23263611666667
        },
        {
            "name": "BAE",
            "lat": 43.116852783333336,
            "lon": 88.28434443333333
        },
        {
            "name": "BAINY",
            "lat": 45.75361111666667,
            "lon": 93.69944443333333
        },
        {
            "name": "BAYKS",
            "lat": 45.060463883333334,
            "lon": 92.21490278333333
        },
        {
            "name": "BBERD",
            "lat": 43.32638888333334,
            "lon": 94.48138888333334
        },
        {
            "name": "BBUCK",
            "lat": 44.77380556666667,
            "lon": 92.98350278333334
        },
        {
            "name": "BDOGG",
            "lat": 44.8088,
            "lon": 93.2552
        },
        {
            "name": "BEERI",
            "lat": 43.76916666666666,
            "lon": 89.41395
        },
        {
            "name": "BLUEM",
            "lat": 44.18135,
            "lon": 93.22379721666667
        },
        {
            "name": "BOBEE",
            "lat": 44.94878611666667,
            "lon": 93.25813611666666
        },
        {
            "name": "BONNA",
            "lat": 44.768936116666666,
            "lon": 92.93583888333333
        },
        {
            "name": "BOTNE",
            "lat": 44.93416666666667,
            "lon": 94.02527778333334
        },
        {
            "name": "BRNVL",
            "lat": 44.80455,
            "lon": 93.31651111666666
        },
        {
            "name": "BUHZZ",
            "lat": 44.61104721666667,
            "lon": 93.22442778333334
        },
        {
            "name": "CANDD",
            "lat": 44.60633611666667,
            "lon": 93.01415
        },
        {
            "name": "CCJAY",
            "lat": 45.05851666666667,
            "lon": 93.60623333333334
        },
        {
            "name": "CEWDA",
            "lat": 44.80888888333333,
            "lon": 88.55
        },
        {
            "name": "CHETZ",
            "lat": 44.98383333333334,
            "lon": 93.26726943333334
        },
        {
            "name": "CHRMR",
            "lat": 44.68772778333334,
            "lon": 93.19612221666667
        },
        {
            "name": "CHYMP",
            "lat": 44.859875,
            "lon": 93.40460556666666
        },
        {
            "name": "CIJOT",
            "lat": 44.86332221666667,
            "lon": 93.15260556666667
        },
        {
            "name": "CLIKR",
            "lat": 44.74971943333333,
            "lon": 93.35607221666666
        },
        {
            "name": "CMAAC",
            "lat": 44.76833333333333,
            "lon": 91.87361111666667
        },
        {
            "name": "CMARO",
            "lat": 44.94299721666667,
            "lon": 90.69327221666667
        },
        {
            "name": "CMMOE",
            "lat": 44.962633333333336,
            "lon": 93.10619443333333
        },
        {
            "name": "COLDD",
            "lat": 46.744444433333335,
            "lon": 92.29666666666667
        },
        {
            "name": "CONIA",
            "lat": 44.75290556666667,
            "lon": 93.88807221666667
        },
        {
            "name": "CORDY",
            "lat": 44.12371666666667,
            "lon": 92.82978056666667
        },
        {
            "name": "COTTG",
            "lat": 44.841169433333334,
            "lon": 92.96251388333333
        },
        {
            "name": "COULT",
            "lat": 44.556625,
            "lon": 92.20843888333333
        },
        {
            "name": "COZZZ",
            "lat": 45.054344433333334,
            "lon": 93.31956111666666
        },
        {
            "name": "CUSAC",
            "lat": 45.02879721666667,
            "lon": 93.01728056666667
        },
        {
            "name": "DABOY",
            "lat": 41.888625,
            "lon": 94.45951943333333
        },
        {
            "name": "DAHRL",
            "lat": 44.364866666666664,
            "lon": 93.366875
        },
        {
            "name": "DBLEM",
            "lat": 44.700116666666666,
            "lon": 92.91190278333333
        },
        {
            "name": "DELZY",
            "lat": 44.23192778333333,
            "lon": 93.22120278333334
        },
        {
            "name": "DEMLL",
            "lat": 43.965277783333335,
            "lon": 93.49138888333333
        },
        {
            "name": "DLL",
            "lat": 43.55083333333333,
            "lon": 89.76362221666666
        },
        {
            "name": "DNDIS",
            "lat": 44.41033611666667,
            "lon": 93.19543056666667
        },
        {
            "name": "DOKTR",
            "lat": 44.258077783333334,
            "lon": 92.92247778333333
        },
        {
            "name": "DOLEE",
            "lat": 44.900747216666666,
            "lon": 93.54333888333333
        },
        {
            "name": "DWIYT",
            "lat": 45.30337778333333,
            "lon": 92.28756666666666
        },
        {
            "name": "DWN",
            "lat": 45.087463883333335,
            "lon": 94.45385
        },
        {
            "name": "EAGAN",
            "lat": 44.8553,
            "lon": 93.15916666666666
        },
        {
            "name": "EAU",
            "lat": 44.897669433333334,
            "lon": 91.47853611666666
        },
        {
            "name": "EEDDN",
            "lat": 44.884725,
            "lon": 93.50351388333333
        },
        {
            "name": "EFEXX",
            "lat": 44.98235556666667,
            "lon": 93.59514721666666
        },
        {
            "name": "ELLKO",
            "lat": 44.595136116666666,
            "lon": 93.20731111666667
        },
        {
            "name": "ERICX",
            "lat": 44.4575,
            "lon": 95.18416666666667
        },
        {
            "name": "FAR",
            "lat": 46.75333611666667,
            "lon": 96.85131943333333
        },
        {
            "name": "FARBO",
            "lat": 44.37448056666667,
            "lon": 93.20728333333334
        },
        {
            "name": "FATES",
            "lat": 45.025294433333336,
            "lon": 93.02231666666667
        },
        {
            "name": "FGT",
            "lat": 44.630952783333335,
            "lon": 93.18205278333333
        },
        {
            "name": "FOBUG",
            "lat": 44.422211116666666,
            "lon": 93.03629443333334
        },
        {
            "name": "FSCOT",
            "lat": 45.009827783333336,
            "lon": 93.21602221666667
        },
        {
            "name": "FUZEE",
            "lat": 42.85277778333333,
            "lon": 93.88444443333333
        },
        {
            "name": "GDNEE",
            "lat": 44.51140278333333,
            "lon": 93.266275
        },
        {
            "name": "GEEQU",
            "lat": 44.770808333333335,
            "lon": 92.75534999999999
        },
        {
            "name": "GEP",
            "lat": 45.14568611666667,
            "lon": 93.37318056666666
        },
        {
            "name": "GGULL",
            "lat": 46.53388888333333,
            "lon": 94.13111111666667
        },
        {
            "name": "GLDON",
            "lat": 45.019427783333335,
            "lon": 93.37844166666666
        },
        {
            "name": "GOLLF",
            "lat": 45.75363611666667,
            "lon": 93.69950278333333
        },
        {
            "name": "GRB",
            "lat": 44.55516111666667,
            "lon": 88.19485833333333
        },
        {
            "name": "GREAK",
            "lat": 44.805388883333336,
            "lon": 93.31793611666667
        },
        {
            "name": "GROVZ",
            "lat": 44.71414166666667,
            "lon": 92.81075278333333
        },
        {
            "name": "GWAIT",
            "lat": 44.659216666666666,
            "lon": 93.31026388333333
        },
        {
            "name": "HAMML",
            "lat": 44.977383333333336,
            "lon": 93.41679443333334
        },
        {
            "name": "HANRA",
            "lat": 44.696905566666665,
            "lon": 93.31188056666667
        },
        {
            "name": "HAPTN",
            "lat": 44.62836943333333,
            "lon": 92.99183611666666
        },
        {
            "name": "HASTI",
            "lat": 44.70591666666667,
            "lon": 92.81703611666667
        },
        {
            "name": "HDEEE",
            "lat": 44.85405,
            "lon": 93.43100278333333
        },
        {
            "name": "HELLO",
            "lat": 42.780833333333334,
            "lon": 93.35972221666667
        },
        {
            "name": "HENDR",
            "lat": 44.6188,
            "lon": 91.35135833333334
        },
        {
            "name": "HERMI",
            "lat": 45.01666111666667,
            "lon": 92.11401111666666
        },
        {
            "name": "HHAMR",
            "lat": 44.28434721666667,
            "lon": 93.21438611666666
        },
        {
            "name": "HHOGS",
            "lat": 46.153055566666666,
            "lon": 92.18944443333334
        },
        {
            "name": "HIGHA",
            "lat": 44.90999443333333,
            "lon": 92.98650556666666
        },
        {
            "name": "HITTL",
            "lat": 44.582275,
            "lon": 93.46341388333333
        },
        {
            "name": "HMBRG",
            "lat": 44.701125,
            "lon": 94.119575
        },
        {
            "name": "HOMUR",
            "lat": 45.41821111666667,
            "lon": 94.07680556666666
        },
        {
            "name": "HRBEK",
            "lat": 45.31453056666667,
            "lon": 93.80699166666666
        },
        {
            "name": "HRBIE",
            "lat": 44.7492,
            "lon": 93.31455833333334
        },
        {
            "name": "HSTIN",
            "lat": 44.00222221666667,
            "lon": 93.96111111666667
        },
        {
            "name": "HUCUM",
            "lat": 44.82848611666667,
            "lon": 93.22685556666667
        },
        {
            "name": "HUGGI",
            "lat": 44.86123056666667,
            "lon": 92.32293056666667
        },
        {
            "name": "HUGIR",
            "lat": 44.701205566666665,
            "lon": 93.6159
        },
        {
            "name": "HUSHH",
            "lat": 44.83838888333333,
            "lon": 93.229425
        },
        {
            "name": "IDIOM",
            "lat": 44.505,
            "lon": 88.29916666666666
        },
        {
            "name": "IGEPY",
            "lat": 44.82294721666667,
            "lon": 93.30758056666667
        },
        {
            "name": "INGLS",
            "lat": 45.037175,
            "lon": 93.27937778333333
        },
        {
            "name": "INUNE",
            "lat": 45.016775,
            "lon": 93.992325
        },
        {
            "name": "IRRRV",
            "lat": 44.8919,
            "lon": 92.94731111666667
        },
        {
            "name": "JACKO",
            "lat": 44.8236,
            "lon": 93.06117221666666
        },
        {
            "name": "JAEDN",
            "lat": 44.788930566666664,
            "lon": 93.7265
        },
        {
            "name": "JAGOW",
            "lat": 43.514794433333336,
            "lon": 93.29021111666667
        },
        {
            "name": "JALUN",
            "lat": 44.954222216666665,
            "lon": 93.12283611666666
        },
        {
            "name": "JAMEZ",
            "lat": 44.54006388333333,
            "lon": 93.15242221666666
        },
        {
            "name": "JEDET",
            "lat": 44.46128888333333,
            "lon": 92.72794166666667
        },
        {
            "name": "JERMN",
            "lat": 45.00484721666667,
            "lon": 91.45978611666666
        },
        {
            "name": "JJENI",
            "lat": 44.68466943333333,
            "lon": 93.03868888333334
        },
        {
            "name": "JOGTO",
            "lat": 44.834675,
            "lon": 93.29112221666666
        },
        {
            "name": "JONZY",
            "lat": 44.84113611666667,
            "lon": 93.00990556666666
        },
        {
            "name": "JURNY",
            "lat": 44.60865,
            "lon": 93.47236943333333
        },
        {
            "name": "KAMMA",
            "lat": 43.117375,
            "lon": 88.28523056666667
        },
        {
            "name": "KANAC",
            "lat": 44.86719721666667,
            "lon": 92.93142778333333
        },
        {
            "name": "KASPR",
            "lat": 43.965488883333336,
            "lon": 93.24704166666666
        },
        {
            "name": "KAYQU",
            "lat": 45.179952783333334,
            "lon": 93.48599721666666
        },
        {
            "name": "KBEEE",
            "lat": 43.497175,
            "lon": 93.53268888333334
        },
        {
            "name": "KBREW",
            "lat": 45.58435278333333,
            "lon": 94.51478056666667
        },
        {
            "name": "KBULL",
            "lat": 44.34765278333333,
            "lon": 90.426925
        },
        {
            "name": "KETAM",
            "lat": 44.74916666666667,
            "lon": 93.41085278333334
        },
        {
            "name": "KEYPR",
            "lat": 44.678522216666664,
            "lon": 93.56524721666666
        },
        {
            "name": "KICKR",
            "lat": 42.77527778333334,
            "lon": 92.81138888333334
        },
        {
            "name": "KINNS",
            "lat": 44.94508056666667,
            "lon": 93.36680833333334
        },
        {
            "name": "KKILR",
            "lat": 44.852838883333334,
            "lon": 92.18558888333334
        },
        {
            "name": "KMSP",
            "lat": 44.88197221666667,
            "lon": 93.22177778333334
        },
        {
            "name": "KRISP",
            "lat": 44.869219433333335,
            "lon": 92.48676666666667
        },
        {
            "name": "KRLSN",
            "lat": 44.97946111666667,
            "lon": 93.46440556666667
        },
        {
            "name": "KROIX",
            "lat": 44.889916666666664,
            "lon": 92.72928611666667
        },
        {
            "name": "KRSPY",
            "lat": 44.29642221666667,
            "lon": 90.36020833333333
        },
        {
            "name": "KRUGG",
            "lat": 44.92325556666667,
            "lon": 93.67279443333334
        },
        {
            "name": "KUUGL",
            "lat": 44.948405566666665,
            "lon": 94.35461111666666
        },
        {
            "name": "LAZYY",
            "lat": 43.965277783333335,
            "lon": 93.24694443333334
        },
        {
            "name": "LEDRZ",
            "lat": 44.740994433333334,
            "lon": 93.17009443333333
        },
        {
            "name": "LEINY",
            "lat": 45.03777778333333,
            "lon": 97.61111111666666
        },
        {
            "name": "LKLND",
            "lat": 44.96736943333333,
            "lon": 92.62334166666666
        },
        {
            "name": "LMFRY",
            "lat": 44.370730566666666,
            "lon": 91.85046943333333
        },
        {
            "name": "LOOON",
            "lat": 44.982033333333334,
            "lon": 92.71131111666666
        },
        {
            "name": "LORAH",
            "lat": 44.757508333333334,
            "lon": 93.20846111666667
        },
        {
            "name": "LUCCY",
            "lat": 45.584558333333334,
            "lon": 93.60902221666667
        },
        {
            "name": "LYDIA",
            "lat": 44.60816666666667,
            "lon": 93.47894166666667
        },
        {
            "name": "MAUER",
            "lat": 44.78171666666667,
            "lon": 93.26428333333334
        },
        {
            "name": "MCONL",
            "lat": 44.583425,
            "lon": 93.84229443333334
        },
        {
            "name": "MCW",
            "lat": 43.09475833333333,
            "lon": 93.32987221666667
        },
        {
            "name": "MILAC",
            "lat": 46.02487778333333,
            "lon": 93.36048888333333
        },
        {
            "name": "MNDEE",
            "lat": 44.737458333333336,
            "lon": 93.32347778333333
        },
        {
            "name": "MNOSO",
            "lat": 42.3822,
            "lon": 92.55748611666667
        },
        {
            "name": "MONKY",
            "lat": 44.852527783333336,
            "lon": 93.43820278333334
        },
        {
            "name": "MUSCL",
            "lat": 45.02881943333333,
            "lon": 91.77683333333333
        },
        {
            "name": "NANCZ",
            "lat": 44.41448333333334,
            "lon": 93.607775
        },
        {
            "name": "NARCO",
            "lat": 44.81541111666667,
            "lon": 93.06739721666666
        },
        {
            "name": "NITZR",
            "lat": 44.186244433333336,
            "lon": 93.46607221666666
        },
        {
            "name": "NNEWW",
            "lat": 44.53443888333334,
            "lon": 93.25269721666666
        },
        {
            "name": "NOFLD",
            "lat": 44.43115278333333,
            "lon": 93.18908333333333
        },
        {
            "name": "NORWD",
            "lat": 44.748547216666665,
            "lon": 93.90756388333334
        },
        {
            "name": "OBERR",
            "lat": 44.59726943333333,
            "lon": 93.16712778333333
        },
        {
            "name": "ODI",
            "lat": 43.91233056666667,
            "lon": 91.46751666666667
        },
        {
            "name": "OFSON",
            "lat": 44.67370278333333,
            "lon": 94.24138611666666
        },
        {
            "name": "OGLVE",
            "lat": 45.299138883333335,
            "lon": 93.48248611666666
        },
        {
            "name": "OLLEE",
            "lat": 45.535525,
            "lon": 93.581525
        },
        {
            "name": "ONTIJ",
            "lat": 43.29763333333333,
            "lon": 94.51290556666666
        },
        {
            "name": "OOPEE",
            "lat": 43.497222216666664,
            "lon": 93.29222221666667
        },
        {
            "name": "ORSKY",
            "lat": 43.669758333333334,
            "lon": 94.22303333333333
        },
        {
            "name": "OSMOH",
            "lat": 44.963875,
            "lon": 93.10951388333334
        },
        {
            "name": "PAETN",
            "lat": 45.053325,
            "lon": 93.619275
        },
        {
            "name": "PAGOZ",
            "lat": 45.188211116666665,
            "lon": 94.28773611666666
        },
        {
            "name": "PAKKR",
            "lat": 44.76441943333333,
            "lon": 90.08586943333333
        },
        {
            "name": "PEDLN",
            "lat": 44.20266111666667,
            "lon": 93.80038888333333
        },
        {
            "name": "PEPPR",
            "lat": 44.38155833333333,
            "lon": 93.20659721666667
        },
        {
            "name": "PIGZI",
            "lat": 44.76072778333333,
            "lon": 92.94209166666667
        },
        {
            "name": "PINKE",
            "lat": 44.73333888333333,
            "lon": 92.87953333333333
        },
        {
            "name": "PRAMN",
            "lat": 44.66756111666667,
            "lon": 93.38975278333334
        },
        {
            "name": "PRRPL",
            "lat": 45.05235556666667,
            "lon": 93.31473888333333
        },
        {
            "name": "RF001",
            "lat": 45.043822266666666,
            "lon": 93.30537683333333
        },
        {
            "name": "RF002",
            "lat": 45.04314621666666,
            "lon": 93.33275216666667
        },
        {
            "name": "RF003",
            "lat": 45.035267833333336,
            "lon": 93.35777021666667
        },
        {
            "name": "RF004",
            "lat": 44.90375183333333,
            "lon": 93.52967615
        },
        {
            "name": "RF005",
            "lat": 44.929361883333335,
            "lon": 93.53872516666667
        },
        {
            "name": "RF006",
            "lat": 44.954744733333335,
            "lon": 93.52847433333334
        },
        {
            "name": "RF007",
            "lat": 44.973094716666665,
            "lon": 93.50165043333334
        },
        {
            "name": "RF008",
            "lat": 44.69466666666667,
            "lon": 93.04171388333333
        },
        {
            "name": "RF009",
            "lat": 44.701854866666665,
            "lon": 93.00521755
        },
        {
            "name": "RF010",
            "lat": 44.72137051666667,
            "lon": 92.97912583333333
        },
        {
            "name": "RF011",
            "lat": 44.747647433333334,
            "lon": 92.97089351666666
        },
        {
            "name": "RF012",
            "lat": 44.896570366666666,
            "lon": 92.96620841666666
        },
        {
            "name": "RF013",
            "lat": 44.879069066666666,
            "lon": 92.95471308333333
        },
        {
            "name": "RF014",
            "lat": 44.85979115,
            "lon": 92.95331103333334
        },
        {
            "name": "RF015",
            "lat": 44.82800511666667,
            "lon": 92.97802723333334
        },
        {
            "name": "RF016",
            "lat": 44.819207766666665,
            "lon": 92.99953173333333
        },
        {
            "name": "RF017",
            "lat": 44.67041076666667,
            "lon": 93.29677928333334
        },
        {
            "name": "RF018",
            "lat": 44.65697921666667,
            "lon": 93.26123528333333
        },
        {
            "name": "RF019",
            "lat": 44.66292716666667,
            "lon": 93.22186693333333
        },
        {
            "name": "ROBBY",
            "lat": 44.075780566666666,
            "lon": 89.96044721666667
        },
        {
            "name": "ROKKK",
            "lat": 42.61666666666667,
            "lon": 94.0675
        },
        {
            "name": "ROZEE",
            "lat": 44.70604443333333,
            "lon": 93.19515
        },
        {
            "name": "RRAZZ",
            "lat": 43.28333333333333,
            "lon": 93.55138888333333
        },
        {
            "name": "RST",
            "lat": 43.782902783333334,
            "lon": 92.59696111666666
        },
        {
            "name": "RUMLE",
            "lat": 44.42128056666667,
            "lon": 93.62441666666666
        },
        {
            "name": "RVERR",
            "lat": 44.816175,
            "lon": 93.02635278333334
        },
        {
            "name": "RWF",
            "lat": 44.467275,
            "lon": 95.12823056666667
        },
        {
            "name": "RXANN",
            "lat": 43.99795556666667,
            "lon": 94.94226111666667
        },
        {
            "name": "SAMMZ",
            "lat": 44.796283333333335,
            "lon": 92.998475
        },
        {
            "name": "SAUGR",
            "lat": 45.34845833333333,
            "lon": 93.48116943333333
        },
        {
            "name": "SAVVG",
            "lat": 44.691691666666664,
            "lon": 93.21940278333334
        },
        {
            "name": "SCHEP",
            "lat": 44.247286116666665,
            "lon": 94.47879166666667
        },
        {
            "name": "SHEAY",
            "lat": 44.88984166666667,
            "lon": 90.07816943333333
        },
        {
            "name": "SHILD",
            "lat": 44.394922216666664,
            "lon": 93.34691388333333
        },
        {
            "name": "SHONN",
            "lat": 44.693441666666665,
            "lon": 94.15220556666667
        },
        {
            "name": "SHULZ",
            "lat": 46.06498056666667,
            "lon": 93.86950278333333
        },
        {
            "name": "SHUUT",
            "lat": 45.07069443333334,
            "lon": 93.48859721666666
        },
        {
            "name": "SKETR",
            "lat": 44.642775,
            "lon": 94.37480833333333
        },
        {
            "name": "SLAYR",
            "lat": 44.41833333333334,
            "lon": 94.14805556666667
        },
        {
            "name": "SLIKK",
            "lat": 44.79836111666667,
            "lon": 93.2868
        },
        {
            "name": "SMERF",
            "lat": 45.921061116666664,
            "lon": 97.56896111666667
        },
        {
            "name": "SNELL",
            "lat": 44.95495556666667,
            "lon": 93.12179443333333
        },
        {
            "name": "SNINE",
            "lat": 45.251877783333335,
            "lon": 92.65080278333333
        },
        {
            "name": "SOGGY",
            "lat": 44.794525,
            "lon": 92.85919721666667
        },
        {
            "name": "SPUKI",
            "lat": 44.89849721666667,
            "lon": 93.70419443333333
        },
        {
            "name": "SSTAR",
            "lat": 44.654586116666664,
            "lon": 93.18186666666666
        },
        {
            "name": "SSWAN",
            "lat": 44.15722221666667,
            "lon": 95.95361111666666
        },
        {
            "name": "STUWE",
            "lat": 44.81322221666667,
            "lon": 92.63991943333333
        },
        {
            "name": "TAXEE",
            "lat": 44.70258056666667,
            "lon": 92.49265556666667
        },
        {
            "name": "TEYOU",
            "lat": 43.291666666666664,
            "lon": 96.27361111666667
        },
        {
            "name": "TIETN",
            "lat": 44.85529721666666,
            "lon": 93.43431388333333
        },
        {
            "name": "TIGHE",
            "lat": 45.897,
            "lon": 94.12971111666667
        },
        {
            "name": "TONCA",
            "lat": 44.91599443333333,
            "lon": 93.63375278333334
        },
        {
            "name": "TONEE",
            "lat": 44.70174166666666,
            "lon": 93.07813333333333
        },
        {
            "name": "TORGY",
            "lat": 44.643577783333335,
            "lon": 94.37529166666667
        },
        {
            "name": "TRTEL",
            "lat": 44.86596111666667,
            "lon": 92.76196943333333
        },
        {
            "name": "TTAIL",
            "lat": 46.69111111666667,
            "lon": 96.68583333333333
        },
        {
            "name": "TTOSS",
            "lat": 43.928333333333335,
            "lon": 95.09194443333334
        },
        {
            "name": "TWINZ",
            "lat": 45.048797216666664,
            "lon": 92.28934443333333
        },
        {
            "name": "UBTYA",
            "lat": 45.031508333333335,
            "lon": 93.54303333333333
        },
        {
            "name": "UFFDA",
            "lat": 44.49611111666667,
            "lon": 96.09027778333333
        },
        {
            "name": "UTHNK",
            "lat": 45.026316666666666,
            "lon": 93.556075
        },
        {
            "name": "VYKES",
            "lat": 45.03666666666667,
            "lon": 93.31416666666667
        },
        {
            "name": "WABBS",
            "lat": 44.90251943333333,
            "lon": 93.268175
        },
        {
            "name": "WAGNR",
            "lat": 45.05513333333333,
            "lon": 93.00452778333333
        },
        {
            "name": "WASHY",
            "lat": 44.950266666666664,
            "lon": 93.35376111666666
        },
        {
            "name": "WAYZA",
            "lat": 44.99927221666667,
            "lon": 93.49293611666667
        },
        {
            "name": "WBSTR",
            "lat": 44.47581666666667,
            "lon": 93.28725278333333
        },
        {
            "name": "WDBRY",
            "lat": 44.945111116666666,
            "lon": 92.93937778333333
        },
        {
            "name": "WENNR",
            "lat": 46.244497216666666,
            "lon": 95.19868056666667
        },
        {
            "name": "WHISK",
            "lat": 45.13988056666667,
            "lon": 92.96214443333334
        },
        {
            "name": "WILDD",
            "lat": 44.42796666666667,
            "lon": 90.60118056666667
        },
        {
            "name": "WINDD",
            "lat": 46.114375,
            "lon": 94.80468333333333
        },
        {
            "name": "WLSTN",
            "lat": 45.47401111666667,
            "lon": 91.01535278333333
        },
        {
            "name": "WOLVS",
            "lat": 45.00409166666667,
            "lon": 92.57303056666666
        },
        {
            "name": "WOXEB",
            "lat": 45.05325,
            "lon": 93.61898888333333
        },
        {
            "name": "WRSAW",
            "lat": 44.24828333333333,
            "lon": 93.43196111666667
        },
        {
            "name": "WULAM",
            "lat": 44.74155556666667,
            "lon": 92.87326388333334
        },
        {
            "name": "YUPER",
            "lat": 43.192222216666664,
            "lon": 94.14027778333333
        },
        {
            "name": "ZASKY",
            "lat": 44.9303,
            "lon": 93.03088333333334
        },
        {
            "name": "ZESTY",
            "lat": 44.97219166666667,
            "lon": 93.42985
        },
        {
            "name": "ZIBBY",
            "lat": 44.115541666666665,
            "lon": 93.23251388333334
        },
        {
            "name": "ZMBRO",
            "lat": 44.341661116666664,
            "lon": 92.4485
        },
        {
            "name": "ZOGAP",
            "lat": 45.08805556666667,
            "lon": 93.87583333333333
        },
        {
            "name": "ZZEEE",
            "lat": 42.10583333333334,
            "lon": 95.40388888333334
        },
        {
            "name": "ZZING",
            "lat": 44.419875,
            "lon": 90.67103888333334
        }
    ],
    "rnws": [
        "RNW 04",
        "RNW 12L",
        "RNW 12R",
        "RNW 17",
        "RNW 22",
        "RNW 30L",
        "RNW 30R",
        "RNW 35"
    ],
    "sids": [
        {
            "name": "COULT7",
            "rnw": "21",
            "fixes": {
                "TAXEE": "TAXEE",
                "COULT": "COULT"
            },
            "sub_fixes": [
                {
                    "rwy": "RNW 04",
                    "fixes": {
                        "RNW 04": "RNW 04 HDG 045 VECTORS"
                    }
                },
                {
                    "rwy": "RNW 12L",
                    "fixes": {
                        "RNW 12L": "RNW 12L HDG 121 VECTORS"
                    }
                },
                {
                    "rwy": "RNW 12R",
                    "fixes": {
                        "RNW 12R": "RNW 12R HDG 121 VECTORS"
                    }
                },
                {
                    "rwy": "RNW 17",
                    "fixes": {
                        "RNW 17": "RNW 17 HDG 170 VECTORS"
                    }
                },
                {
                    "rwy": "RNW 22",
                    "fixes": {
                        "RNW 22": "RNW 22 HDG 225 VECTORS"
                    }
                },
                {
                    "rwy": "RNW 30L",
                    "fixes": {
                        "RNW 30L": "RNW 30L HDG 301 VECTORS"
                    }
                },
                {
                    "rwy": "RNW 30R",
                    "fixes": {
                        "RNW 30R": "RNW 30R HDG 301 VECTORS"
                    }
                },
                {
                    "rwy": "RNW 35",
                    "fixes": {
                        "RNW 35": "RNW 35 HDG 350 VECTORS"
                    }
                }
            ],
            "transitions": [
                {
                    "name": "DLL",
                    "fixes": [
                        "LMFRY",
                        "DLL"
                    ]
                }
            ]
        },
        {
            "name": "DWN8",
            "rnw": "21",
            "fixes": {
                "INUNE": "INUNE",
                "DWN": "DWN"
            },
            "sub_fixes": [
                {
                    "rwy": "RNW 04",
                    "fixes": {
                        "RNW 04": "RNW 04 HDG 045 VECTORS"
                    }
                },
                {
                    "rwy": "RNW 12L",
                    "fixes": {
                        "RNW 12L": "RNW 12L HDG 121 VECTORS"
                    }
                },
                {
                    "rwy": "RNW 12R",
                    "fixes": {
                        "RNW 12R": "RNW 12R HDG 121 VECTORS"
                    }
                },
                {
                    "rwy": "RNW 17",
                    "fixes": {
                        "RNW 17": "RNW 17 HDG 170 VECTORS"
                    }
                },
                {
                    "rwy": "RNW 22",
                    "fixes": {
                        "RNW 22": "RNW 22 HDG 225 VECTORS"
                    }
                },
                {
                    "rwy": "RNW 30L",
                    "fixes": {
                        "RNW 30L": "RNW 30L HDG 301 VECTORS"
                    }
                },
                {
                    "rwy": "RNW 30R",
                    "fixes": {
                        "RNW 30R": "RNW 30R HDG 301 VECTORS"
                    }
                },
                {
                    "rwy": "RNW 35",
                    "fixes": {
                        "RNW 35": "RNW 35 HDG 350 VECTORS"
                    }
                }
            ],
            "transitions": [
                {
                    "name": "ABR",
                    "fixes": [
                        "ABR"
                    ]
                }
            ]
        },
        {
            "name": "HSTIN6",
            "rnw": "17",
            "fixes": {
                "BDOGG": "BDOGG",
                "MNDEE": "MNDEE AT OR BELOW 7000 AT OR ABOVE 4000",
                "PRAMN": "PRAMN",
                "HITTL": "HITTL AT OR BELOW 17000 AT OR ABOVE 8000",
                "NANCZ": "NANCZ AT OR BELOW 17000 AT OR ABOVE 11000",
                "HSTIN": "HSTIN"
            },
            "sub_fixes": [],
            "transitions": [
                {
                    "name": "DABOY",
                    "fixes": [
                        "YUPER",
                        "DABOY"
                    ]
                },
                {
                    "name": "ZZEEE",
                    "fixes": [
                        "BBERD",
                        "ZZEEE"
                    ]
                }
            ]
        },
        {
            "name": "KBREW1",
            "rnw": "17",
            "fixes": {
                "GEP": "GEP",
                "HRBEK": "HRBEK",
                "HOMUR": "HOMUR",
                "KBREW": "KBREW AT OR ABOVE 14000"
            },
            "sub_fixes": [
                {
                    "rwy": "RNW 04",
                    "fixes": {
                        "RNW 04": "RNW 04 HDG 045 VECTORS"
                    }
                },
                {
                    "rwy": "RNW 12L",
                    "fixes": {
                        "RNW 12L": "RNW 12L HDG 121 VECTORS"
                    }
                },
                {
                    "rwy": "RNW 12R",
                    "fixes": {
                        "RNW 12R": "RNW 12R HDG 121 VECTORS"
                    }
                },
                {
                    "rwy": "RNW 17",
                    "fixes": {
                        "RNW 17": "RNW 17 HDG 170 VECTORS"
                    }
                },
                {
                    "rwy": "RNW 22",
                    "fixes": {
                        "RNW 22": "RNW 22 HDG 225 VECTORS"
                    }
                },
                {
                    "rwy": "RNW 30L",
                    "fixes": {
                        "RNW 30L": "RNW 30L HDG 301 VECTORS"
                    }
                },
                {
                    "rwy": "RNW 30R",
                    "fixes": {
                        "RNW 30R": "RNW 30R HDG 301 VECTORS"
                    }
                },
                {
                    "rwy": "RNW 35",
                    "fixes": {
                        "RNW 35": "RNW 35 HDG 350 VECTORS"
                    }
                }
            ],
            "transitions": [
                {
                    "name": "FAR",
                    "fixes": [
                        "FAR"
                    ]
                }
            ]
        },
        {
            "name": "LEINY6",
            "rnw": "17",
            "fixes": {
                "TONCA": "TONCA",
                "BOTNE": "BOTNE",
                "KUUGL": "KUUGL AT OR ABOVE 6000",
                "LEINY": "LEINY"
            },
            "sub_fixes": [
                {
                    "rwy": "RNW 04",
                    "fixes": {
                        "RNW 04": "RNW 04 HDG 045 UNTIL 2100 HDG 045 VECTORS"
                    }
                },
                {
                    "rwy": "RNW 12L",
                    "fixes": {
                        "RNW 12L": "RNW 12L HDG 121 VECTORS"
                    }
                },
                {
                    "rwy": "RNW 12R",
                    "fixes": {
                        "RNW 12R": "RNW 12R HDG 121 VECTORS"
                    }
                },
                {
                    "rwy": "RNW 17",
                    "fixes": {
                        "RNW 17": "RNW 17 HDG 170 VECTORS"
                    }
                },
                {
                    "rwy": "RNW 22",
                    "fixes": {
                        "RNW 22": "RNW 22 HDG 225 VECTORS"
                    }
                },
                {
                    "rwy": "RNW 30L",
                    "fixes": {
                        "RNW 30L": "RNW 30L HDG 301 VECTORS"
                    }
                },
                {
                    "rwy": "RNW 30R",
                    "fixes": {
                        "RNW 30R": "RNW 30R HDG 301 VECTORS"
                    }
                },
                {
                    "rwy": "RNW 35",
                    "fixes": {
                        "RNW 35": "RNW 35 HDG 350 VECTORS"
                    }
                }
            ],
            "transitions": []
        },
        {
            "name": "MEDOW5",
            "rnw": "17",
            "fixes": {
                "HUSHH": "HUSHH HDG 245 VECTORS"
            },
            "sub_fixes": [],
            "transitions": []
        },
        {
            "name": "ORSKY3",
            "rnw": "17",
            "fixes": {},
            "sub_fixes": [
                {
                    "rwy": "RNW 04",
                    "fixes": {
                        "RNW 04": "RNW 04 HDG 045 VECTORS",
                        "JURNY": "JURNY",
                        "RUMLE": "RUMLE",
                        "PEDLN": "PEDLN AT OR ABOVE 9000",
                        "ORSKY": "ORSKY AT OR ABOVE 9000"
                    }
                },
                {
                    "rwy": "RNW 12L",
                    "fixes": {
                        "RNW 12L": "RNW 12L HDG 121 VECTORS",
                        "JURNY": "JURNY",
                        "RUMLE": "RUMLE",
                        "PEDLN": "PEDLN AT OR ABOVE 9000",
                        "ORSKY": "ORSKY AT OR ABOVE 9000"
                    }
                },
                {
                    "rwy": "RNW 12R",
                    "fixes": {
                        "RNW 12R": "RNW 12R HDG 121 VECTORS",
                        "JURNY": "JURNY",
                        "RUMLE": "RUMLE",
                        "PEDLN": "PEDLN AT OR ABOVE 9000",
                        "ORSKY": "ORSKY AT OR ABOVE 9000"
                    }
                },
                {
                    "rwy": "RNW 17",
                    "fixes": {
                        "RNW 17": "RNW 17 HDG 170 VECTORS",
                        "JURNY": "JURNY",
                        "RUMLE": "RUMLE",
                        "PEDLN": "PEDLN AT OR ABOVE 9000",
                        "ORSKY": "ORSKY AT OR ABOVE 9000"
                    }
                },
                {
                    "rwy": "RNW 22",
                    "fixes": {
                        "RNW 22": "RNW 22 HDG 225 VECTORS",
                        "JURNY": "JURNY",
                        "RUMLE": "RUMLE",
                        "PEDLN": "PEDLN AT OR ABOVE 9000",
                        "ORSKY": "ORSKY AT OR ABOVE 9000"
                    }
                },
                {
                    "rwy": "RNW 30L",
                    "fixes": {
                        "RNW 30L": "RNW 30L HDG 301 VECTORS",
                        "JURNY": "JURNY",
                        "RUMLE": "RUMLE",
                        "PEDLN": "PEDLN AT OR ABOVE 9000",
                        "ORSKY": "ORSKY AT OR ABOVE 9000"
                    }
                },
                {
                    "rwy": "RNW 30R",
                    "fixes": {
                        "RNW 30R": "RNW 30R HDG 301 VECTORS",
                        "JURNY": "JURNY",
                        "RUMLE": "RUMLE",
                        "PEDLN": "PEDLN AT OR ABOVE 9000",
                        "ORSKY": "ORSKY AT OR ABOVE 9000"
                    }
                },
                {
                    "rwy": "RNW 35",
                    "fixes": {
                        "RNW 35": "RNW 35 HDG 350 VECTORS",
                        "JURNY": "JURNY",
                        "RUMLE": "RUMLE",
                        "PEDLN": "PEDLN AT OR ABOVE 9000",
                        "ORSKY": "ORSKY AT OR ABOVE 9000"
                    }
                }
            ],
            "transitions": [
                {
                    "name": "ONTIJ",
                    "fixes": [
                        "ONTIJ"
                    ]
                }
            ]
        },
        {
            "name": "RST1",
            "rnw": "17",
            "fixes": {
                "FGT": "FGT",
                "FOBUG": "FOBUG AT OR ABOVE 4000",
                "DOKTR": "DOKTR",
                "CORDY": "CORDY",
                "RST": "RST"
            },
            "sub_fixes": [
                {
                    "rwy": "RNW 04",
                    "fixes": {
                        "RNW 04": "RNW 04 HDG 045 VECTORS"
                    }
                },
                {
                    "rwy": "RNW 12L",
                    "fixes": {
                        "RNW 12L": "RNW 12L HDG 121 VECTORS"
                    }
                },
                {
                    "rwy": "RNW 12R",
                    "fixes": {
                        "RNW 12R": "RNW 12R HDG 121 VECTORS"
                    }
                },
                {
                    "rwy": "RNW 17",
                    "fixes": {
                        "RNW 17": "RNW 17 HDG 170 VECTORS"
                    }
                },
                {
                    "rwy": "RNW 22",
                    "fixes": {
                        "RNW 22": "RNW 22 HDG 225 VECTORS"
                    }
                },
                {
                    "rwy": "RNW 30L",
                    "fixes": {
                        "RNW 30L": "RNW 30L HDG 301 VECTORS"
                    }
                },
                {
                    "rwy": "RNW 30R",
                    "fixes": {
                        "RNW 30R": "RNW 30R HDG 301 VECTORS"
                    }
                },
                {
                    "rwy": "RNW 35",
                    "fixes": {
                        "RNW 35": "RNW 35 HDG 350 VECTORS"
                    }
                }
            ],
            "transitions": [
                {
                    "name": "ALO",
                    "fixes": [
                        "ALO"
                    ]
                }
            ]
        },
        {
            "name": "SCHEP1",
            "rnw": "17",
            "fixes": {},
            "sub_fixes": [
                {
                    "rwy": "RNW 04",
                    "fixes": {
                        "RNW 04": "RNW 04 HDG 045 VECTORS",
                        "HUGIR": "HUGIR",
                        "MCONL": "MCONL",
                        "ARREX": "ARREX",
                        "SCHEP": "SCHEP"
                    }
                },
                {
                    "rwy": "RNW 12L",
                    "fixes": {
                        "RNW 12L": "RNW 12L HDG 121 VECTORS",
                        "HUGIR": "HUGIR",
                        "MCONL": "MCONL",
                        "ARREX": "ARREX",
                        "SCHEP": "SCHEP"
                    }
                },
                {
                    "rwy": "RNW 12R",
                    "fixes": {
                        "RNW 12R": "RNW 12R HDG 121 VECTORS",
                        "HUGIR": "HUGIR",
                        "MCONL": "MCONL",
                        "ARREX": "ARREX",
                        "SCHEP": "SCHEP"
                    }
                },
                {
                    "rwy": "RNW 17",
                    "fixes": {
                        "RNW 17": "RNW 17 HDG 170 VECTORS",
                        "HUGIR": "HUGIR",
                        "MCONL": "MCONL",
                        "ARREX": "ARREX",
                        "SCHEP": "SCHEP"
                    }
                },
                {
                    "rwy": "RNW 22",
                    "fixes": {
                        "RNW 22": "RNW 22 HDG 225 VECTORS",
                        "HUGIR": "HUGIR",
                        "MCONL": "MCONL",
                        "ARREX": "ARREX",
                        "SCHEP": "SCHEP"
                    }
                },
                {
                    "rwy": "RNW 30L",
                    "fixes": {
                        "RNW 30L": "RNW 30L HDG 301 VECTORS",
                        "HUGIR": "HUGIR",
                        "MCONL": "MCONL",
                        "ARREX": "ARREX",
                        "SCHEP": "SCHEP"
                    }
                },
                {
                    "rwy": "RNW 30R",
                    "fixes": {
                        "RNW 30R": "RNW 30R HDG 301 VECTORS",
                        "HUGIR": "HUGIR",
                        "MCONL": "MCONL",
                        "ARREX": "ARREX",
                        "SCHEP": "SCHEP"
                    }
                },
                {
                    "rwy": "RNW 35",
                    "fixes": {
                        "RNW 35": "RNW 35 HDG 350 VECTORS",
                        "HUGIR": "HUGIR",
                        "MCONL": "MCONL",
                        "ARREX": "ARREX",
                        "SCHEP": "SCHEP"
                    }
                }
            ],
            "transitions": [
                {
                    "name": "RXANN",
                    "fixes": [
                        "RXANN"
                    ]
                }
            ]
        },
        {
            "name": "SLAYR4",
            "rnw": "17",
            "fixes": {
                "BDOGG": "BDOGG",
                "CLIKR": "CLIKR AT OR BELOW 7000 AT OR ABOVE 5000",
                "KEYPR": "KEYPR AT OR BELOW 17000 AT OR ABOVE 8000",
                "MCONL": "MCONL AT OR BELOW 17000 AT OR ABOVE 11000",
                "SLAYR": "SLAYR"
            },
            "sub_fixes": [],
            "transitions": [
                {
                    "name": "TEYOU",
                    "fixes": [
                        "TTOSS",
                        "TEYOU"
                    ]
                }
            ]
        },
        {
            "name": "SMERF7",
            "rnw": "17",
            "fixes": {
                "ZOGAP": "ZOGAP AT OR ABOVE 5000",
                "PAGOZ": "PAGOZ",
                "SMERF": "SMERF"
            },
            "sub_fixes": [
                {
                    "rwy": "RNW 04",
                    "fixes": {
                        "RNW 04": "RNW 04 HDG 045 UNTIL 2100 HDG 045 VECTORS"
                    }
                },
                {
                    "rwy": "RNW 12L",
                    "fixes": {
                        "RNW 12L": "RNW 12L HDG 121 VECTORS"
                    }
                },
                {
                    "rwy": "RNW 12R",
                    "fixes": {
                        "RNW 12R": "RNW 12R HDG 121 VECTORS"
                    }
                },
                {
                    "rwy": "RNW 17",
                    "fixes": {
                        "RNW 17": "RNW 17 HDG 170 VECTORS"
                    }
                },
                {
                    "rwy": "RNW 22",
                    "fixes": {
                        "RNW 22": "RNW 22 HDG 225 VECTORS"
                    }
                },
                {
                    "rwy": "RNW 30L",
                    "fixes": {
                        "RNW 30L": "RNW 30L HDG 301 VECTORS"
                    }
                },
                {
                    "rwy": "RNW 30R",
                    "fixes": {
                        "RNW 30R": "RNW 30R HDG 301 VECTORS"
                    }
                },
                {
                    "rwy": "RNW 35",
                    "fixes": {
                        "RNW 35": "RNW 35 HDG 350 VECTORS"
                    }
                }
            ],
            "transitions": []
        },
        {
            "name": "WLSTN7",
            "rnw": "17",
            "fixes": {},
            "sub_fixes": [
                {
                    "rwy": "RNW 04",
                    "fixes": {
                        "RNW 04": "RNW 04 HDG 045 VECTORS",
                        "SNINE": "SNINE",
                        "DWIYT": "DWIYT",
                        "WLSTN": "WLSTN"
                    }
                },
                {
                    "rwy": "RNW 12L",
                    "fixes": {
                        "RNW 12L": "RNW 12L HDG 121 VECTORS",
                        "SNINE": "SNINE",
                        "DWIYT": "DWIYT",
                        "WLSTN": "WLSTN"
                    }
                },
                {
                    "rwy": "RNW 12R",
                    "fixes": {
                        "RNW 12R": "RNW 12R HDG 121 VECTORS",
                        "SNINE": "SNINE",
                        "DWIYT": "DWIYT",
                        "WLSTN": "WLSTN"
                    }
                },
                {
                    "rwy": "RNW 17",
                    "fixes": {
                        "RNW 17": "RNW 17 HDG 170 VECTORS",
                        "SNINE": "SNINE",
                        "DWIYT": "DWIYT",
                        "WLSTN": "WLSTN"
                    }
                },
                {
                    "rwy": "RNW 22",
                    "fixes": {
                        "RNW 22": "RNW 22 HDG 225 VECTORS",
                        "SNINE": "SNINE",
                        "DWIYT": "DWIYT",
                        "WLSTN": "WLSTN"
                    }
                },
                {
                    "rwy": "RNW 30L",
                    "fixes": {
                        "RNW 30L": "RNW 30L HDG 301 VECTORS",
                        "SNINE": "SNINE",
                        "DWIYT": "DWIYT",
                        "WLSTN": "WLSTN"
                    }
                },
                {
                    "rwy": "RNW 30R",
                    "fixes": {
                        "RNW 30R": "RNW 30R HDG 301 VECTORS",
                        "SNINE": "SNINE",
                        "DWIYT": "DWIYT",
                        "WLSTN": "WLSTN"
                    }
                },
                {
                    "rwy": "RNW 35",
                    "fixes": {
                        "RNW 35": "RNW 35 HDG 350 VECTORS",
                        "SNINE": "SNINE",
                        "DWIYT": "DWIYT",
                        "WLSTN": "WLSTN"
                    }
                }
            ],
            "transitions": [
                {
                    "name": "GRB",
                    "fixes": [
                        "GRB"
                    ]
                }
            ]
        },
        {
            "name": "ZMBRO7",
            "rnw": "17",
            "fixes": {},
            "sub_fixes": [
                {
                    "rwy": "RNW 04",
                    "fixes": {
                        "RNW 04": "RNW 04 HDG 045 VECTORS",
                        "JEDET": "JEDET AT OR ABOVE 4000",
                        "ZMBRO": "ZMBRO"
                    }
                },
                {
                    "rwy": "RNW 12L",
                    "fixes": {
                        "RNW 12L": "RNW 12L HDG 121 VECTORS",
                        "JEDET": "JEDET AT OR ABOVE 4000",
                        "ZMBRO": "ZMBRO"
                    }
                },
                {
                    "rwy": "RNW 12R",
                    "fixes": {
                        "RNW 12R": "RNW 12R HDG 121 VECTORS",
                        "JEDET": "JEDET AT OR ABOVE 4000",
                        "ZMBRO": "ZMBRO"
                    }
                },
                {
                    "rwy": "RNW 17",
                    "fixes": {
                        "RNW 17": "RNW 17 HDG 170 VECTORS",
                        "JEDET": "JEDET AT OR ABOVE 4000",
                        "ZMBRO": "ZMBRO"
                    }
                },
                {
                    "rwy": "RNW 22",
                    "fixes": {
                        "RNW 22": "RNW 22 HDG 225 VECTORS",
                        "JEDET": "JEDET AT OR ABOVE 4000",
                        "ZMBRO": "ZMBRO"
                    }
                },
                {
                    "rwy": "RNW 30L",
                    "fixes": {
                        "RNW 30L": "RNW 30L HDG 301 VECTORS",
                        "JEDET": "JEDET AT OR ABOVE 4000",
                        "ZMBRO": "ZMBRO"
                    }
                },
                {
                    "rwy": "RNW 30R",
                    "fixes": {
                        "RNW 30R": "RNW 30R HDG 301 VECTORS",
                        "JEDET": "JEDET AT OR ABOVE 4000",
                        "ZMBRO": "ZMBRO"
                    }
                },
                {
                    "rwy": "RNW 35",
                    "fixes": {
                        "RNW 35": "RNW 35 HDG 350 VECTORS",
                        "JEDET": "JEDET AT OR ABOVE 4000",
                        "ZMBRO": "ZMBRO"
                    }
                }
            ],
            "transitions": [
                {
                    "name": "ODI",
                    "fixes": [
                        "ODI"
                    ]
                }
            ]
        }
    ],
    "stars": [
        {
            "name": "BAINY3.04",
            "runway": "RNW 04",
            "fixes": {
                "BAINY": "BAINY AT OR BELOW 19000 AT OR ABOVE 15000 SPEED 280",
                "LUCCY": "LUCCY AT OR ABOVE 11000 SPEED 280",
                "SAUGR": "SAUGR",
                "GEP": "GEP AT OR ABOVE 10000 SPEED 250",
                "PRRPL": "PRRPL AT OR ABOVE 9000",
                "OSMOH": "OSMOH 8000 SPEED 210",
                "IRRRV": "OVERFLY IRRRV TRK 122 VECTORS"
            }
        },
        {
            "name": "BAINY3.12B",
            "runway": "RNW 12R RNW 12L",
            "fixes": {
                "BAINY": "BAINY AT OR BELOW 19000 AT OR ABOVE 15000 SPEED 280",
                "LUCCY": "LUCCY AT OR ABOVE 11000 SPEED 280",
                "SAUGR": "SAUGR",
                "OGLVE": "OGLVE AT OR ABOVE 8000",
                "KAYQU": "KAYQU 7000 SPEED 210"
            }
        },
        {
            "name": "BAINY3.17",
            "runway": "RNW 17",
            "fixes": {
                "BAINY": "BAINY AT OR BELOW 19000 AT OR ABOVE 15000 SPEED 280",
                "LUCCY": "LUCCY AT OR ABOVE 11000 SPEED 280",
                "SAUGR": "SAUGR",
                "GEP": "GEP AT OR ABOVE 10000 SPEED 250",
                "PRRPL": "PRRPL AT OR ABOVE 9000",
                "OSMOH": "OSMOH 8000 SPEED 210",
                "IRRRV": "OVERFLY IRRRV TRK 122 VECTORS"
            }
        },
        {
            "name": "BAINY3.22",
            "runway": "RNW 22",
            "fixes": {
                "BAINY": "BAINY AT OR BELOW 19000 AT OR ABOVE 15000 SPEED 280",
                "LUCCY": "LUCCY AT OR ABOVE 11000 SPEED 280",
                "SAUGR": "SAUGR",
                "GEP": "GEP AT OR ABOVE 10000 SPEED 250",
                "PRRPL": "PRRPL AT OR ABOVE 9000",
                "OSMOH": "OSMOH 8000 SPEED 210",
                "IRRRV": "OVERFLY IRRRV TRK 122 VECTORS"
            }
        },
        {
            "name": "BAINY3.30L",
            "runway": "RNW 30L",
            "fixes": {
                "BAINY": "BAINY AT OR BELOW 19000 AT OR ABOVE 15000 SPEED 280",
                "LUCCY": "LUCCY AT OR ABOVE 11000 SPEED 280",
                "SAUGR": "SAUGR",
                "GEP": "GEP AT OR ABOVE 10000 SPEED 250",
                "PRRPL": "PRRPL AT OR ABOVE 9000",
                "MAUER": "MAUER 8000 SPEED 210",
                "JJENI": "OVERFLY JJENI TRK 121 VECTORS"
            }
        },
        {
            "name": "BAINY3.30R",
            "runway": "RNW 30R",
            "fixes": {
                "BAINY": "BAINY AT OR BELOW 19000 AT OR ABOVE 15000 SPEED 280",
                "LUCCY": "LUCCY AT OR ABOVE 11000 SPEED 280",
                "SAUGR": "SAUGR",
                "GEP": "GEP AT OR ABOVE 10000 SPEED 250",
                "PRRPL": "PRRPL AT OR ABOVE 9000",
                "OSMOH": "OSMOH 8000 SPEED 210",
                "IRRRV": "OVERFLY IRRRV TRK 122 VECTORS"
            }
        },
        {
            "name": "BAINY3.35",
            "runway": "RNW 35",
            "fixes": {
                "BAINY": "BAINY AT OR BELOW 19000 AT OR ABOVE 15000 SPEED 280",
                "LUCCY": "LUCCY AT OR ABOVE 11000 SPEED 280",
                "SAUGR": "SAUGR",
                "GEP": "GEP AT OR ABOVE 10000 SPEED 250",
                "PRRPL": "PRRPL AT OR ABOVE 9000",
                "BRNVL": "BRNVL 8000 SPEED 210",
                "GWAIT": "OVERFLY GWAIT TRK 176 VECTORS"
            }
        },
        {
            "name": "BLUEM4.04",
            "runway": "RNW 04",
            "fixes": {
                "BLUEM": "BLUEM AT OR ABOVE 11000 SPEED 280",
                "HHAMR": "HHAMR AT OR ABOVE 10000",
                "FARBO": "FARBO",
                "ELLKO": "ELLKO AT OR ABOVE 10000 SPEED 250",
                "SAVVG": "SAVVG 9000",
                "GREAK": "GREAK 8000 SPEED 230",
                "DOLEE": "OVERFLY DOLEE TRK 301 VECTORS"
            }
        },
        {
            "name": "BLUEM4.12L",
            "runway": "RNW 12L",
            "fixes": {
                "BLUEM": "BLUEM AT OR ABOVE 11000 SPEED 280",
                "HHAMR": "HHAMR AT OR ABOVE 10000",
                "FARBO": "FARBO",
                "ELLKO": "ELLKO AT OR ABOVE 10000 SPEED 250",
                "SAVVG": "SAVVG 9000",
                "CMMOE": "CMMOE 8000 SPEED 230",
                "COZZZ": "OVERFLY COZZZ TRK 301 VECTORS"
            }
        },
        {
            "name": "BLUEM4.12R",
            "runway": "RNW 12R",
            "fixes": {
                "BLUEM": "BLUEM AT OR ABOVE 11000 SPEED 280",
                "HHAMR": "HHAMR AT OR ABOVE 10000",
                "FARBO": "FARBO",
                "ELLKO": "ELLKO AT OR ABOVE 10000 SPEED 250",
                "SAVVG": "SAVVG 9000",
                "GREAK": "GREAK 8000 SPEED 230",
                "DOLEE": "OVERFLY DOLEE TRK 301 VECTORS"
            }
        },
        {
            "name": "BLUEM4.17",
            "runway": "RNW 17",
            "fixes": {
                "BLUEM": "BLUEM AT OR ABOVE 11000 SPEED 280",
                "HHAMR": "HHAMR AT OR ABOVE 10000",
                "FARBO": "FARBO",
                "ELLKO": "ELLKO AT OR ABOVE 10000 SPEED 250",
                "SAVVG": "SAVVG 9000",
                "GREAK": "GREAK 8000 SPEED 230",
                "DOLEE": "OVERFLY DOLEE TRK 301 VECTORS"
            }
        },
        {
            "name": "BLUEM4.22",
            "runway": "RNW 22",
            "fixes": {
                "BLUEM": "BLUEM AT OR ABOVE 11000 SPEED 280",
                "HHAMR": "HHAMR AT OR ABOVE 10000",
                "FARBO": "FARBO",
                "ELLKO": "ELLKO AT OR ABOVE 10000 SPEED 250",
                "SAVVG": "SAVVG 9000",
                "GREAK": "GREAK 8000 SPEED 230",
                "DOLEE": "OVERFLY DOLEE TRK 301 VECTORS"
            }
        },
        {
            "name": "BLUEM4.30B",
            "runway": "RNW 30R RNW 30L",
            "fixes": {
                "BLUEM": "BLUEM AT OR ABOVE 11000 SPEED 280",
                "HHAMR": "HHAMR AT OR ABOVE 10000",
                "FARBO": "FARBO",
                "NOFLD": "NOFLD 10000 SPEED 250",
                "CANDD": "CANDD 7000 SPEED 230",
                "HAPTN": "HAPTN 7000 SPEED 210"
            }
        },
        {
            "name": "BLUEM4.35",
            "runway": "RNW 35",
            "fixes": {
                "BLUEM": "BLUEM AT OR ABOVE 11000 SPEED 280",
                "HHAMR": "HHAMR AT OR ABOVE 10000",
                "FARBO": "FARBO",
                "DNDIS": "DNDIS 9000 SPEED 230",
                "JAMEZ": "JAMEZ AT OR ABOVE 7000"
            }
        },
        {
            "name": "EAU9.04",
            "runway": "RNW 04",
            "fixes": {
                "EAU": "EAU",
                "HERMI": "HERMI",
                "TWINZ": "TWINZ",
                "WOLVS": "WOLVS",
                "LOOON": "LOOON",
                "ZASKY": "ZASKY TRK 255 VECTORS"
            }
        },
        {
            "name": "EAU9.12B",
            "runway": "RNW 12R RNW 12L",
            "fixes": {
                "EAU": "EAU",
                "HERMI": "HERMI",
                "TWINZ": "TWINZ",
                "WOLVS": "WOLVS",
                "LOOON": "LOOON",
                "ZASKY": "ZASKY HDG 300 VECTORS"
            }
        },
        {
            "name": "EAU9.17",
            "runway": "RNW 17",
            "fixes": {
                "EAU": "EAU",
                "HERMI": "HERMI",
                "TWINZ": "TWINZ",
                "WOLVS": "WOLVS",
                "LOOON": "LOOON",
                "ZASKY": "ZASKY TRK 255 VECTORS"
            }
        },
        {
            "name": "EAU9.22",
            "runway": "RNW 22",
            "fixes": {
                "EAU": "EAU",
                "HERMI": "HERMI",
                "TWINZ": "TWINZ",
                "WOLVS": "WOLVS",
                "LOOON": "LOOON",
                "ZASKY": "ZASKY TRK 255 VECTORS"
            }
        },
        {
            "name": "EAU9.30B",
            "runway": "RNW 30R RNW 30L",
            "fixes": {
                "EAU": "EAU",
                "HERMI": "HERMI",
                "TWINZ": "TWINZ",
                "WOLVS": "WOLVS",
                "LOOON": "LOOON",
                "ZASKY": "ZASKY TRK 255 VECTORS"
            }
        },
        {
            "name": "EAU9.35",
            "runway": "RNW 35",
            "fixes": {
                "EAU": "EAU",
                "HERMI": "HERMI",
                "TWINZ": "TWINZ",
                "WOLVS": "WOLVS",
                "LOOON": "LOOON",
                "ZASKY": "ZASKY TRK 255 VECTORS"
            }
        },
        {
            "name": "GEP1.04",
            "runway": "RNW 04",
            "fixes": {
                "GOLLF": "GOLLF",
                "OLLEE": "OLLEE",
                "SAUGR": "SAUGR",
                "GEP": "GEP",
                "VYKES": "VYKES TRK 153 VECTORS"
            }
        },
        {
            "name": "GEP1.12B",
            "runway": "RNW 12R RNW 12L",
            "fixes": {
                "GOLLF": "GOLLF",
                "OLLEE": "OLLEE",
                "SAUGR": "SAUGR",
                "GEP": "GEP",
                "VYKES": "VYKES TRK 153 VECTORS"
            }
        },
        {
            "name": "GEP1.17",
            "runway": "RNW 17",
            "fixes": {
                "GOLLF": "GOLLF",
                "OLLEE": "OLLEE",
                "SAUGR": "SAUGR",
                "GEP": "GEP",
                "VYKES": "VYKES TRK 153 VECTORS"
            }
        },
        {
            "name": "GEP1.22",
            "runway": "RNW 22",
            "fixes": {
                "GOLLF": "GOLLF",
                "OLLEE": "OLLEE",
                "SAUGR": "SAUGR",
                "GEP": "GEP",
                "VYKES": "VYKES TRK 153 VECTORS"
            }
        },
        {
            "name": "GEP1.30B",
            "runway": "RNW 30R RNW 30L",
            "fixes": {
                "GOLLF": "GOLLF",
                "OLLEE": "OLLEE",
                "SAUGR": "SAUGR",
                "GEP": "GEP",
                "VYKES": "VYKES HDG 120 VECTORS"
            }
        },
        {
            "name": "GEP1.35",
            "runway": "RNW 35",
            "fixes": {
                "GOLLF": "GOLLF",
                "OLLEE": "OLLEE",
                "SAUGR": "SAUGR",
                "GEP": "GEP",
                "VYKES": "VYKES HDG 185 VECTORS"
            }
        },
        {
            "name": "KASPR7.04",
            "runway": "RNW 04",
            "fixes": {
                "KASPR": "KASPR",
                "ZIBBY": "ZIBBY",
                "DELZY": "DELZY",
                "PEPPR": "PEPPR",
                "AHMIT": "AHMIT",
                "FGT": "FGT"
            }
        },
        {
            "name": "KASPR7.12B",
            "runway": "RNW 12R RNW 12L",
            "fixes": {
                "KASPR": "KASPR",
                "ZIBBY": "ZIBBY",
                "DELZY": "DELZY",
                "PEPPR": "PEPPR",
                "AHMIT": "AHMIT",
                "FGT": "FGT",
                "SLIKK": "SLIKK HDG 300 VECTORS"
            }
        },
        {
            "name": "KASPR7.17",
            "runway": "RNW 17",
            "fixes": {
                "KASPR": "KASPR",
                "ZIBBY": "ZIBBY",
                "DELZY": "DELZY",
                "PEPPR": "PEPPR",
                "AHMIT": "AHMIT",
                "FGT": "FGT"
            }
        },
        {
            "name": "KASPR7.22",
            "runway": "RNW 22",
            "fixes": {
                "KASPR": "KASPR",
                "ZIBBY": "ZIBBY",
                "DELZY": "DELZY",
                "PEPPR": "PEPPR",
                "AHMIT": "AHMIT",
                "FGT": "FGT"
            }
        },
        {
            "name": "KASPR7.30B",
            "runway": "RNW 30R RNW 30L",
            "fixes": {
                "KASPR": "KASPR",
                "ZIBBY": "ZIBBY",
                "DELZY": "DELZY",
                "PEPPR": "PEPPR",
                "AHMIT": "AHMIT",
                "FGT": "FGT"
            }
        },
        {
            "name": "KASPR7.35",
            "runway": "RNW 35",
            "fixes": {
                "KASPR": "KASPR",
                "ZIBBY": "ZIBBY",
                "DELZY": "DELZY",
                "PEPPR": "PEPPR",
                "AHMIT": "AHMIT",
                "FGT": "FGT"
            }
        },
        {
            "name": "KKILR3.04",
            "runway": "RNW 04",
            "fixes": {
                "KKILR": "KKILR AT OR ABOVE 12000 SPEED 280",
                "HUGGI": "HUGGI AT OR ABOVE 10000",
                "KRISP": "KRISP",
                "AFTYN": "AFTYN AT OR ABOVE 10000 SPEED 250",
                "CMMOE": "CMMOE 8000 SPEED 230",
                "COZZZ": "OVERFLY COZZZ TRK 301 VECTORS"
            }
        },
        {
            "name": "KKILR3.12L",
            "runway": "RNW 12L",
            "fixes": {
                "KKILR": "KKILR AT OR ABOVE 12000 SPEED 280",
                "HUGGI": "HUGGI AT OR ABOVE 10000",
                "KRISP": "KRISP",
                "AFTYN": "AFTYN AT OR ABOVE 10000 SPEED 250",
                "CMMOE": "CMMOE 8000 SPEED 230",
                "COZZZ": "OVERFLY COZZZ TRK 301 VECTORS"
            }
        },
        {
            "name": "KKILR3.12R",
            "runway": "RNW 12R",
            "fixes": {
                "KKILR": "KKILR AT OR ABOVE 12000 SPEED 280",
                "HUGGI": "HUGGI AT OR ABOVE 10000",
                "KRISP": "KRISP",
                "AFTYN": "AFTYN AT OR ABOVE 10000 SPEED 250",
                "JONZY": "JONZY AT OR ABOVE 9000",
                "GREAK": "GREAK 8000 SPEED 230",
                "DOLEE": "OVERFLY DOLEE TRK 301 VECTORS"
            }
        },
        {
            "name": "KKILR3.17",
            "runway": "RNW 17",
            "fixes": {
                "KKILR": "KKILR AT OR ABOVE 12000 SPEED 280",
                "HUGGI": "HUGGI AT OR ABOVE 10000",
                "KRISP": "KRISP",
                "AFTYN": "AFTYN AT OR ABOVE 10000 SPEED 250",
                "CMMOE": "CMMOE 8000 SPEED 230",
                "COZZZ": "OVERFLY COZZZ TRK 301 VECTORS"
            }
        },
        {
            "name": "KKILR3.22",
            "runway": "RNW 22",
            "fixes": {
                "KKILR": "KKILR AT OR ABOVE 12000 SPEED 280",
                "HUGGI": "HUGGI AT OR ABOVE 10000",
                "KRISP": "KRISP",
                "AFTYN": "AFTYN AT OR ABOVE 10000 SPEED 250",
                "CMMOE": "CMMOE 8000 SPEED 230",
                "COZZZ": "OVERFLY COZZZ TRK 301 VECTORS"
            }
        },
        {
            "name": "KKILR3.30B",
            "runway": "RNW 30R RNW 30L",
            "fixes": {
                "KKILR": "KKILR AT OR ABOVE 12000 SPEED 280",
                "HUGGI": "HUGGI AT OR ABOVE 10000",
                "KRISP": "KRISP",
                "STUWE": "STUWE 7000",
                "GEEQU": "GEEQU 7000 SPEED 210"
            }
        },
        {
            "name": "KKILR3.35",
            "runway": "RNW 35",
            "fixes": {
                "KKILR": "KKILR AT OR ABOVE 12000 SPEED 280",
                "HUGGI": "HUGGI AT OR ABOVE 10000",
                "KRISP": "KRISP",
                "AFTYN": "AFTYN AT OR ABOVE 10000 SPEED 250",
                "JONZY": "JONZY AT OR ABOVE 9000",
                "GREAK": "GREAK 8000 SPEED 230",
                "DOLEE": "OVERFLY DOLEE TRK 301 VECTORS"
            }
        },
        {
            "name": "MUSCL3.04",
            "runway": "RNW 04",
            "fixes": {
                "MUSCL": "MUSCL AT OR ABOVE 17000 SPEED 280",
                "BAYKS": "BAYKS AT OR ABOVE 12000 SPEED 280",
                "WOLVS": "WOLVS",
                "LOOON": "LOOON AT OR ABOVE 11000",
                "WDBRY": "WDBRY AT OR ABOVE 10000 SPEED 250",
                "ZASKY": "ZASKY AT OR ABOVE 9000",
                "CMMOE": "CMMOE 8000 SPEED 230",
                "COZZZ": "OVERFLY COZZZ TRK 301 VECTORS"
            }
        },
        {
            "name": "MUSCL3.12L",
            "runway": "RNW 12L",
            "fixes": {
                "MUSCL": "MUSCL AT OR ABOVE 17000 SPEED 280",
                "BAYKS": "BAYKS AT OR ABOVE 12000 SPEED 280",
                "WOLVS": "WOLVS",
                "LOOON": "LOOON AT OR ABOVE 11000",
                "WDBRY": "WDBRY AT OR ABOVE 10000 SPEED 250",
                "ZASKY": "ZASKY AT OR ABOVE 9000",
                "CMMOE": "CMMOE 8000 SPEED 230",
                "COZZZ": "OVERFLY COZZZ TRK 301 VECTORS"
            }
        },
        {
            "name": "MUSCL3.12R",
            "runway": "RNW 12R",
            "fixes": {
                "MUSCL": "MUSCL AT OR ABOVE 17000 SPEED 280",
                "BAYKS": "BAYKS AT OR ABOVE 12000 SPEED 280",
                "WOLVS": "WOLVS",
                "LOOON": "LOOON AT OR ABOVE 11000",
                "WDBRY": "WDBRY AT OR ABOVE 10000 SPEED 250",
                "ZASKY": "ZASKY AT OR ABOVE 9000",
                "GREAK": "GREAK 8000 SPEED 230",
                "DOLEE": "OVERFLY DOLEE TRK 301 VECTORS"
            }
        },
        {
            "name": "MUSCL3.17",
            "runway": "RNW 17",
            "fixes": {
                "MUSCL": "MUSCL AT OR ABOVE 17000 SPEED 280",
                "BAYKS": "BAYKS AT OR ABOVE 12000 SPEED 280",
                "WOLVS": "WOLVS",
                "LOOON": "LOOON AT OR ABOVE 11000",
                "WDBRY": "WDBRY AT OR ABOVE 10000 SPEED 250",
                "ZASKY": "ZASKY AT OR ABOVE 9000",
                "CMMOE": "CMMOE 8000 SPEED 230",
                "COZZZ": "OVERFLY COZZZ TRK 301 VECTORS"
            }
        },
        {
            "name": "MUSCL3.22",
            "runway": "RNW 22",
            "fixes": {
                "MUSCL": "MUSCL AT OR ABOVE 17000 SPEED 280",
                "BAYKS": "BAYKS AT OR ABOVE 12000 SPEED 280",
                "WOLVS": "WOLVS",
                "LOOON": "LOOON AT OR ABOVE 11000",
                "WDBRY": "WDBRY AT OR ABOVE 10000 SPEED 250",
                "ZASKY": "ZASKY AT OR ABOVE 9000",
                "CMMOE": "CMMOE 8000 SPEED 230",
                "COZZZ": "OVERFLY COZZZ TRK 301 VECTORS"
            }
        },
        {
            "name": "MUSCL3.30B",
            "runway": "RNW 30R RNW 30L",
            "fixes": {
                "MUSCL": "MUSCL AT OR ABOVE 17000 SPEED 280",
                "BAYKS": "BAYKS AT OR ABOVE 12000 SPEED 280",
                "WOLVS": "WOLVS",
                "LKLND": "LKLND AT OR ABOVE 8000",
                "KROIX": "KROIX 7000 SPEED 230",
                "TRTEL": "TRTEL 7000 SPEED 210"
            }
        },
        {
            "name": "MUSCL3.35",
            "runway": "RNW 35",
            "fixes": {
                "MUSCL": "MUSCL AT OR ABOVE 17000 SPEED 280",
                "BAYKS": "BAYKS AT OR ABOVE 12000 SPEED 280",
                "WOLVS": "WOLVS",
                "LOOON": "LOOON AT OR ABOVE 11000",
                "WDBRY": "WDBRY AT OR ABOVE 10000 SPEED 250",
                "ZASKY": "ZASKY AT OR ABOVE 9000",
                "GREAK": "GREAK 8000 SPEED 230",
                "DOLEE": "OVERFLY DOLEE TRK 301 VECTORS"
            }
        },
        {
            "name": "NITZR3.04",
            "runway": "RNW 04",
            "fixes": {
                "NITZR": "NITZR AT OR ABOVE 12000 SPEED 280",
                "WRSAW": "WRSAW AT OR ABOVE 11000",
                "DAHRL": "DAHRL",
                "GDNEE": "GDNEE",
                "ELLKO": "ELLKO AT OR ABOVE 11000 SPEED 250",
                "SAVVG": "SAVVG 10000",
                "GREAK": "GREAK 8000 SPEED 230",
                "DOLEE": "OVERFLY DOLEE TRK 301 VECTORS"
            }
        },
        {
            "name": "NITZR3.12L",
            "runway": "RNW 12L",
            "fixes": {
                "NITZR": "NITZR AT OR ABOVE 12000 SPEED 280",
                "WRSAW": "WRSAW AT OR ABOVE 11000",
                "DAHRL": "DAHRL",
                "GDNEE": "GDNEE",
                "ELLKO": "ELLKO AT OR ABOVE 11000 SPEED 250",
                "SAVVG": "SAVVG 10000",
                "CMMOE": "CMMOE 8000 SPEED 230",
                "COZZZ": "OVERFLY COZZZ TRK 301 VECTORS"
            }
        },
        {
            "name": "NITZR3.12R",
            "runway": "RNW 12R",
            "fixes": {
                "NITZR": "NITZR AT OR ABOVE 12000 SPEED 280",
                "WRSAW": "WRSAW AT OR ABOVE 11000",
                "DAHRL": "DAHRL",
                "GDNEE": "GDNEE",
                "ELLKO": "ELLKO AT OR ABOVE 11000 SPEED 250",
                "SAVVG": "SAVVG 10000",
                "GREAK": "GREAK 8000 SPEED 230",
                "DOLEE": "OVERFLY DOLEE TRK 301 VECTORS"
            }
        },
        {
            "name": "NITZR3.17",
            "runway": "RNW 17",
            "fixes": {
                "NITZR": "NITZR AT OR ABOVE 12000 SPEED 280",
                "WRSAW": "WRSAW AT OR ABOVE 11000",
                "DAHRL": "DAHRL",
                "GDNEE": "GDNEE",
                "ELLKO": "ELLKO AT OR ABOVE 11000 SPEED 250",
                "SAVVG": "SAVVG 10000",
                "GREAK": "GREAK 8000 SPEED 230",
                "DOLEE": "OVERFLY DOLEE TRK 301 VECTORS"
            }
        },
        {
            "name": "NITZR3.22",
            "runway": "RNW 22",
            "fixes": {
                "NITZR": "NITZR AT OR ABOVE 12000 SPEED 280",
                "WRSAW": "WRSAW AT OR ABOVE 11000",
                "DAHRL": "DAHRL",
                "GDNEE": "GDNEE",
                "ELLKO": "ELLKO AT OR ABOVE 11000 SPEED 250",
                "SAVVG": "SAVVG 10000",
                "GREAK": "GREAK 8000 SPEED 230",
                "DOLEE": "OVERFLY DOLEE TRK 301 VECTORS"
            }
        },
        {
            "name": "NITZR3.30B",
            "runway": "RNW 30R RNW 30L",
            "fixes": {
                "NITZR": "NITZR AT OR ABOVE 12000 SPEED 280",
                "WRSAW": "WRSAW AT OR ABOVE 11000",
                "DAHRL": "DAHRL",
                "AANAH": "AANAH 10000 SPEED 250",
                "WBSTR": "WBSTR AT OR ABOVE 9000",
                "CANDD": "CANDD 7000 SPEED 230",
                "HAPTN": "HAPTN 7000 SPEED 210"
            }
        },
        {
            "name": "NITZR3.35",
            "runway": "RNW 35",
            "fixes": {
                "NITZR": "NITZR AT OR ABOVE 12000 SPEED 280",
                "WRSAW": "WRSAW AT OR ABOVE 11000",
                "DAHRL": "DAHRL",
                "SHILD": "SHILD 9000 SPEED 230",
                "GDNEE": "GDNEE",
                "NNEWW": "NNEWW 7000"
            }
        },
        {
            "name": "SKETR5.04",
            "runway": "RNW 04",
            "fixes": {
                "SKETR": "SKETR",
                "SHONN": "SHONN",
                "NORWD": "NORWD",
                "JAEDN": "JAEDN",
                "MONKY": "MONKY TRK 071 VECTORS"
            }
        },
        {
            "name": "SKETR5.12B",
            "runway": "RNW 12R RNW 12L",
            "fixes": {
                "SKETR": "SKETR",
                "SHONN": "SHONN",
                "NORWD": "NORWD",
                "JAEDN": "JAEDN",
                "MONKY": "MONKY TRK 071 VECTORS"
            }
        },
        {
            "name": "SKETR5.17",
            "runway": "RNW 17",
            "fixes": {
                "SKETR": "SKETR",
                "SHONN": "SHONN",
                "NORWD": "NORWD",
                "JAEDN": "JAEDN",
                "MONKY": "MONKY TRK 071 VECTORS"
            }
        },
        {
            "name": "SKETR5.22",
            "runway": "RNW 22",
            "fixes": {
                "SKETR": "SKETR",
                "SHONN": "SHONN",
                "NORWD": "NORWD",
                "JAEDN": "JAEDN",
                "MONKY": "MONKY TRK 071 VECTORS"
            }
        },
        {
            "name": "SKETR5.30B",
            "runway": "RNW 30R RNW 30L",
            "fixes": {
                "SKETR": "SKETR",
                "SHONN": "SHONN",
                "NORWD": "NORWD",
                "JAEDN": "JAEDN",
                "MONKY": "MONKY HDG 120 VECTORS"
            }
        },
        {
            "name": "SKETR5.35",
            "runway": "RNW 35",
            "fixes": {
                "SKETR": "SKETR",
                "SHONN": "SHONN",
                "NORWD": "NORWD",
                "JAEDN": "JAEDN",
                "MONKY": "MONKY",
                "CHYMP": "CHYMP HDG 170 VECTORS"
            }
        },
        {
            "name": "TORGY3.04",
            "runway": "RNW 04",
            "fixes": {
                "TORGY": "TORGY AT OR ABOVE 13000 SPEED 280",
                "OFSON": "OFSON AT OR ABOVE 11000",
                "HMBRG": "HMBRG",
                "CONIA": "CONIA",
                "JAEDN": "JAEDN AT OR ABOVE 10000 SPEED 250",
                "HDEEE": "HDEEE AT OR ABOVE 9000",
                "MAUER": "MAUER 8000 SPEED 210",
                "JJENI": "OVERFLY JJENI TRK 121 VECTORS"
            }
        },
        {
            "name": "TORGY3.12B",
            "runway": "RNW 12R RNW 12L",
            "fixes": {
                "TORGY": "TORGY AT OR ABOVE 13000 SPEED 280",
                "OFSON": "OFSON AT OR ABOVE 11000",
                "HMBRG": "HMBRG",
                "CONIA": "CONIA",
                "SPUKI": "SPUKI 7000 SPEED 230",
                "KRUGG": "KRUGG 7000 SPEED 210"
            }
        },
        {
            "name": "TORGY3.17",
            "runway": "RNW 17",
            "fixes": {
                "TORGY": "TORGY AT OR ABOVE 13000 SPEED 280",
                "OFSON": "OFSON AT OR ABOVE 11000",
                "HMBRG": "HMBRG",
                "CONIA": "CONIA",
                "JAEDN": "JAEDN AT OR ABOVE 10000 SPEED 250",
                "HDEEE": "HDEEE AT OR ABOVE 9000",
                "MAUER": "MAUER 8000 SPEED 210",
                "JJENI": "OVERFLY JJENI TRK 121 VECTORS"
            }
        },
        {
            "name": "TORGY3.22",
            "runway": "RNW 22",
            "fixes": {
                "TORGY": "TORGY AT OR ABOVE 13000 SPEED 280",
                "OFSON": "OFSON AT OR ABOVE 11000",
                "HMBRG": "HMBRG",
                "CONIA": "CONIA",
                "JAEDN": "JAEDN AT OR ABOVE 10000 SPEED 250",
                "HDEEE": "HDEEE AT OR ABOVE 9000",
                "MAUER": "MAUER 8000 SPEED 210",
                "JJENI": "OVERFLY JJENI TRK 121 VECTORS"
            }
        },
        {
            "name": "TORGY3.30L",
            "runway": "RNW 30L",
            "fixes": {
                "TORGY": "TORGY AT OR ABOVE 13000 SPEED 280",
                "OFSON": "OFSON AT OR ABOVE 11000",
                "HMBRG": "HMBRG",
                "CONIA": "CONIA",
                "JAEDN": "JAEDN AT OR ABOVE 10000 SPEED 250",
                "HDEEE": "HDEEE AT OR ABOVE 9000",
                "MAUER": "MAUER 8000 SPEED 210",
                "JJENI": "OVERFLY JJENI TRK 121 VECTORS"
            }
        },
        {
            "name": "TORGY3.30R",
            "runway": "RNW 30R",
            "fixes": {
                "TORGY": "TORGY AT OR ABOVE 13000 SPEED 280",
                "OFSON": "OFSON AT OR ABOVE 11000",
                "HMBRG": "HMBRG",
                "CONIA": "CONIA",
                "JAEDN": "JAEDN AT OR ABOVE 10000 SPEED 250",
                "HDEEE": "HDEEE AT OR ABOVE 9000",
                "OSMOH": "OSMOH 8000 SPEED 210",
                "IRRRV": "OVERFLY IRRRV TRK 122 VECTORS"
            }
        },
        {
            "name": "TORGY3.35",
            "runway": "RNW 35",
            "fixes": {
                "TORGY": "TORGY AT OR ABOVE 13000 SPEED 280",
                "OFSON": "OFSON AT OR ABOVE 11000",
                "HMBRG": "HMBRG",
                "CONIA": "CONIA",
                "JAEDN": "JAEDN AT OR ABOVE 10000 SPEED 250",
                "HDEEE": "HDEEE AT OR ABOVE 9000",
                "BRNVL": "BRNVL 8000 SPEED 210",
                "GWAIT": "OVERFLY GWAIT TRK 176 VECTORS"
            }
        }
    ],
    "approaches": [
        {
            "name": "ILS12L",
            "fixes": {
                "HAMML": "HAMML AT OR ABOVE 4000",
                "WASHY": "WASHY 3000 RNW 12L TRK 121 UNTIL 1300",
                "KANAC": "KANAC AT OR ABOVE 3000 HOLD AT KANAC RIGHT TURN INBOUNDCOURSE 276 LEGTIME 1 FAF WASHY MAP RNW 12L"
            },
            "transitions": [
                {
                    "name": "CCJAY",
                    "fixes": {
                        "CCJAY": "CCJAY",
                        "UBTYA": "UBTYA AT OR ABOVE 6000",
                        "ALGIN": "ALGIN AT OR ABOVE 5000"
                    }
                },
                {
                    "name": "KAYQU",
                    "fixes": {
                        "KAYQU": "KAYQU 7000 SPEED 210",
                        "SHUUT": "SHUUT AT OR ABOVE 5000"
                    }
                }
            ]
        },
        {
            "name": "ILS12R",
            "fixes": {
                "ZESTY": "ZESTY AT OR ABOVE 4000",
                "KINNS": "KINNS 3000 RNW 12R TRK 121 UNTIL 1300",
                "FGT": "FGT AT OR ABOVE 3000 HOLD AT FGT RIGHT TURN INBOUNDCOURSE 358 LEGTIME 1 FAF KINNS MAP RNW 12R"
            },
            "transitions": [
                {
                    "name": "KRUGG",
                    "fixes": {
                        "KRUGG": "KRUGG 7000 SPEED 210",
                        "EFEXX": "EFEXX AT OR ABOVE 6000"
                    }
                },
                {
                    "name": "PAETN",
                    "fixes": {
                        "PAETN": "PAETN",
                        "UTHNK": "UTHNK AT OR ABOVE 6000",
                        "WAYZA": "WAYZA AT OR ABOVE 5000"
                    }
                }
            ]
        },
        {
            "name": "ILS30L",
            "fixes": {
                "AABEZ": "AABEZ AT OR ABOVE 4000",
                "NARCO": "NARCO 3000 RNW 30L TRK 301 UNTIL 1300",
                "WOXEB": "WOXEB AT OR ABOVE 3000 HOLD AT WOXEB RIGHT TURN INBOUNDCOURSE 056 LEGTIME 1 FAF NARCO MAP RNW 30L"
            },
            "transitions": [
                {
                    "name": "GEEQU",
                    "fixes": {
                        "GEEQU": "GEEQU 7000 SPEED 210",
                        "PIGZI": "PIGZI AT OR ABOVE 5000"
                    }
                },
                {
                    "name": "HAPTN",
                    "fixes": {
                        "HAPTN": "HAPTN 7000 SPEED 210",
                        "DBLEM": "DBLEM AT OR ABOVE 6000"
                    }
                },
                {
                    "name": "HASTI",
                    "fixes": {
                        "HASTI": "HASTI AT OR ABOVE 7000",
                        "PINKE": "PINKE AT OR ABOVE 6000",
                        "PIGZI": "PIGZI AT OR ABOVE 5000"
                    }
                }
            ]
        },
        {
            "name": "ILS30R",
            "fixes": {
                "SAMMZ": "SAMMZ AT OR ABOVE 4000",
                "JACKO": "JACKO 3000 RNW 30R TRK 301 UNTIL 1300",
                "GEP": "GEP AT OR ABOVE 3000 HOLD AT GEP LEFT TURN INBOUNDCOURSE 117 LEGTIME 1 FAF JACKO MAP RNW 30R"
            },
            "transitions": [
                {
                    "name": "GEEQU",
                    "fixes": {
                        "GEEQU": "GEEQU 7000 SPEED 210"
                    }
                },
                {
                    "name": "GROVZ",
                    "fixes": {
                        "GROVZ": "GROVZ",
                        "WULAM": "WULAM AT OR ABOVE 6000",
                        "BONNA": "BONNA AT OR ABOVE 5000"
                    }
                },
                {
                    "name": "TRTEL",
                    "fixes": {
                        "TRTEL": "TRTEL 7000 SPEED 210",
                        "SOGGY": "SOGGY AT OR ABOVE 5000"
                    }
                }
            ]
        },
        {
            "name": "ILSZ35",
            "fixes": {
                "ROZEE": "ROZEE AT OR ABOVE 4000",
                "LORAH": "LORAH 3000 RNW 35 TRK 350 UNTIL 1600 TURN LEFT HDG 240 INTERCEPT RADIAL 182 TO",
                "LYDIA": "LYDIA LYDIA AT OR ABOVE 3000 HOLD AT LYDIA RIGHT TURN INBOUNDCOURSE 002 LEGTIME 1 FAF LORAH MAP RNW 35"
            },
            "transitions": [
                {
                    "name": "JAMEZ",
                    "fixes": {
                        "JAMEZ": "JAMEZ AT OR ABOVE 7000",
                        "OBERR": "OBERR AT OR ABOVE 6000",
                        "SSTAR": "SSTAR AT OR ABOVE 5000"
                    }
                },
                {
                    "name": "NNEWW",
                    "fixes": {
                        "NNEWW": "NNEWW 7000"
                    }
                }
            ]
        },
        {
            "name": "LOC04",
            "fixes": {
                "KETAM": "KETAM AT OR ABOVE 4000",
                "IGEPY": "IGEPY 2300 RNW 04 TRK 045 UNTIL 1500",
                "GEP": "GEP AT OR ABOVE 3000 HOLD AT GEP LEFT TURN INBOUNDCOURSE 117 LEGTIME 1 FAF IGEPY MAP RNW 04"
            },
            "transitions": [
                {
                    "name": "LYDIA",
                    "fixes": {
                        "LYDIA": "LYDIA HDG 000 INTERCEPT RADIAL 045 TO",
                        "KETAM": "KETAM"
                    }
                }
            ]
        },
        {
            "name": "LOC17",
            "fixes": {
                "ARJAE": "ARJAE AT OR ABOVE 4000",
                "CHETZ": "CHETZ 2800",
                "BOBEE": "BOBEE AT OR ABOVE 2100 RNW 17 TRK 170 UNTIL 1300",
                "FGT": "FGT AT OR ABOVE 3000 HOLD AT FGT RIGHT TURN INBOUNDCOURSE 358 LEGTIME 1 FAF CHETZ MAP RNW 17"
            },
            "transitions": [
                {
                    "name": "GEP",
                    "fixes": {
                        "GEP": "GEP"
                    }
                }
            ]
        },
        {
            "name": "LOC22",
            "fixes": {
                "CUSAC": "CUSAC AT OR ABOVE 4600",
                "SNELL": "SNELL 2600 RNW 22 HDG 225 INTERCEPT RADIAL 182 TO",
                "LYDIA": "LYDIA LYDIA AT OR ABOVE 3000 HOLD AT LYDIA RIGHT TURN INBOUNDCOURSE 002 LEGTIME 1 FAF SNELL MAP RNW 22"
            },
            "transitions": [
                {
                    "name": "WAGNR",
                    "fixes": {
                        "WAGNR": "WAGNR HDG 169 INTERCEPT RADIAL 225 TO",
                        "CUSAC": "CUSAC"
                    }
                }
            ]
        },
        {
            "name": "LOC35",
            "fixes": {
                "ROZEE": "ROZEE AT OR ABOVE 4000",
                "LORAH": "LORAH 3000",
                "HUCUM": "HUCUM AT OR ABOVE 1600 RNW 35 TRK 350 UNTIL 1600 TURN LEFT HDG 240 INTERCEPT RADIAL 182 TO",
                "LYDIA": "LYDIA LYDIA AT OR ABOVE 3000 HOLD AT LYDIA RIGHT TURN INBOUNDCOURSE 002 LEGTIME 1 FAF LORAH MAP RNW 35"
            },
            "transitions": [
                {
                    "name": "JAMEZ",
                    "fixes": {
                        "JAMEZ": "JAMEZ AT OR ABOVE 7000",
                        "OBERR": "OBERR AT OR ABOVE 6000",
                        "SSTAR": "SSTAR AT OR ABOVE 5000"
                    }
                },
                {
                    "name": "NNEWW",
                    "fixes": {
                        "NNEWW": "NNEWW 7000"
                    }
                }
            ]
        },
        {
            "name": "RNAV04",
            "fixes": {
                "KETAM": "KETAM AT OR ABOVE 4000",
                "IGEPY": "IGEPY 2300 RNW 04 TRK 045 UNTIL 1300",
                "GEP": "OVERFLY GEP AT OR ABOVE 3000 HOLD AT GEP LEFT TURN INBOUNDCOURSE 117 LEGDIST 4 FAF IGEPY MAP RNW 04"
            },
            "transitions": [
                {
                    "name": "LYDIA",
                    "fixes": {
                        "LYDIA": "LYDIA"
                    }
                }
            ]
        },
        {
            "name": "RNAV12LY",
            "fixes": {
                "WASHY": "WASHY 3000 RNW 12L TRK 121 UNTIL 1300",
                "KANAC": "OVERFLY KANAC AT OR ABOVE 3000 HOLD AT KANAC RIGHT TURN INBOUNDCOURSE 276 LEGDIST 4 FAF WASHY MAP RNW 12L"
            },
            "transitions": [
                {
                    "name": "CCJAY",
                    "fixes": {
                        "CCJAY": "CCJAY AT OR ABOVE 7000",
                        "UBTYA": "UBTYA AT OR ABOVE 6000",
                        "ALGIN": "ALGIN AT OR ABOVE 5000",
                        "HAMML": "HAMML AT OR ABOVE 4000"
                    }
                },
                {
                    "name": "CMMOE",
                    "fixes": {
                        "CMMOE": "CMMOE 8000 SPEED 230",
                        "FSCOT": "FSCOT AT OR ABOVE 7000 SPEED 210",
                        "INGLS": "INGLS AT OR ABOVE 6000",
                        "RF001": "RF001",
                        "RF002": "RF002",
                        "RF003": "RF003",
                        "GLDON": "GLDON AT OR ABOVE 4500"
                    }
                },
                {
                    "name": "KAYQU",
                    "fixes": {
                        "KAYQU": "KAYQU 7000 SPEED 210",
                        "SHUUT": "SHUUT AT OR ABOVE 5000",
                        "HAMML": "HAMML AT OR ABOVE 4000"
                    }
                }
            ]
        },
        {
            "name": "RNAV12LZ",
            "fixes": {
                "HAMML": "HAMML AT OR ABOVE 4000",
                "WASHY": "WASHY 3000",
                "AASUN": "AASUN AT OR ABOVE 1420 RNW 12L TRK 121 UNTIL 1300",
                "KANAC": "OVERFLY KANAC AT OR ABOVE 3000 HOLD AT KANAC RIGHT TURN INBOUNDCOURSE 276 LEGDIST 4 FAF WASHY MAP RNW 12L"
            },
            "transitions": [
                {
                    "name": "CCJAY",
                    "fixes": {
                        "CCJAY": "CCJAY",
                        "UBTYA": "UBTYA AT OR ABOVE 6000",
                        "ALGIN": "ALGIN AT OR ABOVE 5000"
                    }
                },
                {
                    "name": "KAYQU",
                    "fixes": {
                        "KAYQU": "KAYQU 7000 SPEED 210",
                        "SHUUT": "SHUUT AT OR ABOVE 5000"
                    }
                }
            ]
        },
        {
            "name": "RNAV12RY",
            "fixes": {
                "ZESTY": "ZESTY AT OR ABOVE 4000",
                "KINNS": "KINNS 3000 RNW 12R TRK 121 UNTIL 1300",
                "FGT": "OVERFLY FGT AT OR ABOVE 3000 HOLD AT FGT RIGHT TURN INBOUNDCOURSE 358 LEGDIST 4 FAF KINNS MAP RNW 12R"
            },
            "transitions": [
                {
                    "name": "GREAK",
                    "fixes": {
                        "GREAK": "GREAK 8000 SPEED 230",
                        "TIETN": "TIETN AT OR ABOVE 7500 SPEED 210",
                        "EEDDN": "EEDDN AT OR ABOVE 7000",
                        "RF004": "RF004",
                        "RF005": "RF005",
                        "RF006": "RF006",
                        "RF007": "RF007",
                        "KRLSN": "KRLSN AT OR ABOVE 4400"
                    }
                },
                {
                    "name": "KRUGG",
                    "fixes": {
                        "KRUGG": "KRUGG 7000 SPEED 210",
                        "EFEXX": "EFEXX AT OR ABOVE 6000",
                        "KRLSN": "KRLSN AT OR ABOVE 4400"
                    }
                },
                {
                    "name": "PAETN",
                    "fixes": {
                        "PAETN": "PAETN AT OR ABOVE 7000",
                        "UTHNK": "UTHNK AT OR ABOVE 6000",
                        "WAYZA": "WAYZA AT OR ABOVE 5000"
                    }
                }
            ]
        },
        {
            "name": "RNAV12RZ",
            "fixes": {
                "ZESTY": "ZESTY AT OR ABOVE 4000",
                "KINNS": "KINNS 3000",
                "WABBS": "WABBS AT OR ABOVE 1420 RNW 12R TRK 121 UNTIL 1300",
                "FGT": "OVERFLY FGT AT OR ABOVE 3000 HOLD AT FGT RIGHT TURN INBOUNDCOURSE 358 LEGDIST 4 FAF KINNS MAP RNW 12R"
            },
            "transitions": [
                {
                    "name": "KRUGG",
                    "fixes": {
                        "KRUGG": "KRUGG 7000 SPEED 210",
                        "EFEXX": "EFEXX AT OR ABOVE 6000"
                    }
                },
                {
                    "name": "PAETN",
                    "fixes": {
                        "PAETN": "PAETN",
                        "UTHNK": "UTHNK AT OR ABOVE 6000",
                        "WAYZA": "WAYZA AT OR ABOVE 5000"
                    }
                }
            ]
        },
        {
            "name": "RNAV22",
            "fixes": {
                "FATES": "FATES AT OR ABOVE 4000",
                "JALUN": "JALUN 2600 RNW 22 TRK 225 UNTIL 1190",
                "JOGTO": "JOGTO",
                "FGT": "OVERFLY FGT AT OR ABOVE 3000 HOLD AT FGT RIGHT TURN INBOUNDCOURSE 358 LEGDIST 4 FAF JALUN MAP RNW 22"
            },
            "transitions": [
                {
                    "name": "WHISK",
                    "fixes": {
                        "WHISK": "WHISK"
                    }
                }
            ]
        },
        {
            "name": "RNAV30LY",
            "fixes": {
                "AABEZ": "AABEZ AT OR ABOVE 4000",
                "NARCO": "NARCO 3000 RNW 30L",
                "WOXEB": "OVERFLY WOXEB AT OR ABOVE 3000 HOLD AT WOXEB RIGHT TURN INBOUNDCOURSE 056 LEGDIST 4 FAF NARCO MAP RNW 30L"
            },