{
    "fixes": [
        {
            "name": "BAARN",
            "lat": 40.29148611666667,
            "lon": 76.61132778333334
        },
        {
            "name": "BOBSS",
            "lat": 40.29493888333333,
            "lon": 76.75020278333334
        },
        {
            "name": "BZJNB",
            "lat": 40.43563888333333,
            "lon": 76.55302221666666
        },
        {
            "name": "CAMRU",
            "lat": 40.423152783333336,
            "lon": 76.586275
        },
        {
            "name": "DIPPY",
            "lat": 40.43117221666667,
            "lon": 76.51527778333333
        },
        {
            "name": "FALAS",
            "lat": 40.37331666666667,
            "lon": 76.65003888333334
        },
        {
            "name": "HWANG",
            "lat": 40.409055566666666,
            "lon": 76.3303
        },
        {
            "name": "PI001",
            "lat": 40.4220222,
            "lon": 76.43959673333333
        },
        {
            "name": "PI002",
            "lat": 40.36402948333333,
            "lon": 76.38431111666667
        },
        {
            "name": "PI003",
            "lat": 40.40489845,
            "lon": 76.29910105
        }
    ],
    "rnws": [
        "RNW 07",
        "RNW 25"
    ],
    "sids": [],
    "stars": [],
    "approaches": [
        {
            "name": "NDBA07",
            "fixes": {
                "DIPPY": "DIPPY 2000",
                "BZJNB": "BZJNB 1420 RNW 07 TRK 289 UNTIL 1420 HDG 160 UNTIL 2000 TURN LEFT DIRECT BZJNB AT OR ABOVE 3000 HOLD AT BZJNB LEFT TURN INBOUNDCOURSE 289 LEGTIME 1 FAF DIPPY MAP BZJ"
            },
            "transitions": [
                {
                    "name": "BZJ",
                    "fixes": {
                        "BZJNB": "BZJNB",
                        "DIPPY": "DIPPY AT OR ABOVE 3200",
                        "PI001": "PI001 AT OR ABOVE 3000 SPEED 210",
                        "PI002": "OVERFLY PI002 AT OR ABOVE 3000 SPEED 210",
                        "PI003": "PI003 AT OR ABOVE 3000 SPEED 210"
                    }
                },
                {
                    "name": "HWANG",
                    "fixes": {
                        "HWANG": "HWANG"
                    }
                }
            ]
        },
        {
            "name": "NDBA25",
            "fixes": {
                "DIPPY": "DIPPY 2000",
                "BZJNB": "BZJNB 1420 RNW 25 TRK 289 UNTIL 1420 HDG 160 UNTIL 2000 TURN LEFT DIRECT BZJNB AT OR ABOVE 3000 HOLD AT BZJNB LEFT TURN INBOUNDCOURSE 289 LEGTIME 1 FAF DIPPY MAP BZJ"
            },
            "transitions": [
                {
                    "name": "BZJ",
                    "fixes": {
                        "BZJNB": "BZJNB",
                        "DIPPY": "DIPPY AT OR ABOVE 3200",
                        "PI001": "PI001 AT OR ABOVE 3000 SPEED 210",
                        "PI002": "OVERFLY PI002 AT OR ABOVE 3000 SPEED 210",
                        "PI003": "PI003 AT OR ABOVE 3000 SPEED 210"
                    }
                },
                {
                    "name": "HWANG",
                    "fixes": {
                        "HWANG": "HWANG"
                    }
                }
            ]
        },
        {
            "name": "RNAVB07",
            "fixes": {
                "BOBSS": "BOBSS AT OR ABOVE 3000",
                "FALAS": "FALAS 2100",
                "CAMRU": "OVERFLY CAMRU 1420 RNW 07 TRK 054 UNTIL 1420 TURN RIGHT DIRECT",
                "BAARN": "OVERFLY BAARN AT OR ABOVE 3100 HOLD AT BAARN LEFT TURN INBOUNDCOURSE 220 LEGDIST 4 FAF FALAS MAP CAMRU"
            },
            "transitions": [
                {
                    "name": "BOBSS",
                    "fixes": {
                        "BOBSS": "BOBSS RIGHT TURN INBOUNDCOURSE 054 ALT 3000 LEGDIST 6"
                    }
                }
            ]
        },
        {
            "name": "RNAVB25",
            "fixes": {
                "BOBSS": "BOBSS AT OR ABOVE 3000",
                "FALAS": "FALAS 2100",
                "CAMRU": "OVERFLY CAMRU 1420 RNW 25 TRK 054 UNTIL 1420 TURN RIGHT DIRECT",
                "BAARN": "OVERFLY BAARN AT OR ABOVE 3100 HOLD AT BAARN LEFT TURN INBOUNDCOURSE 220 LEGDIST 4 FAF FALAS MAP CAMRU"
            },
            "transitions": [
                {
                    "name": "BOBSS",
                    "fixes": {
                        "BOBSS": "BOBSS RIGHT TURN INBOUNDCOURSE 054 ALT 3000 LEGDIST 6"
                    }
                }
            ]
        }
    ]
}