{
    "fixes": [
        {
            "name": "COVOJ",
            "lat": 41.73106666666666,
            "lon": 77.27964721666666
        },
        {
            "name": "ITEHO",
            "lat": 41.73131943333333,
            "lon": 77.269625
        },
        {
            "name": "MA036",
            "lat": 41.72566943333333,
            "lon": 77.39813056666667
        },
        {
            "name": "NOZVY",
            "lat": 41.73401943333333,
            "lon": 77.16746388333334
        },
        {
            "name": "ODPOJ",
            "lat": 41.721333333333334,
            "lon": 77.62398611666667
        },
        {
            "name": "PI001",
            "lat": 41.642380116666665,
            "lon": 77.45289433333333
        },
        {
            "name": "PI002",
            "lat": 41.57503081666667,
            "lon": 77.42012885
        },
        {
            "name": "PI003",
            "lat": 41.544163033333334,
            "lon": 77.51401578333333
        },
        {
            "name": "SFK",
            "lat": 41.69525278333333,
            "lon": 77.41990556666667
        },
        {
            "name": "WUDUL",
            "lat": 41.88306943333333,
            "lon": 77.23466666666667
        },
        {
            "name": "ZEGOK",
            "lat": 41.72458888333333,
            "lon": 77.51279166666667
        }
    ],
    "rnws": [
        "RNW 10",
        "RNW 11",
        "RNW 28",
        "RNW 29"
    ],
    "sids": [],
    "stars": [],
    "approaches": [
        {
            "name": "RNAV10",
            "fixes": {
                "ODPOJ": "ODPOJ AT OR ABOVE 4900",
                "ZEGOK": "ZEGOK 3400 RNW 10 TRK 099 UNTIL 2292",
                "ITEHO": "ITEHO",
                "WUDUL": "OVERFLY WUDUL AT OR ABOVE 4500 HOLD AT WUDUL RIGHT TURN INBOUNDCOURSE 047 LEGDIST 5 FAF ZEGOK MAP RNW 10"
            },
            "transitions": [
                {
                    "name": "ODPOJ",
                    "fixes": {
                        "ODPOJ": "ODPOJ RIGHT TURN INBOUNDCOURSE 099 ALT 4900 LEGDIST 5"
                    }
                }
            ]
        },
        {
            "name": "RNAV28",
            "fixes": {
                "NOZVY": "NOZVY AT OR ABOVE 4900",
                "COVOJ": "COVOJ 3500 RNW 28 TRK 279 UNTIL 2292 TURN RIGHT DIRECT",
                "WUDUL": "OVERFLY WUDUL AT OR ABOVE 4500 HOLD AT WUDUL RIGHT TURN INBOUNDCOURSE 047 LEGDIST 5 FAF COVOJ MAP RNW 28"
            },
            "transitions": [
                {
                    "name": "NOZVY",
                    "fixes": {
                        "NOZVY": "NOZVY RIGHT TURN INBOUNDCOURSE 279 ALT 4900 LEGDIST 5"
                    }
                }
            ]
        },
        {
            "name": "VORA10",
            "fixes": {
                "SFK": "SFK 3300 SFK AT OR ABOVE 4000 HOLD AT SFK RIGHT TURN INBOUNDCOURSE 036 LEGTIME 1 FAF SFK MAP MA036",
                "MA036": "MA036 2940 RNW 10 TRK 036 UNTIL 3500 TURN RIGHT DIRECT"
            },
            "transitions": [
                {
                    "name": "SFK",
                    "fixes": {
                        "PI001": "PI001 AT OR ABOVE 4100 SPEED 210",
                        "PI002": "OVERFLY PI002 AT OR ABOVE 4100 SPEED 210",
                        "PI003": "PI003 AT OR ABOVE 4100 SPEED 210"
                    }
                }
            ]
        },
        {
            "name": "VORA11",
            "fixes": {
                "SFK": "SFK 3300 SFK AT OR ABOVE 4000 HOLD AT SFK RIGHT TURN INBOUNDCOURSE 036 LEGTIME 1 FAF SFK MAP MA036",
                "MA036": "MA036 2940 RNW 11 TRK 036 UNTIL 3500 TURN RIGHT DIRECT"
            },
            "transitions": [
                {
                    "name": "SFK",
                    "fixes": {
                        "PI001": "PI001 AT OR ABOVE 4100 SPEED 210",
                        "PI002": "OVERFLY PI002 AT OR ABOVE 4100 SPEED 210",
                        "PI003": "PI003 AT OR ABOVE 4100 SPEED 210"
                    }
                }
            ]
        },
        {
            "name": "VORA28",
            "fixes": {
                "SFK": "SFK 3300 SFK AT OR ABOVE 4000 HOLD AT SFK RIGHT TURN INBOUNDCOURSE 036 LEGTIME 1 FAF SFK MAP MA036",
                "MA036": "MA036 2940 RNW 28 TRK 036 UNTIL 3500 TURN RIGHT DIRECT"
            },
            "transitions": [
                {
                    "name": "SFK",
                    "fixes": {
                        "PI001": "PI001 AT OR ABOVE 4100 SPEED 210",
                        "PI002": "OVERFLY PI002 AT OR ABOVE 4100 SPEED 210",
                        "PI003": "PI003 AT OR ABOVE 4100 SPEED 210"
                    }
                }
            ]
        },
        {
            "name": "VORA29",
            "fixes": {
                "SFK": "SFK 3300 SFK AT OR ABOVE 4000 HOLD AT SFK RIGHT TURN INBOUNDCOURSE 036 LEGTIME 1 FAF SFK MAP MA036",
                "MA036": "MA036 2940 RNW 29 TRK 036 UNTIL 3500 TURN RIGHT DIRECT"
            },
            "transitions": [
                {
                    "name": "SFK",
                    "fixes": {
                        "PI001": "PI001 AT OR ABOVE 4100 SPEED 210",
                        "PI002": "OVERFLY PI002 AT OR ABOVE 4100 SPEED 210",
                        "PI003": "PI003 AT OR ABOVE 4100 SPEED 210"
                    }
                }
            ]
        }
    ]
}