{
    "fixes": [
        {
            "name": "AF001",
            "lat": 32.81220765,
            "lon": 88.65021276666667
        },
        {
            "name": "AF002",
            "lat": 32.82427283333333,
            "lon": 88.59859428333333
        },
        {
            "name": "AF003",
            "lat": 32.717154816666664,
            "lon": 88.71622723333333
        },
        {
            "name": "AF004",
            "lat": 32.67512985,
            "lon": 88.75304163333334
        },
        {
            "name": "AGLEY",
            "lat": 32.518380566666664,
            "lon": 88.57526666666666
        },
        {
            "name": "BOYDD",
            "lat": 32.697938883333336,
            "lon": 88.34936666666667
        },
        {
            "name": "CUMLI",
            "lat": 32.67126666666667,
            "lon": 88.53144443333333
        },
        {
            "name": "D002O",
            "lat": 32.82883888333333,
            "lon": 88.54523056666666
        },
        {
            "name": "DAFFY",
            "lat": 32.82618611666667,
            "lon": 88.50224721666666
        },
        {
            "name": "HEPEN",
            "lat": 32.4941,
            "lon": 88.577825
        },
        {
            "name": "HERNI",
            "lat": 32.43719166666666,
            "lon": 88.58845278333334
        },
        {
            "name": "IGB",
            "lat": 33.485486116666664,
            "lon": 88.51358888333333
        },
        {
            "name": "JARAX",
            "lat": 32.767133333333334,
            "lon": 88.52666111666667
        },
        {
            "name": "JARMA",
            "lat": 32.42458611666667,
            "lon": 88.62216666666667
        },
        {
            "name": "JODOK",
            "lat": 32.27078611666666,
            "lon": 88.69884443333333
        },
        {
            "name": "JOLGI",
            "lat": 32.470719433333336,
            "lon": 88.59911388333333
        },
        {
            "name": "JOMPA",
            "lat": 32.34353888333333,
            "lon": 88.60591943333333
        },
        {
            "name": "KACET",
            "lat": 32.845494433333336,
            "lon": 88.55075556666667
        },
        {
            "name": "KEACH",
            "lat": 32.678525,
            "lon": 88.54729721666666
        },
        {
            "name": "MEI",
            "lat": 32.37843888333333,
            "lon": 88.80426666666666
        },
        {
            "name": "MGM",
            "lat": 32.22228056666667,
            "lon": 86.31972778333333
        },
        {
            "name": "MHZ",
            "lat": 32.434069433333335,
            "lon": 90.09977221666666
        },
        {
            "name": "MORTE",
            "lat": 32.661819433333335,
            "lon": 88.54695278333334
        },
        {
            "name": "NMM",
            "lat": 32.57833888333333,
            "lon": 88.54523056666666
        },
        {
            "name": "PIGMY",
            "lat": 32.97881111666667,
            "lon": 88.83095
        },
        {
            "name": "ROBNY",
            "lat": 32.68780556666667,
            "lon": 88.39618888333334
        },
        {
            "name": "RUCKS",
            "lat": 32.35008333333333,
            "lon": 88.59156111666667
        },
        {
            "name": "SIKUE",
            "lat": 32.516838883333335,
            "lon": 88.57603611666667
        },
        {
            "name": "SQS",
            "lat": 33.46385,
            "lon": 90.27735
        },
        {
            "name": "TOPNY",
            "lat": 32.67126388333333,
            "lon": 88.53145
        },
        {
            "name": "TORCU",
            "lat": 32.50146388333334,
            "lon": 88.58373056666667
        },
        {
            "name": "TURNL",
            "lat": 32.46441111666667,
            "lon": 88.58337221666666
        },
        {
            "name": "UBERY",
            "lat": 32.452227783333335,
            "lon": 88.41600833333334
        },
        {
            "name": "UBETY",
            "lat": 32.4784,
            "lon": 88.59526943333333
        },
        {
            "name": "VERNL",
            "lat": 32.393825,
            "lon": 88.637525
        },
        {
            "name": "VERTC",
            "lat": 32.59002778333333,
            "lon": 88.54547221666667
        },
        {
            "name": "VUZ",
            "lat": 33.67013333333333,
            "lon": 86.89983611666666
        },
        {
            "name": "WASIS",
            "lat": 32.493780566666665,
            "lon": 88.58757778333333
        },
        {
            "name": "WOMKU",
            "lat": 32.745308333333334,
            "lon": 88.54867778333333
        },
        {
            "name": "WUSAM",
            "lat": 32.62660556666667,
            "lon": 88.77501388333333
        },
        {
            "name": "YORTY",
            "lat": 32.721438883333335,
            "lon": 88.64698056666667
        },
        {
            "name": "ZALOP",
            "lat": 32.75005,
            "lon": 88.66736666666667
        },
        {
            "name": "ZIMGA",
            "lat": 32.79295833333333,
            "lon": 88.697975
        },
        {
            "name": "ZOOTS",
            "lat": 32.76514721666667,
            "lon": 88.51379166666666
        }
    ],
    "rnws": [
        "RNW 01L",
        "RNW 01R",
        "RNW 10",
        "RNW 19L",
        "RNW 19R",
        "RNW 28"
    ],
    "sids": [],
    "stars": [],
    "approaches": [
        {
            "name": "ILS19LW",
            "fixes": {
                "DAFFY": "DAFFY AT OR ABOVE 4000",
                "CUMLI": "CUMLI 2100 RNW 19L TRK 191 UNTIL 800",
                "UBERY": "UBERY AT OR ABOVE 2100 HOLD AT UBERY RIGHT TURN INBOUNDCOURSE 321 ALT 6000 SPEED 230 LEGDIST 5 FAF CUMLI MAP RNW 19L"
            },
            "transitions": [
                {
                    "name": "DAFFY",
                    "fixes": {
                        "DAFFY": "DAFFY RIGHT TURN INBOUNDCOURSE 190 ALT 4000 SPEED 230 LEGDIST 6"
                    }
                }
            ]
        },
        {
            "name": "ILS19LX",
            "fixes": {
                "DAFFY": "DAFFY AT OR ABOVE 4000",
                "CUMLI": "CUMLI 2100 RNW 19L TRK 191 UNTIL 800",
                "UBERY": "UBERY AT OR ABOVE 2100 HOLD AT UBERY RIGHT TURN INBOUNDCOURSE 321 ALT 6000 SPEED 230 LEGDIST 5 FAF CUMLI MAP RNW 19L"
            },
            "transitions": [
                {
                    "name": "IGB",
                    "fixes": {
                        "IGB": "IGB AT OR ABOVE 14000",
                        "PIGMY": "PIGMY AT OR ABOVE 14000",
                        "ZIMGA": "ZIMGA 6000",
                        "AF001": "AF001",
                        "AF002": "AF002",
                        "D002O": "D002O AT OR ABOVE 4000"
                    }
                },
                {
                    "name": "MGM",
                    "fixes": {
                        "MGM": "MGM AT OR ABOVE 14000",
                        "PIGMY": "PIGMY AT OR ABOVE 14000 HOLD AT PIGMY RIGHT TURN INBOUNDCOURSE 151 ALT 14000 SPEED 230 LEGDIST 8",
                        "ZIMGA": "ZIMGA 6000",
                        "AF001": "AF001",
                        "AF002": "AF002",
                        "D002O": "D002O AT OR ABOVE 4000"
                    }
                },
                {
                    "name": "MHZ",
                    "fixes": {
                        "MHZ": "MHZ AT OR ABOVE 14000",
                        "PIGMY": "PIGMY AT OR ABOVE 14000",
                        "ZIMGA": "ZIMGA 6000",
                        "AF001": "AF001",
                        "AF002": "AF002",
                        "D002O": "D002O AT OR ABOVE 4000"
                    }
                },
                {
                    "name": "SQS",
                    "fixes": {
                        "SQS": "SQS AT OR ABOVE 14000",
                        "PIGMY": "PIGMY AT OR ABOVE 14000",
                        "ZIMGA": "ZIMGA 6000",
                        "AF001": "AF001",
                        "AF002": "AF002",
                        "D002O": "D002O AT OR ABOVE 4000"
                    }
                },
                {
                    "name": "VUZ",
                    "fixes": {
                        "VUZ": "VUZ AT OR ABOVE 18000",
                        "PIGMY": "PIGMY AT OR ABOVE 14000",
                        "ZIMGA": "ZIMGA 6000",
                        "AF001": "AF001",
                        "AF002": "AF002",
                        "D002O": "D002O AT OR ABOVE 4000"
                    }
                }
            ]
        },
        {
            "name": "ILS19LY",
            "fixes": {
                "DAFFY": "DAFFY AT OR ABOVE 4000",
                "CUMLI": "CUMLI 2100 RNW 19L TRK 191 UNTIL 800",
                "UBERY": "UBERY AT OR ABOVE 2100 HOLD AT UBERY RIGHT TURN INBOUNDCOURSE 321 ALT 6000 SPEED 230 LEGDIST 5 FAF CUMLI MAP RNW 19L"
            },
            "transitions": [
                {
                    "name": "DAFFY",
                    "fixes": {
                        "DAFFY": "DAFFY RIGHT TURN INBOUNDCOURSE 190 ALT 4000 SPEED 230 LEGDIST 6"
                    }
                }
            ]
        },
        {
            "name": "ILS19LZ",
            "fixes": {
                "DAFFY": "DAFFY AT OR ABOVE 4000",
                "CUMLI": "CUMLI 2100 RNW 19L TRK 191 UNTIL 800",
                "UBERY": "UBERY AT OR ABOVE 2100 HOLD AT UBERY RIGHT TURN INBOUNDCOURSE 321 ALT 6000 SPEED 230 LEGDIST 5 FAF CUMLI MAP RNW 19L"
            },
            "transitions": [
                {
                    "name": "IGB",
                    "fixes": {
                        "IGB": "IGB AT OR ABOVE 14000",
                        "PIGMY": "PIGMY AT OR ABOVE 14000",
                        "ZIMGA": "ZIMGA 6000",
                        "AF001": "AF001",
                        "AF002": "AF002",
                        "D002O": "D002O AT OR ABOVE 4000"
                    }
                },
                {
                    "name": "MGM",
                    "fixes": {
                        "MGM": "MGM AT OR ABOVE 14000",
                        "PIGMY": "PIGMY AT OR ABOVE 14000 HOLD AT PIGMY RIGHT TURN INBOUNDCOURSE 151 ALT 14000 SPEED 230 LEGDIST 8",
                        "ZIMGA": "ZIMGA 6000",
                        "AF001": "AF001",
                        "AF002": "AF002",
                        "D002O": "D002O AT OR ABOVE 4000"
                    }
                },
                {
                    "name": "MHZ",
                    "fixes": {
                        "MHZ": "MHZ AT OR ABOVE 14000",
                        "PIGMY": "PIGMY AT OR ABOVE 14000",
                        "ZIMGA": "ZIMGA 6000",
                        "AF001": "AF001",
                        "AF002": "AF002",
                        "D002O": "D002O AT OR ABOVE 4000"
                    }
                },
                {
                    "name": "SQS",
                    "fixes": {
                        "SQS": "SQS AT OR ABOVE 14000",
                        "PIGMY": "PIGMY AT OR ABOVE 14000",
                        "ZIMGA": "ZIMGA 6000",
                        "AF001": "AF001",
                        "AF002": "AF002",
                        "D002O": "D002O AT OR ABOVE 4000"
                    }
                },
                {
                    "name": "VUZ",
                    "fixes": {
                        "VUZ": "VUZ AT OR ABOVE 18000",
                        "PIGMY": "PIGMY AT OR ABOVE 14000",
                        "ZIMGA": "ZIMGA 6000",
                        "AF001": "AF001",
                        "AF002": "AF002",
                        "D002O": "D002O AT OR ABOVE 4000"
                    }
                }
            ]
        },
        {
            "name": "RNAV01L",
            "fixes": {
                "JOMPA": "JOMPA AT OR ABOVE 2100",
                "HERNI": "HERNI 2100",
                "TURNL": "TURNL AT OR ABOVE 1500",
                "HEPEN": "HEPEN AT OR ABOVE 940 RNW 01L TRK 011 UNTIL 716",
                "JARAX": "OVERFLY JARAX AT OR ABOVE 2100 HOLD AT JARAX RIGHT TURN INBOUNDCOURSE 191 ALT 5000 SPEED 230 LEGDIST 5 FAF HERNI MAP RNW 01L"
            },
            "transitions": [
                {
                    "name": "BOYDD",
                    "fixes": {
                        "BOYDD": "BOYDD AT OR ABOVE 2100",
                        "JOMPA": "JOMPA AT OR ABOVE 2100 HOLD AT JOMPA RIGHT TURN INBOUNDCOURSE 011 ALT 2100 SPEED 230 LEGDIST 6"
                    }
                },
                {
                    "name": "MEI",
                    "fixes": {
                        "MEI": "MEI AT OR ABOVE 2100",
                        "JOMPA": "JOMPA AT OR ABOVE 2100 HOLD AT JOMPA RIGHT TURN INBOUNDCOURSE 011 ALT 2100 SPEED 230 LEGDIST 6"
                    }
                }
            ]
        },
        {
            "name": "RNAV19L",
            "fixes": {
                "ZOOTS": "ZOOTS AT OR ABOVE 2100",
                "TOPNY": "TOPNY 2100 RNW 19L TRK 191 UNTIL 716",
                "RUCKS": "OVERFLY RUCKS AT OR ABOVE 2100 HOLD AT RUCKS RIGHT TURN INBOUNDCOURSE 011 ALT 8000 SPEED 230 LEGDIST 6 FAF TOPNY MAP RNW 19L"
            },
            "transitions": [
                {
                    "name": "BOYDD",
                    "fixes": {
                        "BOYDD": "BOYDD AT OR ABOVE 2100",
                        "ZOOTS": "ZOOTS AT OR ABOVE 2100 HOLD AT ZOOTS RIGHT TURN INBOUNDCOURSE 191 ALT 2100 SPEED 230 LEGDIST 5"
                    }
                },
                {
                    "name": "MEI",
                    "fixes": {
                        "MEI": "MEI AT OR ABOVE 2100",
                        "ZOOTS": "ZOOTS AT OR ABOVE 2100 HOLD AT ZOOTS RIGHT TURN INBOUNDCOURSE 191 ALT 2100 SPEED 230 LEGDIST 5"
                    }
                }
            ]
        },
        {
            "name": "VOR01LY",
            "fixes": {
                "JODOK": "JODOK AT OR ABOVE 4000",
                "JARMA": "JARMA 2500",
                "JOLGI": "JOLGI AT OR ABOVE 1500",
                "WASIS": "WASIS AT OR ABOVE 1040",
                "AGLEY": "AGLEY 534 RNW 01L TRK 025 UNTIL 720",
                "NMM": "NMM",
                "ROBNY": "ROBNY AT OR ABOVE 2100 HOLD AT ROBNY RIGHT TURN INBOUNDCOURSE 231 ALT 6000 SPEED 230 LEGDIST 6 FAF JARMA MAP AGLEY"
            },
            "transitions": [
                {
                    "name": "JODOK",
                    "fixes": {
                        "JODOK": "JODOK RIGHT TURN INBOUNDCOURSE 025 ALT 4000 SPEED 230 LEGDIST 4"
                    }
                }
            ]
        },
        {
            "name": "VOR01LZ",
            "fixes": {
                "VERNL": "VERNL AT OR ABOVE 2100",
                "UBETY": "UBETY 1400",
                "TORCU": "TORCU AT OR ABOVE 900",
                "SIKUE": "SIKUE 582 RNW 01L",
                "NMM": "NMM",
                "ROBNY": "ROBNY AT OR ABOVE 2100 HOLD AT ROBNY RIGHT TURN INBOUNDCOURSE 231 ALT 6000 SPEED 230 LEGDIST 6 FAF UBETY MAP SIKUE"
            },
            "transitions": [
                {
                    "name": "IGB",
                    "fixes": {
                        "IGB": "IGB AT OR ABOVE 14000",
                        "PIGMY": "PIGMY AT OR ABOVE 14000",
                        "ZIMGA": "ZIMGA 6000",
                        "ZALOP": "ZALOP 4000",
                        "AF003": "AF003",
                        "AF004": "AF004",
                        "WUSAM": "WUSAM 4000"
                    }
                },
                {
                    "name": "MGM",
                    "fixes": {
                        "MGM": "MGM AT OR ABOVE 14000",
                        "PIGMY": "PIGMY AT OR ABOVE 14000 HOLD AT PIGMY RIGHT TURN INBOUNDCOURSE 151 ALT 14000 SPEED 230 LEGDIST 8",
                        "ZIMGA": "ZIMGA 6000",
                        "ZALOP": "ZALOP 4000",
                        "AF003": "AF003",
                        "AF004": "AF004",
                        "WUSAM": "WUSAM 4000"
                    }
                },
                {
                    "name": "MHZ",
                    "fixes": {
                        "MHZ": "MHZ AT OR ABOVE 14000",
                        "PIGMY": "PIGMY AT OR ABOVE 14000",
                        "ZIMGA": "ZIMGA 6000",
                        "ZALOP": "ZALOP 4000",
                        "AF003": "AF003",
                        "AF004": "AF004",
                        "WUSAM": "WUSAM 4000"
                    }
                },
                {
                    "name": "SQS",
                    "fixes": {
                        "SQS": "SQS AT OR ABOVE 14000",
                        "PIGMY": "PIGMY AT OR ABOVE 14000",
                        "ZIMGA": "ZIMGA 6000",
                        "ZALOP": "ZALOP 4000",
                        "AF003": "AF003",
                        "AF004": "AF004",
                        "WUSAM": "WUSAM 4000"
                    }
                },
                {
                    "name": "VUZ",
                    "fixes": {
                        "VUZ": "VUZ AT OR ABOVE 18000",
                        "PIGMY": "PIGMY AT OR ABOVE 14000",
                        "ZIMGA": "ZIMGA 6000",
                        "ZALOP": "ZALOP 4000",
                        "AF003": "AF003",
                        "AF004": "AF004",
                        "WUSAM": "WUSAM 4000"
                    }
                }
            ]
        },
        {
            "name": "VOR19LY",
            "fixes": {
                "KACET": "KACET 3600",
                "KEACH": "KEACH 2100",
                "VERTC": "OVERFLY VERTC 512 RNW 19L",
                "NMM": "NMM",
                "UBERY": "UBERY AT OR ABOVE 2100 HOLD AT UBERY RIGHT TURN INBOUNDCOURSE 321 ALT 6000 SPEED 230 LEGDIST 5 FAF KEACH MAP VERTC"
            },
            "transitions": [
                {
                    "name": "KACET",
                    "fixes": {
                        "KACET": "KACET RIGHT TURN INBOUNDCOURSE 181 ALT 3600 SPEED 230 LEGDIST 4"
                    }
                }
            ]
        },
        {
            "name": "VOR19LZ",
            "fixes": {
                "WOMKU": "WOMKU AT OR ABOVE 2700",
                "MORTE": "MORTE 1900",
                "VERTC": "VERTC 532 RNW 19L",
                "NMM": "NMM",
                "UBERY": "UBERY AT OR ABOVE 2100 HOLD AT UBERY RIGHT TURN INBOUNDCOURSE 321 ALT 6000 SPEED 230 LEGDIST 5 FAF MORTE MAP VERTC"
            },
            "transitions": [
                {
                    "name": "IGB",
                    "fixes": {
                        "IGB": "IGB AT OR ABOVE 14000",
                        "PIGMY": "PIGMY AT OR ABOVE 14000",
                        "ZIMGA": "ZIMGA 6000",
                        "YORTY": "YORTY 3000"
                    }
                },
                {
                    "name": "MGM",
                    "fixes": {
                        "MGM": "MGM AT OR ABOVE 14000",
                        "PIGMY": "PIGMY AT OR ABOVE 14000 HOLD AT PIGMY RIGHT TURN INBOUNDCOURSE 151 ALT 14000 SPEED 230 LEGDIST 8",
                        "ZIMGA": "ZIMGA 6000",
                        "YORTY": "YORTY 3000"
                    }
                },
                {
                    "name": "MHZ",
                    "fixes": {
                        "MHZ": "MHZ AT OR ABOVE 14000",
                        "PIGMY": "PIGMY AT OR ABOVE 14000",
                        "ZIMGA": "ZIMGA 6000",
                        "YORTY": "YORTY 3000"
                    }
                },
                {
                    "name": "SQS",
                    "fixes": {
                        "SQS": "SQS AT OR ABOVE 14000",
                        "PIGMY": "PIGMY AT OR ABOVE 14000",
                        "ZIMGA": "ZIMGA 6000",
                        "YORTY": "YORTY 3000"
                    }
                },
                {
                    "name": "VUZ",
                    "fixes": {
                        "VUZ": "VUZ AT OR ABOVE 18000",
                        "PIGMY": "PIGMY AT OR ABOVE 14000",
                        "ZIMGA": "ZIMGA 6000",
                        "YORTY": "YORTY 3000"
                    }
                }
            ]
        }
    ]
}