{
    "fixes": [
        {
            "name": "AF001",
            "lat": 48.340753033333336,
            "lon": 122.38676275
        },
        {
            "name": "AF002",
            "lat": 48.284001933333336,
            "lon": 122.40756058333334
        },
        {
            "name": "AF003",
            "lat": 48.234468533333335,
            "lon": 122.45406206666667
        },
        {
            "name": "AF004",
            "lat": 48.19715385,
            "lon": 122.52150683333333
        },
        {
            "name": "AF005",
            "lat": 48.17581608333333,
            "lon": 122.60306521666666
        },
        {
            "name": "AF006",
            "lat": 48.418097333333336,
            "lon": 122.40262868333333
        },
        {
            "name": "AF007",
            "lat": 48.478611683333334,
            "lon": 122.45788536666667
        },
        {
            "name": "AF008",
            "lat": 48.520689833333336,
            "lon": 122.54371801666667
        },
        {
            "name": "AF009",
            "lat": 48.1716626,
            "lon": 122.65459276666667
        },
        {
            "name": "AF010",
            "lat": 48.1929872,
            "lon": 122.79090178333334
        },
        {
            "name": "AF011",
            "lat": 48.25619435,
            "lon": 122.89402333333334
        },
        {
            "name": "AF012",
            "lat": 48.34500955,
            "lon": 122.9372485
        },
        {
            "name": "AF013",
            "lat": 48.43647155,
            "lon": 122.90908938333334
        },
        {
            "name": "AF014",
            "lat": 48.293442766666665,
            "lon": 122.92154208333334
        },
        {
            "name": "AF015",
            "lat": 48.234468533333335,
            "lon": 122.86951571666667
        },
        {
            "name": "AF016",
            "lat": 48.19224463333333,
            "lon": 122.78877598333334
        },
        {
            "name": "AF017",
            "lat": 48.45365328333333,
            "lon": 122.89449208333333
        },
        {
            "name": "AF018",
            "lat": 48.38434455,
            "lon": 122.93418513333333
        },
        {
            "name": "AF019",
            "lat": 48.31027078333334,
            "lon": 122.92925066666666
        },
        {
            "name": "AF020",
            "lat": 48.24354266666667,
            "lon": 122.8806774
        },
        {
            "name": "AF021",
            "lat": 48.195027333333336,
            "lon": 122.7965225
        },
        {
            "name": "BOCAT",
            "lat": 48.342225,
            "lon": 122.16242778333333
        },
        {
            "name": "CANUN",
            "lat": 48.197808333333334,
            "lon": 122.52064721666666
        },
        {
            "name": "CVV",
            "lat": 48.244694433333336,
            "lon": 122.72441666666667
        },
        {
            "name": "DARIN",
            "lat": 48.33204166666667,
            "lon": 121.81303333333334
        },
        {
            "name": "DIGGN",
            "lat": 47.947175,
            "lon": 122.76668888333333
        },
        {
            "name": "ELLEK",
            "lat": 48.44821666666667,
            "lon": 122.71561666666666
        },
        {
            "name": "EPH",
            "lat": 47.37791943333333,
            "lon": 119.42400278333334
        },
        {
            "name": "FAXUT",
            "lat": 48.40935278333333,
            "lon": 122.69316388333333
        },
        {
            "name": "FIDPO",
            "lat": 48.21116943333333,
            "lon": 122.55571388333334
        },
        {
            "name": "HIGET",
            "lat": 48.35221943333333,
            "lon": 122.25889721666667
        },
        {
            "name": "HQM",
            "lat": 46.947041666666664,
            "lon": 124.14926943333333
        },
        {
            "name": "JAVTO",
            "lat": 48.39894721666667,
            "lon": 122.39483888333334
        },
        {
            "name": "JISOS",
            "lat": 48.53788611666667,
            "lon": 122.64734721666667
        },
        {
            "name": "JOGIP",
            "lat": 48.34969443333333,
            "lon": 122.69330556666667
        },
        {
            "name": "JOVPO",
            "lat": 48.367375,
            "lon": 122.66895278333334
        },
        {
            "name": "JVOLK",
            "lat": 48.313225,
            "lon": 123.00824166666666
        },
        {
            "name": "KAMLE",
            "lat": 48.31030556666666,
            "lon": 122.92827221666667
        },
        {
            "name": "KASEY",
            "lat": 48.172725,
            "lon": 122.69041666666666
        },
        {
            "name": "KIGVE",
            "lat": 48.35393611666667,
            "lon": 122.61933333333333
        },
        {
            "name": "KOYED",
            "lat": 48.330666666666666,
            "lon": 122.8072
        },
        {
            "name": "LATRE",
            "lat": 48.26185556666667,
            "lon": 122.59164721666667
        },
        {
            "name": "LEDEY",
            "lat": 48.35135,
            "lon": 122.51195278333333
        },
        {
            "name": "LETEC",
            "lat": 48.48685833333333,
            "lon": 122.75182778333334
        },
        {
            "name": "LUPEZ",
            "lat": 48.50671666666667,
            "lon": 122.81595833333333
        },
        {
            "name": "MANKE",
            "lat": 48.269252783333336,
            "lon": 122.58469443333334
        },
        {
            "name": "MIGLE",
            "lat": 48.34821388333334,
            "lon": 122.38709443333333
        },
        {
            "name": "NAVOE",
            "lat": 48.329236116666664,
            "lon": 122.63863333333333
        },
        {
            "name": "NEDOE",
            "lat": 48.361,
            "lon": 122.93653333333333
        },
        {
            "name": "NICIT",
            "lat": 48.03029166666666,
            "lon": 122.42876111666666
        },
        {
            "name": "NUW",
            "lat": 48.354933333333335,
            "lon": 122.66178888333333
        },
        {
            "name": "OBAYA",
            "lat": 48.34560556666667,
            "lon": 122.28724443333333
        },
        {
            "name": "OCILA",
            "lat": 48.34427221666667,
            "lon": 122.23731388333333
        },
        {
            "name": "OMRAE",
            "lat": 48.34088333333333,
            "lon": 122.95727778333334
        },
        {
            "name": "ORCUS",
            "lat": 48.344316666666664,
            "lon": 123.12889166666666
        },
        {
            "name": "PAE",
            "lat": 47.91983333333334,
            "lon": 122.2778
        },
        {
            "name": "PEMRE",
            "lat": 48.362116666666665,
            "lon": 122.35522221666666
        },
        {
            "name": "SEA",
            "lat": 47.435372216666664,
            "lon": 122.30961666666667
        },
        {
            "name": "SOBEE",
            "lat": 48.53197778333333,
            "lon": 122.78414721666667
        },
        {
            "name": "TOCUY",
            "lat": 48.34798333333333,
            "lon": 122.76478056666667
        },
        {
            "name": "TOTKE",
            "lat": 48.35715278333333,
            "lon": 122.50436666666667
        },
        {
            "name": "UREAL",
            "lat": 48.171494433333336,
            "lon": 122.52778333333333
        },
        {
            "name": "WADPA",
            "lat": 48.111522216666664,
            "lon": 122.77461111666666
        },
        {
            "name": "WETLI",
            "lat": 48.52592778333333,
            "lon": 122.76062778333333
        },
        {
            "name": "YKM",
            "lat": 46.570244433333336,
            "lon": 120.44463611666667
        },
        {
            "name": "ZATAX",
            "lat": 48.346477783333334,
            "lon": 122.80650833333334
        },
        {
            "name": "ZONGU",
            "lat": 48.44255,
            "lon": 122.72015556666666
        }
    ],
    "rnws": [
        "RNW 07",
        "RNW 14",
        "RNW 25",
        "RNW 32"
    ],
    "sids": [
        {
            "name": "CVV5",
            "rnw": "25",
            "fixes": {
                "CVV": "CVV AT OR ABOVE 2000"
            },
            "sub_fixes": [],
            "transitions": [
                {
                    "name": "DIGGN",
                    "fixes": [
                        "DIGGN"
                    ]
                },
                {
                    "name": "PAE",
                    "fixes": [
                        "PAE"
                    ]
                }
            ]
        },
        {
            "name": "NASWI2",
            "rnw": "25",
            "fixes": {},
            "sub_fixes": [
                {
                    "rwy": "RNW 07",
                    "fixes": {
                        "RNW 07": "RNW 07 TRK 069 UNTIL 450 TRK 067 VECTORS"
                    }
                },
                {
                    "rwy": "RNW 14",
                    "fixes": {
                        "RNW 14": "RNW 14 TRK 137 INTERCEPT RADIAL 128 FROM",
                        "NUW": "NUW TRK 128 VECTORS"
                    }
                },
                {
                    "rwy": "RNW 25",
                    "fixes": {
                        "RNW 25": "RNW 25 TRK 249 INTERCEPT RADIAL 247 FROM",
                        "NUW": "NUW TRK 247 VECTORS"
                    }
                },
                {
                    "rwy": "RNW 32",
                    "fixes": {
                        "RNW 32": "RNW 32 TRK 317 UNTIL 450 TRK 317 UNTIL 2000 TRK 317 VECTORS"
                    }
                }
            ],
            "transitions": []
        }
    ],
    "stars": [],
    "approaches": [
        {
            "name": "ILS14",
            "fixes": {
                "LETEC": "LETEC AT OR ABOVE 2300 LETEC AT OR ABOVE 3000 HOLD AT LETEC RIGHT TURN INBOUNDCOURSE 137 ALT 6000 SPEED 230 LEGDIST 4 FAF ZONGU MAP RNW 14",
                "ZONGU": "ZONGU 1800 RNW 14 HDG 137 UNTIL 2000 TURN RIGHT DIRECT",
                "CVV": "CVV TURN RIGHT DIRECT"
            },
            "transitions": [
                {
                    "name": "CVV",
                    "fixes": {
                        "CVV": "CVV AT OR ABOVE 3000",
                        "LETEC": "LETEC AT OR ABOVE 3000 HOLD AT LETEC RIGHT TURN INBOUNDCOURSE 137 ALT 3000 SPEED 230 LEGDIST 4"
                    }
                },
                {
                    "name": "SOBEE",
                    "fixes": {
                        "SOBEE": "SOBEE AT OR ABOVE 2700"
                    }
                }
            ]
        },
        {
            "name": "RNAV07",
            "fixes": {
                "OMRAE": "OMRAE AT OR ABOVE 2700",
                "ZATAX": "ZATAX 1800 RNW 07 TRK 069 UNTIL 1500 TURN RIGHT DIRECT",
                "KASEY": "OVERFLY KASEY AT OR ABOVE 3000 SPEED 230 HOLD AT KASEY LEFT TURN INBOUNDCOURSE 348 ALT 3000 SPEED 230 LEGDIST 4 FAF ZATAX MAP RNW 07"
            },
            "transitions": [
                {
                    "name": "ORCUS",
                    "fixes": {
                        "ORCUS": "ORCUS AT OR ABOVE 4400"
                    }
                }
            ]
        },
        {
            "name": "RNAV14",
            "fixes": {
                "SOBEE": "SOBEE AT OR ABOVE 3500",
                "ZONGU": "ZONGU 1800 RNW 14 TRK 137 UNTIL 420",
                "FIDPO": "FIDPO SPEED 230",
                "WADPA": "OVERFLY WADPA AT OR ABOVE 3500 SPEED 230 HOLD AT WADPA LEFT TURN INBOUNDCOURSE 341 ALT 6500 SPEED 175 LEGDIST 4 FAF ZONGU MAP RNW 14"
            },
            "transitions": [
                {
                    "name": "SOBEE",
                    "fixes": {
                        "SOBEE": "SOBEE RIGHT TURN INBOUNDCOURSE 122 ALT 3500 SPEED 200 LEGDIST 4"
                    }
                },
                {
                    "name": "WADPA",
                    "fixes": {
                        "WADPA": "WADPA AT OR ABOVE 3500",
                        "SOBEE": "SOBEE AT OR ABOVE 3500 HOLD AT SOBEE RIGHT TURN INBOUNDCOURSE 122 ALT 3500 SPEED 200 LEGDIST 4"
                    }
                }
            ]
        },
        {
            "name": "RNAV25",
            "fixes": {
                "PEMRE": "PEMRE AT OR ABOVE 3000",
                "TOTKE": "TOTKE 1800 RNW 25 TRK 249 UNTIL 447",
                "TOCUY": "TOCUY",
                "NEDOE": "OVERFLY NEDOE AT OR ABOVE 3000 HOLD AT NEDOE LEFT TURN INBOUNDCOURSE 079 ALT 3000 LEGDIST 4 FAF TOTKE MAP RNW 25"
            },
            "transitions": [
                {
                    "name": "BOCAT",
                    "fixes": {
                        "BOCAT": "BOCAT AT OR ABOVE 5400",
                        "HIGET": "HIGET AT OR ABOVE 4300"
                    }
                }
            ]
        },
        {
            "name": "RNAV32",
            "fixes": {
                "UREAL": "UREAL AT OR ABOVE 2700",
                "LATRE": "LATRE 1800 RNW 32 TRK 317 UNTIL 1200",
                "JVOLK": "OVERFLY JVOLK AT OR ABOVE 2000 HOLD AT JVOLK LEFT TURN INBOUNDCOURSE 236 ALT 6000 SPEED 230 LEGDIST 4 FAF LATRE MAP RNW 32"
            },
            "transitions": [
                {
                    "name": "NICIT",
                    "fixes": {
                        "NICIT": "NICIT RIGHT TURN INBOUNDCOURSE 317 ALT 3500 SPEED 230 LEGDIST 4"
                    }
                }
            ]
        },
        {
            "name": "VORY07",
            "fixes": {
                "KAMLE": "KAMLE AT OR ABOVE 2400",
                "KOYED": "KOYED 1800",
                "JOGIP": "JOGIP 330 RNW 07",
                "JAVTO": "JAVTO AT OR ABOVE 3000",
                "AF001": "AF001",
                "AF002": "AF002",
                "AF003": "AF003",
                "AF004": "AF004",
                "AF005": "AF005",
                "KASEY": "KASEY HOLD AT KASEY LEFT TURN INBOUNDCOURSE 348 ALT 6000 SPEED 230 LEGDIST 4 FAF KOYED MAP JOGIP"
            },
            "transitions": [
                {
                    "name": "KASEY",
                    "fixes": {
                        "KASEY": "KASEY AT OR ABOVE 3000"
                    }
                }
            ]
        },
        {
            "name": "VORZ07",
            "fixes": {
                "KAMLE": "KAMLE AT OR ABOVE 3000",
                "KOYED": "KOYED 1800",
                "JOGIP": "OVERFLY JOGIP 330 RNW 07",
                "JAVTO": "JAVTO AT OR ABOVE 3000",
                "AF001": "AF001",
                "AF002": "AF002",
                "AF003": "AF003",
                "AF004": "AF004",
                "AF005": "AF005",
                "KASEY": "KASEY HOLD AT KASEY LEFT TURN INBOUNDCOURSE 348 ALT 6000 SPEED 230 LEGDIST 4 FAF KOYED MAP JOGIP"
            },
            "transitions": [
                {
                    "name": "EPH",
                    "fixes": {
                        "EPH": "EPH AT OR ABOVE 21000",
                        "DARIN": "DARIN AT OR ABOVE 21000",
                        "BOCAT": "BOCAT AT OR ABOVE 7000",
                        "OCILA": "OCILA AT OR ABOVE 4800",
                        "OBAYA": "OBAYA 4000",
                        "MIGLE": "MIGLE 4000",
                        "AF006": "AF006",
                        "AF007": "AF007",
                        "AF008": "AF008",
                        "JISOS": "JISOS 4000"
                    }
                },
                {
                    "name": "HQM",
                    "fixes": {
                        "HQM": "HQM AT OR ABOVE 21000",
                        "DARIN": "DARIN AT OR ABOVE 21000 HOLD AT DARIN RIGHT TURN INBOUNDCOURSE 254 ALT 21000 SPEED 310 LEGDIST 10",
                        "BOCAT": "BOCAT AT OR ABOVE 7000",
                        "OCILA": "OCILA AT OR ABOVE 4800",
                        "OBAYA": "OBAYA 4000",
                        "MIGLE": "MIGLE 4000",
                        "AF006": "AF006",
                        "AF007": "AF007",
                        "AF008": "AF008",
                        "JISOS": "JISOS 4000"
                    }
                },
                {
                    "name": "SEA",
                    "fixes": {
                        "SEA": "SEA AT OR ABOVE 21000",
                        "DARIN": "DARIN AT OR ABOVE 21000 HOLD AT DARIN RIGHT TURN INBOUNDCOURSE 254 ALT 21000 SPEED 310 LEGDIST 10",
                        "BOCAT": "BOCAT AT OR ABOVE 7000",
                        "OCILA": "OCILA AT OR ABOVE 4800",
                        "OBAYA": "OBAYA 4000",
                        "MIGLE": "MIGLE 4000",
                        "AF006": "AF006",
                        "AF007": "AF007",
                        "AF008": "AF008",
                        "JISOS": "JISOS 4000"
                    }
                },
                {
                    "name": "YKM",
                    "fixes": {
                        "YKM": "YKM AT OR ABOVE 21000",
                        "DARIN": "DARIN AT OR ABOVE 21000",
                        "BOCAT": "BOCAT AT OR ABOVE 7000",
                        "OCILA": "OCILA AT OR ABOVE 4800",
                        "OBAYA": "OBAYA 4000",
                        "MIGLE": "MIGLE 4000",
                        "AF006": "AF006",
                        "AF007": "AF007",
                        "AF008": "AF008",
                        "JISOS": "JISOS 4000"
                    }
                }
            ]
        },
        {
            "name": "VORY14",
            "fixes": {
                "WETLI": "WETLI AT OR ABOVE 3000",
                "ELLEK": "ELLEK 1800",
                "FAXUT": "FAXUT AT OR ABOVE 1020",
                "JOVPO": "JOVPO 220 RNW 14",
                "CANUN": "CANUN AT OR ABOVE 4000",
                "AF009": "AF009",
                "AF010": "AF010",
                "AF011": "AF011",
                "AF012": "AF012",
                "AF013": "AF013",
                "LUPEZ": "LUPEZ HOLD AT LUPEZ RIGHT TURN INBOUNDCOURSE 128 ALT 6000 SPEED 230 LEGDIST 4 FAF ELLEK MAP JOVPO"
            },
            "transitions": [
                {
                    "name": "CVV",
                    "fixes": {
                        "CVV": "CVV AT OR ABOVE 4000",
                        "LUPEZ": "LUPEZ AT OR ABOVE 4000"
                    }
                }
            ]
        },
        {
            "name": "VORZ14",
            "fixes": {
                "WETLI": "WETLI AT OR ABOVE 3000",
                "ELLEK": "ELLEK 1800",
                "FAXUT": "FAXUT AT OR ABOVE 1020",
                "JOVPO": "JOVPO 220 RNW 14",
                "CANUN": "CANUN AT OR ABOVE 4000",
                "AF009": "AF009",
                "AF010": "AF010",
                "AF011": "AF011",
                "AF012": "AF012",
                "AF013": "AF013",
                "LUPEZ": "LUPEZ AT OR ABOVE 4000 HOLD AT LUPEZ RIGHT TURN INBOUNDCOURSE 128 ALT 6000 SPEED 230 LEGDIST 4 FAF ELLEK MAP JOVPO"
            },
            "transitions": [
                {
                    "name": "EPH",
                    "fixes": {
                        "EPH": "EPH AT OR ABOVE 21000",
                        "DARIN": "DARIN AT OR ABOVE 21000",
                        "BOCAT": "BOCAT AT OR ABOVE 7000",
                        "OCILA": "OCILA AT OR ABOVE 4800",
                        "OBAYA": "OBAYA 4000",
                        "MIGLE": "MIGLE 4000",
                        "AF006": "AF006",
                        "AF007": "AF007",
                        "AF008": "AF008",
                        "JISOS": "JISOS 4000"
                    }
                },
                {
                    "name": "HQM",
                    "fixes": {
                        "HQM": "HQM AT OR ABOVE 21000",
                        "DARIN": "DARIN AT OR ABOVE 21000 HOLD AT DARIN RIGHT TURN INBOUNDCOURSE 254 ALT 21000 SPEED 310 LEGDIST 10",
                        "BOCAT": "BOCAT AT OR ABOVE 7000",
                        "OCILA": "OCILA AT OR ABOVE 4800",
                        "OBAYA": "OBAYA 4000",
                        "MIGLE": "MIGLE 4000",
                        "AF006": "AF006",
                        "AF007": "AF007",
                        "AF008": "AF008",
                        "JISOS": "JISOS 4000"
                    }
                },
                {
                    "name": "SEA",
                    "fixes": {
                        "SEA": "SEA AT OR ABOVE 21000",
                        "DARIN": "DARIN AT OR ABOVE 21000 HOLD AT DARIN RIGHT TURN INBOUNDCOURSE 254 ALT 21000 SPEED 310 LEGDIST 10",
                        "BOCAT": "BOCAT AT OR ABOVE 7000",
                        "OCILA": "OCILA AT OR ABOVE 4800",
                        "OBAYA": "OBAYA 4000",
                        "MIGLE": "MIGLE 4000",
                        "AF006": "AF006",
                        "AF007": "AF007",
                        "AF008": "AF008",
                        "JISOS": "JISOS 4000"
                    }
                },
                {
                    "name": "YKM",
                    "fixes": {
                        "YKM": "YKM AT OR ABOVE 21000",
                        "DARIN": "DARIN AT OR ABOVE 21000",
                        "BOCAT": "BOCAT AT OR ABOVE 7000",
                        "OCILA": "OCILA AT OR ABOVE 4800",
                        "OBAYA": "OBAYA 4000",
                        "MIGLE": "MIGLE 4000",
                        "AF006": "AF006",
                        "AF007": "AF007",
                        "AF008": "AF008",
                        "JISOS": "JISOS 4000"
                    }
                }
            ]
        },
        {
            "name": "VORY25",
            "fixes": {
                "MIGLE": "MIGLE AT OR ABOVE 3000",
                "LEDEY": "LEDEY 1800",
                "KIGVE": "KIGVE 357 RNW 25",
                "NEDOE": "NEDOE AT OR ABOVE 3000",
                "AF014": "AF014",
                "AF015": "AF015",
                "AF016": "AF016",
                "KASEY": "KASEY HOLD AT KASEY LEFT TURN INBOUNDCOURSE 348 ALT 6000 SPEED 230 LEGDIST 4 FAF LEDEY MAP KIGVE"
            },
            "transitions": [
                {
                    "name": "CVV",
                    "fixes": {
                        "CVV": "CVV AT OR ABOVE 3000",
                        "KASEY": "KASEY AT OR ABOVE 3000"
                    }
                }
            ]
        },
        {
            "name": "VORZ25",
            "fixes": {
                "MIGLE": "MIGLE AT OR ABOVE 3000",
                "LEDEY": "LEDEY 1800",
                "KIGVE": "KIGVE 357 RNW 25",
                "NEDOE": "NEDOE AT OR ABOVE 3000",
                "AF014": "AF014",
                "AF015": "AF015",
                "AF016": "AF016",
                "KASEY": "KASEY HOLD AT KASEY LEFT TURN INBOUNDCOURSE 348 ALT 6000 SPEED 230 LEGDIST 4 FAF LEDEY MAP KIGVE"
            },
            "transitions": [
                {
                    "name": "EPH",
                    "fixes": {
                        "EPH": "EPH AT OR ABOVE 21000",
                        "DARIN": "DARIN AT OR ABOVE 21000",
                        "BOCAT": "BOCAT AT OR ABOVE 7000",
                        "OCILA": "OCILA AT OR ABOVE 4800",
                        "OBAYA": "OBAYA 4000"
                    }
                },
                {
                    "name": "HQM",
                    "fixes": {
                        "HQM": "HQM AT OR ABOVE 21000",
                        "DARIN": "DARIN AT OR ABOVE 21000 HOLD AT DARIN RIGHT TURN INBOUNDCOURSE 254 ALT 21000 SPEED 310 LEGDIST 10",
                        "BOCAT": "BOCAT AT OR ABOVE 7000",
                        "OCILA": "OCILA AT OR ABOVE 4800",
                        "OBAYA": "OBAYA 4000"
                    }
                },
                {
                    "name": "SEA",
                    "fixes": {
                        "SEA": "SEA AT OR ABOVE 21000",
                        "DARIN": "DARIN AT OR ABOVE 21000",
                        "BOCAT": "BOCAT AT OR ABOVE 7000",
                        "OCILA": "OCILA AT OR ABOVE 4800",
                        "OBAYA": "OBAYA 4000"
                    }
                },
                {
                    "name": "YKM",
                    "fixes": {
                        "YKM": "YKM AT OR ABOVE 21000",
                        "DARIN": "DARIN AT OR ABOVE 21000",
                        "BOCAT": "BOCAT AT OR ABOVE 7000",
                        "OCILA": "OCILA AT OR ABOVE 4800",
                        "OBAYA": "OBAYA 4000"
                    }
                }
            ]
        },
        {
            "name": "VORY32",
            "fixes": {
                "CANUN": "CANUN AT OR ABOVE 1800",
                "MANKE": "MANKE 1800",
                "NAVOE": "NAVOE 389 RNW 32",
                "LUPEZ": "LUPEZ AT OR ABOVE 3000",
                "AF017": "AF017",
                "AF018": "AF018",
                "AF019": "AF019",
                "AF020": "AF020",
                "AF021": "AF021",
                "KASEY": "KASEY HOLD AT KASEY LEFT TURN INBOUNDCOURSE 348 ALT 6000 SPEED 230 LEGDIST 4 FAF MANKE MAP NAVOE"
            },
            "transitions": [
                {
                    "name": "CVV",
                    "fixes": {
                        "CVV": "CVV AT OR ABOVE 3000",
                        "KASEY": "KASEY AT OR ABOVE 3000"
                    }
                }
            ]
        },
        {
            "name": "VORZ32",
            "fixes": {
                "CANUN": "CANUN AT OR ABOVE 3000",
                "MANKE": "MANKE 1800",
                "NAVOE": "NAVOE 389 RNW 32",
                "LUPEZ": "LUPEZ AT OR ABOVE 3000",
                "AF017": "AF017",
                "AF018": "AF018",
                "AF019": "AF019",
                "AF020": "AF020",
                "AF021": "AF021",
                "KASEY": "KASEY HOLD AT KASEY LEFT TURN INBOUNDCOURSE 348 ALT 6000 LEGDIST 4 FAF MANKE MAP NAVOE"
            },
            "transitions": [
                {
                    "name": "EPH",
                    "fixes": {
                        "EPH": "EPH AT OR ABOVE 21000",
                        "DARIN": "DARIN AT OR ABOVE 21000",
                        "BOCAT": "BOCAT AT OR ABOVE 7000",
                        "OCILA": "OCILA AT OR ABOVE 4800",
                        "OBAYA": "OBAYA 4000",
                        "MIGLE": "MIGLE 4000"
                    }
                },
                {
                    "name": "HQM",
                    "fixes": {
                        "HQM": "HQM AT OR ABOVE 21000",
                        "DARIN": "DARIN AT OR ABOVE 21000 HOLD AT DARIN RIGHT TURN INBOUNDCOURSE 254 ALT 21000 SPEED 310 LEGDIST 10",
                        "BOCAT": "BOCAT AT OR ABOVE 7000",
                        "OCILA": "OCILA AT OR ABOVE 4800",
                        "OBAYA": "OBAYA 4000",
                        "MIGLE": "MIGLE 4000"
                    }
                },
                {
                    "name": "SEA",
                    "fixes": {
                        "SEA": "SEA AT OR ABOVE 21000",
                        "DARIN": "DARIN AT OR ABOVE 21000 HOLD AT DARIN RIGHT TURN INBOUNDCOURSE 254 ALT 21000 SPEED 310 LEGDIST 10",
                        "BOCAT": "BOCAT AT OR ABOVE 7000",
                        "OCILA": "OCILA AT OR ABOVE 4800",
                        "OBAYA": "OBAYA 4000",
                        "MIGLE": "MIGLE 4000"
                    }
                },
                {
                    "name": "YKM",
                    "fixes": {
                        "YKM": "YKM AT OR ABOVE 21000",
                        "DARIN": "DARIN AT OR ABOVE 21000",
                        "BOCAT": "BOCAT AT OR ABOVE 7000",
                        "OCILA": "OCILA AT OR ABOVE 4800",
                        "OBAYA": "OBAYA 4000",
                        "MIGLE": "MIGLE 4000"
                    }
                }
            ]
        }
    ]
}