{
    "fixes": [
        {
            "name": "ALB",
            "lat": 42.74728056666667,
            "lon": 73.80318333333334
        },
        {
            "name": "ATWAN",
            "lat": 41.73750833333333,
            "lon": 73.82063056666667
        },
        {
            "name": "AYETI",
            "lat": 38.48931388333333,
            "lon": 77.30940556666667
        },
        {
            "name": "BAF",
            "lat": 42.16195833333333,
            "lon": 72.7162
        },
        {
            "name": "BBONE",
            "lat": 38.625033333333334,
            "lon": 78.82383611666667
        },
        {
            "name": "BIGGO",
            "lat": 41.95580833333333,
            "lon": 73.06794166666667
        },
        {
            "name": "BINNS",
            "lat": 39.78506111666667,
            "lon": 77.01099443333334
        },
        {
            "name": "BOTLS",
            "lat": 40.91895556666667,
            "lon": 74.83021943333334
        },
        {
            "name": "BRV",
            "lat": 38.33625833333333,
            "lon": 77.35286666666667
        },
        {
            "name": "DAFIX",
            "lat": 39.914008333333335,
            "lon": 77.70021666666666
        },
        {
            "name": "DELRO",
            "lat": 39.965475,
            "lon": 76.62534443333334
        },
        {
            "name": "ESL",
            "lat": 39.22549166666667,
            "lon": 78.9895
        },
        {
            "name": "FALKO",
            "lat": 38.18519166666667,
            "lon": 77.44259166666667
        },
        {
            "name": "FILGA",
            "lat": 41.40781388333333,
            "lon": 74.02010278333333
        },
        {
            "name": "GANDE",
            "lat": 41.51018333333333,
            "lon": 73.81445278333334
        },
        {
            "name": "GRUBY",
            "lat": 38.20815833333333,
            "lon": 77.17397778333333
        },
        {
            "name": "HIKES",
            "lat": 40.382202783333334,
            "lon": 75.61525
        },
        {
            "name": "HUSEL",
            "lat": 39.16433333333333,
            "lon": 77.35766666666666
        },
        {
            "name": "HYPER",
            "lat": 39.683933333333336,
            "lon": 77.22509443333334
        },
        {
            "name": "JARAF",
            "lat": 40.51755,
            "lon": 77.87528333333333
        },
        {
            "name": "JENTA",
            "lat": 38.358997216666666,
            "lon": 77.34398888333334
        },
        {
            "name": "JETIS",
            "lat": 38.62679166666667,
            "lon": 78.18640278333334
        },
        {
            "name": "JETTZ",
            "lat": 40.659722216666665,
            "lon": 75.37888888333333
        },
        {
            "name": "JOANE",
            "lat": 40.04402221666667,
            "lon": 76.45594443333333
        },
        {
            "name": "KEAVR",
            "lat": 41.19117778333333,
            "lon": 74.24268333333333
        },
        {
            "name": "KNYG",
            "lat": 38.503625,
            "lon": 77.30503333333333
        },
        {
            "name": "LIRCH",
            "lat": 39.826766666666664,
            "lon": 76.92223056666667
        },
        {
            "name": "LLBEE",
            "lat": 38.58534721666667,
            "lon": 78.42651111666666
        },
        {
            "name": "LRP",
            "lat": 40.119975,
            "lon": 76.29129443333333
        },
        {
            "name": "LURAY",
            "lat": 38.59859443333333,
            "lon": 78.56673056666666
        },
        {
            "name": "MAAGS",
            "lat": 38.326711116666665,
            "lon": 77.37025278333333
        },
        {
            "name": "MAPEL",
            "lat": 39.506830566666665,
            "lon": 77.59676111666667
        },
        {
            "name": "MOWAT",
            "lat": 39.266,
            "lon": 77.36016666666667
        },
        {
            "name": "MXE",
            "lat": 39.91805,
            "lon": 75.67082221666666
        },
        {
            "name": "OVIEE",
            "lat": 39.742386116666665,
            "lon": 77.651025
        },
        {
            "name": "PARKE",
            "lat": 40.68318333333333,
            "lon": 75.07647778333333
        },
        {
            "name": "PEEJA",
            "lat": 38.40801388333333,
            "lon": 77.33111388333333
        },
        {
            "name": "POWLL",
            "lat": 38.408963883333335,
            "lon": 77.33637221666666
        },
        {
            "name": "PRIVO",
            "lat": 40.082936116666666,
            "lon": 77.74889166666667
        },
        {
            "name": "PSB",
            "lat": 40.91625833333333,
            "lon": 77.99271666666667
        },
        {
            "name": "RBV",
            "lat": 40.20240278333333,
            "lon": 74.495025
        },
        {
            "name": "SARAA",
            "lat": 40.439325,
            "lon": 75.88786111666667
        },
        {
            "name": "SEALZ",
            "lat": 38.423211116666664,
            "lon": 79.2906
        },
        {
            "name": "SIGBE",
            "lat": 39.410333333333334,
            "lon": 77.36366666666666
        },
        {
            "name": "TICON",
            "lat": 38.67933333333333,
            "lon": 77.36183333333334
        },
        {
            "name": "TIKEE",
            "lat": 38.618436116666665,
            "lon": 78.24879721666667
        },
        {
            "name": "TWEAK",
            "lat": 39.338219433333336,
            "lon": 77.36990556666667
        },
        {
            "name": "TWICH",
            "lat": 38.409533333333336,
            "lon": 77.33208333333333
        },
        {
            "name": "WILSS",
            "lat": 40.275975,
            "lon": 77.48631666666667
        },
        {
            "name": "YACKK",
            "lat": 38.908,
            "lon": 77.357
        },
        {
            "name": "YORKE",
            "lat": 41.806041666666665,
            "lon": 73.32058888333333
        }
    ],
    "rnws": [
        "RNW 02",
        "RNW 20"
    ],
    "sids": [],
    "stars": [
        {
            "name": "HYPER8",
            "runway": "RNW 02 RNW 20",
            "fixes": {
                "DELRO": "DELRO",
                "LIRCH": "LIRCH 14000",
                "BINNS": "BINNS",
                "HYPER": "HYPER 10000 SPEED 250",
                "SIGBE": "SIGBE 7000",
                "MOWAT": "MOWAT 5000",
                "HUSEL": "HUSEL 4000",
                "YACKK": "YACKK",
                "TICON": "OVERFLY TICON TRK 191 VECTORS"
            }
        },
        {
            "name": "PRIVO2",
            "runway": "RNW 02 RNW 20",
            "fixes": {
                "PRIVO": "PRIVO",
                "DAFIX": "DA",
                "OVIEE": "",
                "MAPEL": "OVIEE",
                "TWEAK": "MAPEL"
            }
        },
        {
            "name": "TIKEE4",
            "runway": "RNW 02 RNW 20",
            "fixes": {
                "TIKEE": "TIKEE",
                "JETIS": "OVERFLY JETIS HDG 090 VECTORS"
            }
        }
    ],
    "approaches": [
        {
            "name": "ILS02",
            "fixes": {
                "JENTA": "JENTA AT OR ABOVE 2000",
                "PEEJA": "PEEJA 1800 RNW 02 TRK 023 UNTIL 410 TURN RIGHT DIRECT",
                "BRV": "BRV AT OR ABOVE 2000",
                "MAAGS": "MAAGS HOLD AT MAAGS LEFT TURN INBOUNDCOURSE 064 ALT 4000 SPEED 230 LEGTIME 1 FAF PEEJA MAP RNW 02"
            },
            "transitions": [
                {
                    "name": "GRUBY",
                    "fixes": {
                        "GRUBY": "GRUBY AT OR ABOVE 3000",
                        "BRV": "BRV"
                    }
                },
                {
                    "name": "MAAGS",
                    "fixes": {
                        "MAAGS": "MAAGS AT OR ABOVE 2000",
                        "BRV": "BRV"
                    }
                }
            ]
        },
        {
            "name": "RNAV02",
            "fixes": {
                "BRV": "BRV AT OR ABOVE 2000 OVERFLY BRV AT OR ABOVE 2000 HOLD AT BRV LEFT TURN INBOUNDCOURSE 064 ALT 4000 SPEED 230 LEGDIST 4 FAF POWLL MAP RNW 02",
                "POWLL": "POWLL 1800 RNW 02 TRK 026 UNTIL 600 TURN RIGHT DIRECT"
            },
            "transitions": [
                {
                    "name": "BRV",
                    "fixes": {
                        "BRV": "BRV LEFT TURN INBOUNDCOURSE 064 ALT 2000 SPEED 230 LEGDIST 4"
                    }
                },
                {
                    "name": "FALKO",
                    "fixes": {
                        "FALKO": "FALKO AT OR ABOVE 2000"
                    }
                },
                {
                    "name": "GRUBY",
                    "fixes": {
                        "GRUBY": "GRUBY AT OR ABOVE 2000"
                    }
                }
            ]
        },
        {
            "name": "VOR02",
            "fixes": {
                "BRV": "BRV AT OR ABOVE 2000 BRV",
                "TWICH": "TWICH 1800",
                "AYETI": "AYETI 216 RNW 02 TRK 022 UNTIL 420 TURN RIGHT DIRECT",
                "MAAGS": "MAAGS AT OR ABOVE 2000 HOLD AT MAAGS LEFT TURN INBOUNDCOURSE 064 ALT 4000 SPEED 230 LEGTIME 1 FAF TWICH MAP AYETI"
            },
            "transitions": [
                {
                    "name": "GRUBY",
                    "fixes": {
                        "GRUBY": "GRUBY AT OR ABOVE 3000"
                    }
                },
                {
                    "name": "MAAGS",
                    "fixes": {
                        "MAAGS": "MAAGS AT OR ABOVE 2000"
                    }
                }
            ]
        }
    ]
}