{
    "fixes": [
        {
            "name": "AARGH",
            "lat": 34.89306943333333,
            "lon": 99.90773056666667
        },
        {
            "name": "BFV",
            "lat": 35.236944433333335,
            "lon": 99.20616666666666
        },
        {
            "name": "IZTAN",
            "lat": 34.616986116666666,
            "lon": 99.90895
        },
        {
            "name": "JAPUX",
            "lat": 34.480494433333334,
            "lon": 100.01838333333333
        },
        {
            "name": "JUMEK",
            "lat": 34.67994721666667,
            "lon": 99.52853056666666
        },
        {
            "name": "LOBIY",
            "lat": 35.03853333333333,
            "lon": 100.21465833333333
        },
        {
            "name": "LSLIE",
            "lat": 34.79869443333333,
            "lon": 99.90815556666666
        },
        {
            "name": "RUKEE",
            "lat": 34.92950833333333,
            "lon": 99.98436111666666
        },
        {
            "name": "SMOTE",
            "lat": 34.52514721666667,
            "lon": 99.90936388333333
        },
        {
            "name": "WILVO",
            "lat": 35.10725278333334,
            "lon": 99.47243056666667
        },
        {
            "name": "WUDPI",
            "lat": 35.242294433333335,
            "lon": 100.55964721666666
        }
    ],
    "rnws": [
        "RNW 18",
        "RNW 36"
    ],
    "sids": [],
    "stars": [],
    "approaches": [
        {
            "name": "RNAV18",
            "fixes": {
                "AARGH": "AARGH AT OR ABOVE 3600",
                "LSLIE": "LSLIE 3400 RNW 18 TRK 175 UNTIL 2060",
                "SMOTE": "OVERFLY SMOTE AT OR ABOVE 3700 HOLD AT SMOTE RIGHT TURN INBOUNDCOURSE 355 LEGDIST 4 FAF LSLIE MAP RNW 18"
            },
            "transitions": [
                {
                    "name": "BFV",
                    "fixes": {
                        "BFV": "BFV",
                        "WILVO": "WILVO AT OR ABOVE 3600"
                    }
                },
                {
                    "name": "JAPUX",
                    "fixes": {
                        "JAPUX": "JAPUX",
                        "AARGH": "OVERFLY AARGH AT OR ABOVE 3600 HOLD AT AARGH RIGHT TURN INBOUNDCOURSE 175 ALT 3600 LEGDIST 4"
                    }
                },
                {
                    "name": "JUMEK",
                    "fixes": {
                        "JUMEK": "JUMEK",
                        "AARGH": "OVERFLY AARGH AT OR ABOVE 3600 HOLD AT AARGH RIGHT TURN INBOUNDCOURSE 175 ALT 3600 LEGDIST 4"
                    }
                },
                {
                    "name": "WUDPI",
                    "fixes": {
                        "WUDPI": "WUDPI",
                        "LOBIY": "LOBIY AT OR ABOVE 4400",
                        "RUKEE": "RUKEE AT OR ABOVE 3700"
                    }
                }
            ]
        },
        {
            "name": "RNAV36",
            "fixes": {
                "SMOTE": "SMOTE AT OR ABOVE 3700",
                "IZTAN": "IZTAN 3300 RNW 36 TRK 355 UNTIL 2060",
                "AARGH": "OVERFLY AARGH AT OR ABOVE 3600 HOLD AT AARGH RIGHT TURN INBOUNDCOURSE 175 LEGDIST 4 FAF IZTAN MAP RNW 36"
            },
            "transitions": [
                {
                    "name": "SMOTE",
                    "fixes": {
                        "SMOTE": "SMOTE RIGHT TURN INBOUNDCOURSE 355 ALT 3700 LEGDIST 4"
                    }
                }
            ]
        }
    ]
}