{
    "fixes": [
        {
            "name": "AF001",
            "lat": 29.0012651,
            "lon": 82.05130626666667
        },
        {
            "name": "AF002",
            "lat": 28.969521816666667,
            "lon": 82.10525248333333
        },
        {
            "name": "AF003",
            "lat": 28.954717216666666,
            "lon": 82.30578098333334
        },
        {
            "name": "AF004",
            "lat": 28.94816725,
            "lon": 82.27568858333333
        },
        {
            "name": "AMBAC",
            "lat": 28.943436116666668,
            "lon": 82.31771943333334
        },
        {
            "name": "CUFJO",
            "lat": 29.361511116666666,
            "lon": 82.22331666666666
        },
        {
            "name": "CUMIB",
            "lat": 29.208458333333333,
            "lon": 82.22310278333333
        },
        {
            "name": "CUSAB",
            "lat": 29.030861116666667,
            "lon": 82.01878888333333
        },
        {
            "name": "D171N",
            "lat": 28.946416666666668,
            "lon": 82.18473888333334
        },
        {
            "name": "D188N",
            "lat": 28.945813883333333,
            "lon": 82.26335833333333
        },
        {
            "name": "FF36",
            "lat": 29.077702783333333,
            "lon": 82.21359166666667
        },
        {
            "name": "FIBUS",
            "lat": 29.078397216666666,
            "lon": 82.22292221666666
        },
        {
            "name": "JODON",
            "lat": 29.443980566666667,
            "lon": 82.250425
        },
        {
            "name": "LUGGY",
            "lat": 29.259547216666668,
            "lon": 82.223175
        },
        {
            "name": "NAKYA",
            "lat": 29.361375,
            "lon": 82.31868333333334
        },
        {
            "name": "NUCIS",
            "lat": 28.971677783333334,
            "lon": 82.35295278333334
        },
        {
            "name": "OCF",
            "lat": 29.177477783333334,
            "lon": 82.22633333333333
        },
        {
            "name": "PI001",
            "lat": 29.120030166666666,
            "lon": 82.21473826666667
        },
        {
            "name": "PI002",
            "lat": 29.061316066666667,
            "lon": 82.26176523333334
        },
        {
            "name": "PI003",
            "lat": 29.01333908333333,
            "lon": 82.19323888333334
        },
        {
            "name": "PI004",
            "lat": 29.020063883333332,
            "lon": 82.22292221666666
        },
        {
            "name": "PI005",
            "lat": 28.969375483333334,
            "lon": 82.16499878333333
        },
        {
            "name": "PI006",
            "lat": 28.91173055,
            "lon": 82.22292221666666
        },
        {
            "name": "SADEY",
            "lat": 28.884291666666666,
            "lon": 82.17358333333334
        },
        {
            "name": "SOWMU",
            "lat": 29.361577783333335,
            "lon": 82.12795
        },
        {
            "name": "TALZA",
            "lat": 28.943572216666666,
            "lon": 82.22273611666667
        },
        {
            "name": "TUCHO",
            "lat": 28.943641666666668,
            "lon": 82.12775278333334
        }
    ],
    "rnws": [
        "RNW 08",
        "RNW 18",
        "RNW 26",
        "RNW 36"
    ],
    "sids": [],
    "stars": [],
    "approaches": [
        {
            "name": "VORD36",
            "fixes": {
                "FF36": "FF36 1700 RNW 36",
                "OCF": "OVERFLY OCF",
                "JODON": "JODON AT OR ABOVE 2000 HOLD AT JODON RIGHT TURN INBOUNDCOURSE 175 LEGTIME 1 FAF FF36 MAP RNW 36"
            },
            "transitions": [
                {
                    "name": "OCF",
                    "fixes": {
                        "PI001": "PI001 AT OR ABOVE 1700 SPEED 210",
                        "PI002": "OVERFLY PI002 AT OR ABOVE 1700 SPEED 210",
                        "PI003": "PI003 AT OR ABOVE 1700 SPEED 210"
                    }
                }
            ]
        },
        {
            "name": "ILS36",
            "fixes": {
                "TALZA": "TALZA AT OR ABOVE 2000",
                "FIBUS": "FIBUS 1700 RNW 36 TRK 004 UNTIL 490",
                "JODON": "JODON AT OR ABOVE 2000 HOLD AT JODON RIGHT TURN INBOUNDCOURSE 175 LEGTIME 1 FAF FIBUS MAP RNW 36"
            },
            "transitions": [
                {
                    "name": "CUSAB",
                    "fixes": {
                        "CUSAB": "CUSAB",
                        "AF001": "AF001",
                        "AF002": "AF002",
                        "D171N": "D171N AT OR ABOVE 2000"
                    }
                },
                {
                    "name": "NUCIS",
                    "fixes": {
                        "NUCIS": "NUCIS",
                        "AF003": "AF003",
                        "AF004": "AF004",
                        "D188N": "D188N AT OR ABOVE 2000"
                    }
                },
                {
                    "name": "OCF",
                    "fixes": {
                        "OCF": "OCF",
                        "FIBUS": "FIBUS AT OR ABOVE 2000",
                        "PI004": "PI004 AT OR ABOVE 2000 SPEED 210",
                        "PI005": "OVERFLY PI005 AT OR ABOVE 2000 SPEED 210",
                        "PI006": "PI006 AT OR ABOVE 2000 SPEED 210"
                    }
                },
                {
                    "name": "SADEY",
                    "fixes": {
                        "SADEY": "SADEY HDG 300 INTERCEPT RADIAL 004 TO",
                        "TALZA": "TALZA"
                    }
                }
            ]
        },
        {
            "name": "RNAV18",
            "fixes": {
                "CUFJO": "CUFJO AT OR ABOVE 2100",
                "LUGGY": "LUGGY 1700",
                "CUMIB": "CUMIB AT OR ABOVE 700 RNW 18",
                "TALZA": "OVERFLY TALZA AT OR ABOVE 2000 HOLD AT TALZA RIGHT TURN INBOUNDCOURSE 004 LEGDIST 4 FAF LUGGY MAP RNW 18"
            },
            "transitions": [
                {
                    "name": "CUFJO",
                    "fixes": {
                        "CUFJO": "CUFJO LEFT TURN INBOUNDCOURSE 184 ALT 2100 LEGDIST 4"
                    }
                },
                {
                    "name": "NAKYA",
                    "fixes": {
                        "NAKYA": "NAKYA AT OR ABOVE 2500"
                    }
                },
                {
                    "name": "SOWMU",
                    "fixes": {
                        "SOWMU": "SOWMU AT OR ABOVE 2500"
                    }
                }
            ]
        },
        {
            "name": "RNAV36",
            "fixes": {
                "TALZA": "TALZA AT OR ABOVE 2000",
                "FIBUS": "FIBUS 1700 RNW 36",
                "CUFJO": "OVERFLY CUFJO AT OR ABOVE 2100 HOLD AT CUFJO LEFT TURN INBOUNDCOURSE 184 LEGDIST 4 FAF FIBUS MAP RNW 36"
            },
            "transitions": [
                {
                    "name": "AMBAC",
                    "fixes": {
                        "AMBAC": "AMBAC AT OR ABOVE 2500"
                    }
                },
                {
                    "name": "TALZA",
                    "fixes": {
                        "TALZA": "TALZA RIGHT TURN INBOUNDCOURSE 004 ALT 2000 LEGDIST 4"
                    }
                },
                {
                    "name": "TUCHO",
                    "fixes": {
                        "TUCHO": "TUCHO AT OR ABOVE 2500"
                    }
                }
            ]
        }
    ]
}