{
    "fixes": [
        {
            "name": "ACORI",
            "lat": 31.773155566666667,
            "lon": 85.85819721666667
        },
        {
            "name": "ADGAY",
            "lat": 25.869155566666667,
            "lon": 80.21499443333333
        },
        {
            "name": "AGERS",
            "lat": 26.376730566666666,
            "lon": 80.22775833333333
        },
        {
            "name": "ALNZO",
            "lat": 26.484397216666668,
            "lon": 80.56464166666666
        },
        {
            "name": "ALTNN",
            "lat": 26.706761116666666,
            "lon": 80.27090833333334
        },
        {
            "name": "ALYRA",
            "lat": 29.486475,
            "lon": 78.34272221666667
        },
        {
            "name": "AUSTI",
            "lat": 25.234877783333335,
            "lon": 80.44048333333333
        },
        {
            "name": "AYBID",
            "lat": 28.324911116666666,
            "lon": 79.26253056666667
        },
        {
            "name": "BAGGS",
            "lat": 27.134244433333333,
            "lon": 82.84088888333334
        },
        {
            "name": "BAIRN",
            "lat": 27.947880566666665,
            "lon": 81.11509721666667
        },
        {
            "name": "BANTY",
            "lat": 26.147077783333334,
            "lon": 80.979325
        },
        {
            "name": "BARBN",
            "lat": 26.070413883333334,
            "lon": 81.39689166666666
        },
        {
            "name": "BENNS",
            "lat": 27.225683333333333,
            "lon": 80.59410556666667
        },
        {
            "name": "BEPAC",
            "lat": 26.150163883333335,
            "lon": 80.15325556666667
        },
        {
            "name": "BHHIA",
            "lat": 25.87569166666667,
            "lon": 80.93563611666667
        },
        {
            "name": "BLAAK",
            "lat": 27.044280566666668,
            "lon": 81.33661111666666
        },
        {
            "name": "BLUFI",
            "lat": 26.89385,
            "lon": 79.83140556666666
        },
        {
            "name": "BNGOS",
            "lat": 26.512088883333334,
            "lon": 81.08400278333333
        },
        {
            "name": "BOBOE",
            "lat": 26.4802,
            "lon": 80.38478611666666
        },
        {
            "name": "BOGYY",
            "lat": 26.513925,
            "lon": 80.36707778333333
        },
        {
            "name": "BOHTZ",
            "lat": 25.926352783333332,
            "lon": 79.98925278333333
        },
        {
            "name": "BORDO",
            "lat": 24.000052783333334,
            "lon": 78.45886943333333
        },
        {
            "name": "BRBRA",
            "lat": 25.967286116666667,
            "lon": 80.45301943333334
        },
        {
            "name": "BRDMN",
            "lat": 27.40679443333333,
            "lon": 79.55852221666666
        },
        {
            "name": "BROMO",
            "lat": 28.010633333333335,
            "lon": 82.71735833333334
        },
        {
            "name": "BULZI",
            "lat": 30.373591666666666,
            "lon": 84.07624166666666
        },
        {
            "name": "CABLO",
            "lat": 30.774722216666667,
            "lon": 84.84
        },
        {
            "name": "CAMIX",
            "lat": 25.152272216666667,
            "lon": 78.15212221666667
        },
        {
            "name": "CANOA",
            "lat": 24.0,
            "lon": 83.05
        },
        {
            "name": "CARNU",
            "lat": 25.138369433333335,
            "lon": 81.32558888333334
        },
        {
            "name": "CEMDI",
            "lat": 25.941494433333332,
            "lon": 80.895325
        },
        {
            "name": "CHICK",
            "lat": 26.153775,
            "lon": 81.055975
        },
        {
            "name": "CHRCH",
            "lat": 28.969886116666668,
            "lon": 80.70933056666667
        },
        {
            "name": "CIPOD",
            "lat": 25.526705566666667,
            "lon": 78.76330833333333
        },
        {
            "name": "CIREX",
            "lat": 25.728402783333333,
            "lon": 79.29688888333334
        },
        {
            "name": "CITAG",
            "lat": 26.237036116666665,
            "lon": 81.77954166666666
        },
        {
            "name": "CLEFF",
            "lat": 27.000919433333333,
            "lon": 80.54396388333333
        },
        {
            "name": "COLAT",
            "lat": 27.257583333333333,
            "lon": 79.99953056666666
        },
        {
            "name": "COOFS",
            "lat": 25.871713883333335,
            "lon": 81.01042221666667
        },
        {
            "name": "COPIN",
            "lat": 27.62115,
            "lon": 80.13584443333333
        },
        {
            "name": "COREA",
            "lat": 26.635822216666668,
            "lon": 81.214525
        },
        {
            "name": "CUUDA",
            "lat": 26.383380566666666,
            "lon": 79.92264166666666
        },
        {
            "name": "DALOO",
            "lat": 27.210908333333332,
            "lon": 80.01359721666667
        },
        {
            "name": "DAVEC",
            "lat": 27.67832221666667,
            "lon": 80.48968611666666
        },
        {
            "name": "DEBRL",
            "lat": 29.296869433333335,
            "lon": 81.13413333333334
        },
        {
            "name": "DEFUN",
            "lat": 30.814241666666668,
            "lon": 86.13141388333334
        },
        {
            "name": "DEKAL",
            "lat": 25.85056111666667,
            "lon": 79.63135833333334
        },
        {
            "name": "DHP",
            "lat": 25.799963883333334,
            "lon": 80.34903611666667
        },
        {
            "name": "DOLIE",
            "lat": 27.285613883333333,
            "lon": 81.91004721666667
        },
        {
            "name": "DOPLY",
            "lat": 25.756663883333335,
            "lon": 79.28704721666666
        },
        {
            "name": "DORRL",
            "lat": 26.698325,
            "lon": 80.371775
        },
        {
            "name": "DRIER",
            "lat": 25.923122216666666,
            "lon": 80.932825
        },
        {
            "name": "DUCEN",
            "lat": 29.276063883333332,
            "lon": 81.32312221666666
        },
        {
            "name": "DUMDY",
            "lat": 26.128566666666668,
            "lon": 81.59898611666667
        },
        {
            "name": "DURRY",
            "lat": 26.729711116666667,
            "lon": 80.40256943333333
        },
        {
            "name": "DVALL",
            "lat": 25.514686116666667,
            "lon": 80.99895556666667
        },
        {
            "name": "EBAYY",
            "lat": 27.727833333333333,
            "lon": 80.50099721666666
        },
        {
            "name": "ELQUE",
            "lat": 25.270241666666667,
            "lon": 78.456275
        },
        {
            "name": "ENWOD",
            "lat": 27.090886116666667,
            "lon": 80.42934443333333
        },
        {
            "name": "EXACT",
            "lat": 26.758305566666667,
            "lon": 82.12767221666667
        },
        {
            "name": "EYW",
            "lat": 24.585877783333334,
            "lon": 81.800475
        },
        {
            "name": "FAMIN",
            "lat": 25.585625,
            "lon": 80.83835556666666
        },
        {
            "name": "FANUP",
            "lat": 25.645777783333333,
            "lon": 78.76638611666667
        },
        {
            "name": "FIROL",
            "lat": 26.640463883333332,
            "lon": 77.00895833333334
        },
        {
            "name": "FISHB",
            "lat": 25.852002783333333,
            "lon": 79.63386943333333
        },
        {
            "name": "FLL",
            "lat": 26.073938883333334,
            "lon": 80.16644166666667
        },
        {
            "name": "FLMGO",
            "lat": 26.911413883333335,
            "lon": 80.70051943333333
        },
        {
            "name": "FOLZZ",
            "lat": 26.288975,
            "lon": 79.34909721666666
        },
        {
            "name": "FORTL",
            "lat": 26.30938056666667,
            "lon": 81.35235
        },
        {
            "name": "FROGZ",
            "lat": 25.91317778333333,
            "lon": 81.037
        },
        {
            "name": "FRRDY",
            "lat": 25.999238883333334,
            "lon": 80.47356388333333
        },
        {
            "name": "FUNDI",
            "lat": 24.0,
            "lon": 81.01194443333333
        },
        {
            "name": "FUNNR",
            "lat": 27.634280566666668,
            "lon": 80.76447221666666
        },
        {
            "name": "GAWKS",
            "lat": 27.181494433333334,
            "lon": 83.08754721666666
        },
        {
            "name": "GAYTR",
            "lat": 25.785011116666666,
            "lon": 80.72887221666667
        },
        {
            "name": "GLADZ",
            "lat": 25.644777783333332,
            "lon": 81.24135833333334
        },
        {
            "name": "GNARL",
            "lat": 27.459788883333335,
            "lon": 81.80449443333333
        },
        {
            "name": "GOZZR",
            "lat": 27.285491666666665,
            "lon": 78.63321666666667
        },
        {
            "name": "GRACK",
            "lat": 24.704905566666667,
            "lon": 81.77051388333334
        },
        {
            "name": "HEATT",
            "lat": 26.490941666666668,
            "lon": 79.94614721666667
        },
        {
            "name": "HEYDR",
            "lat": 25.57706943333333,
            "lon": 78.44855
        },
        {
            "name": "HIBAC",
            "lat": 29.094063883333334,
            "lon": 79.56795833333334
        },
        {
            "name": "HIKTO",
            "lat": 27.069897216666668,
            "lon": 79.93179443333334
        },
        {
            "name": "HOLTT",
            "lat": 26.815236116666668,
            "lon": 79.74652221666666
        },
        {
            "name": "HONID",
            "lat": 31.647308333333335,
            "lon": 84.39516666666667
        },
        {
            "name": "HOWHS",
            "lat": 25.828822216666666,
            "lon": 80.08915833333333
        },
        {
            "name": "HULKY",
            "lat": 25.620588883333333,
            "lon": 80.95690278333333
        },
        {
            "name": "HURCN",
            "lat": 26.508172216666665,
            "lon": 80.84728333333334
        },
        {
            "name": "HUSIL",
            "lat": 25.674238883333334,
            "lon": 79.50279721666666
        },
        {
            "name": "HYLEA",
            "lat": 25.875755566666665,
            "lon": 80.22673888333334
        },
        {
            "name": "IKBIX",
            "lat": 24.0,
            "lon": 81.23333333333333
        },
        {
            "name": "IMAPY",
            "lat": 26.301141666666666,
            "lon": 80.03720833333334
        },
        {
            "name": "IPOKE",
            "lat": 30.843902783333334,
            "lon": 84.19301111666667
        },
        {
            "name": "IRRIS",
            "lat": 24.416133333333335,
            "lon": 78.45631388333334
        },
        {
            "name": "IZROZ",
            "lat": 25.922577783333335,
            "lon": 80.08005278333333
        },
        {
            "name": "JABOX",
            "lat": 24.167283333333334,
            "lon": 82.32548888333334
        },
        {
            "name": "JAMAS",
            "lat": 25.949636116666667,
            "lon": 81.12018056666666
        },
        {
            "name": "JAMEX",
            "lat": 25.769922216666668,
            "lon": 79.68701388333334
        },
        {
            "name": "JANUS",
            "lat": 26.094113883333332,
            "lon": 79.63351111666667
        },
        {
            "name": "JARNO",
            "lat": 25.997525,
            "lon": 80.44387221666666
        },
        {
            "name": "JASAG",
            "lat": 25.73156111666667,
            "lon": 79.16831666666667
        },
        {
            "name": "JEKER",
            "lat": 25.705830566666666,
            "lon": 79.04715833333333
        },
        {
            "name": "JEPSI",
            "lat": 25.987661116666665,
            "lon": 79.95240278333333
        },
        {
            "name": "JIPOD",
            "lat": 28.094886116666668,
            "lon": 80.32053333333333
        },
        {
            "name": "JITIL",
            "lat": 26.609544433333333,
            "lon": 77.68964443333333
        },
        {
            "name": "JOENZ",
            "lat": 26.402911116666665,
            "lon": 80.72004443333333
        },
        {
            "name": "JOLYN",
            "lat": 25.918083333333332,
            "lon": 80.175375
        },
        {
            "name": "JUNIX",
            "lat": 27.189811116666668,
            "lon": 79.62687221666667
        },
        {
            "name": "KAINS",
            "lat": 25.96305278333333,
            "lon": 80.09520278333333
        },
        {
            "name": "KARTR",
            "lat": 25.496044433333335,
            "lon": 81.51284443333333
        },
        {
            "name": "KENLL",
            "lat": 29.574541666666665,
            "lon": 81.12368333333333
        },
        {
            "name": "KERRA",
            "lat": 25.793319433333334,
            "lon": 80.94251111666667
        },
        {
            "name": "KLEET",
            "lat": 26.237158333333333,
            "lon": 81.77966388333333
        },
        {
            "name": "KOPF",
            "lat": 25.907416666666666,
            "lon": 80.27822221666666
        },
        {
            "name": "KPASA",
            "lat": 28.176111116666668,
            "lon": 81.9075
        },
        {
            "name": "KYAKS",
            "lat": 25.855280566666668,
            "lon": 79.62951943333333
        },
        {
            "name": "LEBUR",
            "lat": 27.630561116666666,
            "lon": 79.95546943333333
        },
        {
            "name": "LIFRR",
            "lat": 26.365897216666667,
            "lon": 80.35498333333334
        },
        {
            "name": "LOKKR",
            "lat": 26.269991666666666,
            "lon": 79.99544721666666
        },
        {
            "name": "LONNI",
            "lat": 26.383730566666667,
            "lon": 79.976525
        },
        {
            "name": "LULLS",
            "lat": 24.481066666666667,
            "lon": 81.96070833333333
        },
        {
            "name": "MACKL",
            "lat": 26.554430566666667,
            "lon": 79.84228888333334
        },
        {
            "name": "MAJIK",
            "lat": 29.807377783333333,
            "lon": 78.99189721666667
        },
        {
            "name": "MARCI",
            "lat": 25.891066666666667,
            "lon": 81.78399166666667
        },
        {
            "name": "MARCK",
            "lat": 26.105730566666665,
            "lon": 79.63802778333333
        },
        {
            "name": "MATLK",
            "lat": 27.826816666666666,
            "lon": 80.95118611666666
        },
        {
            "name": "MATNY",
            "lat": 26.530288883333334,
            "lon": 82.07433611666667
        },
        {
            "name": "MAXIM",
            "lat": 24.0,
            "lon": 82.51881388333334
        },
        {
            "name": "MAYNR",
            "lat": 24.81983333333333,
            "lon": 80.57612221666666
        },
        {
            "name": "MCLAW",
            "lat": 24.563611116666667,
            "lon": 81.01666666666667
        },
        {
            "name": "MENDL",
            "lat": 24.452561116666665,
            "lon": 78.67836943333333
        },
        {
            "name": "MERKS",
            "lat": 26.500358333333335,
            "lon": 81.23205833333333
        },
        {
            "name": "MLB",
            "lat": 28.105283333333333,
            "lon": 80.63533888333333
        },
        {
            "name": "MMART",
            "lat": 26.93936666666667,
            "lon": 80.36822778333334
        },
        {
            "name": "MRENO",
            "lat": 26.362508333333334,
            "lon": 80.92696111666666
        },
        {
            "name": "MTHNB",
            "lat": 24.711883333333333,
            "lon": 81.09531388333333
        },
        {
            "name": "MUNRO",
            "lat": 26.540013883333334,
            "lon": 79.01381666666667
        },
        {
            "name": "NICKI",
            "lat": 29.255608333333335,
            "lon": 83.34216666666667
        },
        {
            "name": "OKANE",
            "lat": 25.903222216666666,
            "lon": 80.48099166666667
        },
        {
            "name": "OLAHS",
            "lat": 25.839211116666668,
            "lon": 79.59946111666666
        },
        {
            "name": "ONEWY",
            "lat": 28.364905566666668,
            "lon": 81.05584443333333
        },
        {
            "name": "PADUS",
            "lat": 26.354008333333333,
            "lon": 79.10858333333333
        },
        {
            "name": "PALMZ",
            "lat": 25.923719433333332,
            "lon": 81.50925278333334
        },
        {
            "name": "PEACH",
            "lat": 25.429630566666667,
            "lon": 77.77301111666667
        },
        {
            "name": "PEAKY",
            "lat": 24.589922216666668,
            "lon": 81.14830833333333
        },
        {
            "name": "PERTS",
            "lat": 26.5618,
            "lon": 80.24678888333334
        },
        {
            "name": "PIE",
            "lat": 27.907763883333335,
            "lon": 82.68430833333333
        },
        {
            "name": "PLAID",
            "lat": 26.552033333333334,
            "lon": 79.61231666666667
        },
        {
            "name": "PLOWS",
            "lat": 26.915125,
            "lon": 82.44258888333333
        },
        {
            "name": "PLUMP",
            "lat": 27.880575,
            "lon": 79.40643333333334
        },
        {
            "name": "PRIVY",
            "lat": 25.888786116666665,
            "lon": 81.17213056666667
        },
        {
            "name": "PRMUS",
            "lat": 29.818241666666665,
            "lon": 81.12242778333334
        },
        {
            "name": "PRTAL",
            "lat": 25.858016666666668,
            "lon": 80.19520278333333
        },
        {
            "name": "PYREX",
            "lat": 25.222858333333335,
            "lon": 81.32177221666667
        },
        {
            "name": "PYROS",
            "lat": 27.337411116666665,
            "lon": 81.52294166666667
        },
        {
            "name": "RAJAY",
            "lat": 25.300772216666665,
            "lon": 78.185975
        },
        {
            "name": "REPEE",
            "lat": 26.570436116666666,
            "lon": 78.42468056666667
        },
        {
            "name": "RONQU",
            "lat": 27.367013883333332,
            "lon": 80.02274721666667
        },
        {
            "name": "ROSNE",
            "lat": 27.384441666666667,
            "lon": 80.03834443333334
        },
        {
            "name": "RSW",
            "lat": 26.529886116666667,
            "lon": 81.77576943333334
        },
        {
            "name": "RUTLG",
            "lat": 25.74165,
            "lon": 80.88817221666666
        },
        {
            "name": "SABEE",
            "lat": 27.087833333333332,
            "lon": 82.19148056666667
        },
        {
            "name": "SAZBO",
            "lat": 25.9083,
            "lon": 80.37804166666666
        },
        {
            "name": "SCURF",
            "lat": 27.531158333333334,
            "lon": 82.62291943333334
        },
        {
            "name": "SEAZY",
            "lat": 27.364977783333334,
            "lon": 80.55047221666666
        },
        {
            "name": "SERIF",
            "lat": 26.180416666666666,
            "lon": 80.05299166666667
        },
        {
            "name": "SHAQQ",
            "lat": 25.962777783333333,
            "lon": 83.50833333333334
        },
        {
            "name": "SLIPT",
            "lat": 24.454761116666667,
            "lon": 81.66456111666666
        },
        {
            "name": "SMELZ",
            "lat": 28.083055566666665,
            "lon": 82.10944443333334
        },
        {
            "name": "SNAGY",
            "lat": 29.60733056666667,
            "lon": 76.86427221666666
        },
        {
            "name": "SNAPY",
            "lat": 29.814213883333334,
            "lon": 83.70655833333333
        },
        {
            "name": "SOCKI",
            "lat": 25.630916666666668,
            "lon": 79.03693333333334
        },
        {
            "name": "SOFAR",
            "lat": 25.533325,
            "lon": 78.248025
        },
        {
            "name": "SPNER",
            "lat": 26.428811116666665,
            "lon": 80.02205556666667
        },
        {
            "name": "SRQ",
            "lat": 27.407016666666667,
            "lon": 82.56366111666667
        },
        {
            "name": "STOGY",
            "lat": 24.707913883333333,
            "lon": 81.17532778333333
        },
        {
            "name": "STYMY",
            "lat": 28.036736116666667,
            "lon": 81.15151943333333
        },
        {
            "name": "SUMRS",
            "lat": 28.711688883333334,
            "lon": 76.55849721666667
        },
        {
            "name": "SWABS",
            "lat": 25.778602783333334,
            "lon": 79.39120556666667
        },
        {
            "name": "TARPN",
            "lat": 26.517452783333333,
            "lon": 79.98088888333334
        },
        {
            "name": "THEUU",
            "lat": 27.050508333333333,
            "lon": 81.5085
        },
        {
            "name": "TOPPR",
            "lat": 27.126308333333334,
            "lon": 80.02526111666667
        },
        {
            "name": "TOWES",
            "lat": 25.996908333333334,
            "lon": 80.04068611666666
        },
        {
            "name": "TWNKL",
            "lat": 25.480297216666667,
            "lon": 81.085975
        },
        {
            "name": "UBUGY",
            "lat": 25.630041666666667,
            "lon": 78.69327778333333
        },
        {
            "name": "UZHER",
            "lat": 25.409594433333332,
            "lon": 78.45795278333334
        },
        {
            "name": "VKZ",
            "lat": 25.751902783333332,
            "lon": 80.15444443333334
        },
        {
            "name": "WANAR",
            "lat": 26.150994433333334,
            "lon": 80.34613611666667
        },
        {
            "name": "WAPOM",
            "lat": 27.321683333333333,
            "lon": 80.85598333333333
        },
        {
            "name": "WEBAB",
            "lat": 24.873488883333334,
            "lon": 78.45532778333333
        },
        {
            "name": "WEHOO",
            "lat": 26.700127783333333,
            "lon": 79.78286388333333
        },
        {
            "name": "WEVER",
            "lat": 25.552380566666667,
            "lon": 80.91363611666667
        },
        {
            "name": "WIDET",
            "lat": 27.682822216666665,
            "lon": 80.15142778333333
        },
        {
            "name": "WIGNA",
            "lat": 25.165527783333335,
            "lon": 81.71519443333334
        },
        {
            "name": "WILOX",
            "lat": 26.810188883333332,
            "lon": 79.82709166666666
        },
        {
            "name": "WIXED",
            "lat": 27.690238883333333,
            "lon": 80.49904443333334
        },
        {
            "name": "WOPNR",
            "lat": 30.626675,
            "lon": 81.07401111666667
        },
        {
            "name": "WUDIP",
            "lat": 26.001180566666665,
            "lon": 80.75401943333334
        },
        {
            "name": "ZBV",
            "lat": 25.704166666666666,
            "lon": 79.29444443333334
        },
        {
            "name": "ZERUG",
            "lat": 25.676488883333334,
            "lon": 78.90821943333333
        },
        {
            "name": "ZFP",
            "lat": 26.555347216666668,
            "lon": 78.69785
        },
        {
            "name": "ZIKNA",
            "lat": 25.954825,
            "lon": 80.367575
        },
        {
            "name": "ZOLTA",
            "lat": 25.911305566666666,
            "lon": 80.31635833333333
        },
        {
            "name": "ZQA",
            "lat": 25.025522216666666,
            "lon": 77.44643056666666
        }
    ],
    "rnws": [
        "RNW 09L",
        "RNW 09R",
        "RNW 12",
        "RNW 27L",
        "RNW 27R",
        "RNW 30"
    ],
    "sids": [
        {
            "name": "ALTNN1",
            "rnw": "16",
            "fixes": {
                "AGERS": "AGERS 5000",
                "PERTS": "PERTS",
                "ALTNN": "ALTNN"
            },
            "sub_fixes": [
                {
                    "rwy": "RNW 09L",
                    "fixes": {
                        "RNW 09L": "RNW 09L HDG 093 VECTORS"
                    }
                },
                {
                    "rwy": "RNW 09R",
                    "fixes": {
                        "RNW 09R": "RNW 09R HDG 093 VECTORS"
                    }
                },
                {
                    "rwy": "RNW 12",
                    "fixes": {
                        "RNW 12": "RNW 12 HDG 128 VECTORS"
                    }
                },
                {
                    "rwy": "RNW 27L",
                    "fixes": {
                        "RNW 27L": "RNW 27L HDG 273 VECTORS"
                    }
                },
                {
                    "rwy": "RNW 27R",
                    "fixes": {
                        "RNW 27R": "RNW 27R HDG 273 VECTORS"
                    }
                },
                {
                    "rwy": "RNW 30",
                    "fixes": {
                        "RNW 30": "RNW 30 HDG 308 VECTORS"
                    }
                }
            ],
            "transitions": [
                {
                    "name": "DUCEN",
                    "fixes": [
                        "MMART",
                        "ENWOD",
                        "SEAZY",
                        "DUCEN"
                    ]
                }
            ]
        },
        {
            "name": "BNGOS3",
            "rnw": "16",
            "fixes": {
                "MRENO": "MRENO 5000",
                "BNGOS": "BNGOS"
            },
            "sub_fixes": [
                {
                    "rwy": "RNW 09L",
                    "fixes": {
                        "RNW 09L": "RNW 09L HDG 093 VECTORS"
                    }
                },
                {
                    "rwy": "RNW 09R",
                    "fixes": {
                        "RNW 09R": "RNW 09R HDG 093 VECTORS"
                    }
                },
                {
                    "rwy": "RNW 12",
                    "fixes": {
                        "RNW 12": "RNW 12 HDG 128 VECTORS"
                    }
                },
                {
                    "rwy": "RNW 27L",
                    "fixes": {
                        "RNW 27L": "RNW 27L HDG 273 VECTORS"
                    }
                },
                {
                    "rwy": "RNW 27R",
                    "fixes": {
                        "RNW 27R": "RNW 27R HDG 273 VECTORS"
                    }
                },
                {
                    "rwy": "RNW 30",
                    "fixes": {
                        "RNW 30": "RNW 30 HDG 308 VECTORS"
                    }
                }
            ],
            "transitions": [
                {
                    "name": "COREA",
                    "fixes": [
                        "COREA"
                    ]
                },
                {
                    "name": "DOLIE",
                    "fixes": [
                        "COREA",
                        "DOLIE"
                    ]
                },
                {
                    "name": "MERKS",
                    "fixes": [
                        "MERKS"
                    ]
                }
            ]
        },
        {
            "name": "DORRL1",
            "rnw": "16",
            "fixes": {
                "LIFRR": "LIFRR 4000",
                "BOGYY": "BOGYY",
                "DORRL": "DORRL"
            },
            "sub_fixes": [
                {
                    "rwy": "RNW 09L",
                    "fixes": {
                        "RNW 09L": "RNW 09L HDG 093 VECTORS"
                    }
                },
                {
                    "rwy": "RNW 09R",
                    "fixes": {
                        "RNW 09R": "RNW 09R HDG 093 VECTORS"
                    }
                },
                {
                    "rwy": "RNW 12",
                    "fixes": {
                        "RNW 12": "RNW 12 HDG 128 VECTORS"
                    }
                },
                {
                    "rwy": "RNW 27L",
                    "fixes": {
                        "RNW 27L": "RNW 27L HDG 273 VECTORS"
                    }
                },
                {
                    "rwy": "RNW 27R",
                    "fixes": {
                        "RNW 27R": "RNW 27R HDG 273 VECTORS"
                    }
                },
                {
                    "rwy": "RNW 30",
                    "fixes": {
                        "RNW 30": "RNW 30 HDG 308 VECTORS"
                    }
                }
            ],
            "transitions": [
                {
                    "name": "MATLK",
                    "fixes": [
                        "BENNS",
                        "FUNNR",
                        "MATLK"
                    ]
                },
                {
                    "name": "ONEWY",
                    "fixes": [
                        "BENNS",
                        "FUNNR",
                        "ONEWY"
                    ]
                }
            ]
        },
        {
            "name": "FLMGO1",
            "rnw": "16",
            "fixes": {
                "ALNZO": "ALNZO 5000",
                "FLMGO": "FLMGO"
            },
            "sub_fixes": [
                {
                    "rwy": "RNW 09L",
                    "fixes": {
                        "RNW 09L": "RNW 09L HDG 093 VECTORS"
                    }
                },
                {
                    "rwy": "RNW 09R",
                    "fixes": {
                        "RNW 09R": "RNW 09R HDG 093 VECTORS"
                    }
                },
                {
                    "rwy": "RNW 12",
                    "fixes": {
                        "RNW 12": "RNW 12 HDG 128 VECTORS"
                    }
                },
                {
                    "rwy": "RNW 27L",
                    "fixes": {
                        "RNW 27L": "RNW 27L HDG 273 VECTORS"
                    }
                },
                {
                    "rwy": "RNW 27R",
                    "fixes": {
                        "RNW 27R": "RNW 27R HDG 273 VECTORS"
                    }
                },
                {
                    "rwy": "RNW 30",
                    "fixes": {
                        "RNW 30": "RNW 30 HDG 308 VECTORS"
                    }
                }
            ],
            "transitions": [
                {
                    "name": "STYMY",
                    "fixes": [
                        "WAPOM",
                        "STYMY"
                    ]
                },
                {
                    "name": "WAPOM",
                    "fixes": [
                        "WAPOM"
                    ]
                }
            ]
        },
        {
            "name": "FOLZZ2",
            "rnw": "16",
            "fixes": {
                "MARCK": "MARCK 5000",
                "FOLZZ": "FOLZZ"
            },
            "sub_fixes": [
                {
                    "rwy": "RNW 09L",
                    "fixes": {
                        "RNW 09L": "RNW 09L HDG 093 VECTORS"
                    }
                },
                {
                    "rwy": "RNW 09R",
                    "fixes": {
                        "RNW 09R": "RNW 09R HDG 093 VECTORS"
                    }
                },
                {
                    "rwy": "RNW 12",
                    "fixes": {
                        "RNW 12": "RNW 12 HDG 128 VECTORS"
                    }
                },
                {
                    "rwy": "RNW 27L",
                    "fixes": {
                        "RNW 27L": "RNW 27L HDG 273 VECTORS"
                    }
                },
                {
                    "rwy": "RNW 27R",
                    "fixes": {
                        "RNW 27R": "RNW 27R HDG 273 VECTORS"
                    }
                },
                {
                    "rwy": "RNW 30",
                    "fixes": {
                        "RNW 30": "RNW 30 HDG 308 VECTORS"
                    }
                }
            ],
            "transitions": [
                {
                    "name": "ALYRA",
                    "fixes": [
                        "GOZZR",
                        "ALYRA"
                    ]
                },
                {
                    "name": "GOZZR",
                    "fixes": [
                        "GOZZR"
                    ]
                },
                {
                    "name": "PADUS",
                    "fixes": [
                        "PADUS"
                    ]
                },
                {
                    "name": "SNAGY",
                    "fixes": [
                        "GOZZR",
                        "SNAGY"
                    ]
                },
                {
                    "name": "SUMRS",
                    "fixes": [
                        "GOZZR",
                        "SUMRS"
                    ]
                },
                {
                    "name": "ZFP",
                    "fixes": [
                        "ZFP"
                    ]
                }
            ]
        },
        {
            "name": "GLADZ2",
            "rnw": "16",
            "fixes": {
                "GAYTR": "GAYTR 5000",
                "RUTLG": "RUTLG",
                "GLADZ": "GLADZ"
            },
            "sub_fixes": [
                {
                    "rwy": "RNW 09L",
                    "fixes": {
                        "RNW 09L": "RNW 09L HDG 093 VECTORS"
                    }
                },
                {
                    "rwy": "RNW 09R",
                    "fixes": {
                        "RNW 09R": "RNW 09R HDG 093 VECTORS"
                    }
                },
                {
                    "rwy": "RNW 12",
                    "fixes": {
                        "RNW 12": "RNW 12 HDG 128 VECTORS"
                    }
                },
                {
                    "rwy": "RNW 27L",
                    "fixes": {
                        "RNW 27L": "RNW 27L HDG 273 VECTORS"
                    }
                },
                {
                    "rwy": "RNW 27R",
                    "fixes": {
                        "RNW 27R": "RNW 27R HDG 273 VECTORS"
                    }
                },
                {
                    "rwy": "RNW 30",
                    "fixes": {
                        "RNW 30": "RNW 30 HDG 308 VECTORS"
                    }
                }
            ],
            "transitions": [
                {
                    "name": "BAGGS",
                    "fixes": [
                        "MARCI",
                        "BAGGS"
                    ]
                },
                {
                    "name": "LULLS",
                    "fixes": [
                        "WIGNA",
                        "LULLS"
                    ]
                },
                {
                    "name": "SHAQQ",
                    "fixes": [
                        "MARCI",
                        "SHAQQ"
                    ]
                }
            ]
        },
        {
            "name": "HURCN3",
            "rnw": "16",
            "fixes": {
                "JOENZ": "JOENZ 5000",
                "HURCN": "HURCN"
            },
            "sub_fixes": [
                {
                    "rwy": "RNW 09L",
                    "fixes": {
                        "RNW 09L": "RNW 09L HDG 093 VECTORS"
                    }
                },
                {
                    "rwy": "RNW 09R",
                    "fixes": {
                        "RNW 09R": "RNW 09R HDG 093 VECTORS"
                    }
                },
                {
                    "rwy": "RNW 12",
                    "fixes": {
                        "RNW 12": "RNW 12 HDG 128 VECTORS"
                    }
                },
                {
                    "rwy": "RNW 27L",
                    "fixes": {
                        "RNW 27L": "RNW 27L HDG 273 VECTORS"
                    }
                },
                {
                    "rwy": "RNW 27R",
                    "fixes": {
                        "RNW 27R": "RNW 27R HDG 273 VECTORS"
                    }
                },
                {
                    "rwy": "RNW 30",
                    "fixes": {
                        "RNW 30": "RNW 30 HDG 308 VECTORS"
                    }
                }
            ],
            "transitions": [
                {
                    "name": "KPASA",
                    "fixes": [
                        "BLAAK",
                        "PYROS",
                        "KPASA"
                    ]
                },
                {
                    "name": "SMELZ",
                    "fixes": [
                        "THEUU",
                        "GNARL",
                        "SMELZ"
                    ]
                }
            ]
        },
        {
            "name": "HUSIL3",
            "rnw": "16",
            "fixes": {
                "JAMEX": "JAMEX AT OR ABOVE 5000",
                "HUSIL": "HUSIL"
            },
            "sub_fixes": [
                {
                    "rwy": "RNW 09L",
                    "fixes": {
                        "RNW 09L": "RNW 09L HDG 093 UNTIL 410 HDG 093 VECTORS"
                    }
                },
                {
                    "rwy": "RNW 09R",
                    "fixes": {
                        "RNW 09R": "RNW 09R HDG 093 UNTIL 410 HDG 093 VECTORS"
                    }
                },
                {
                    "rwy": "RNW 12",
                    "fixes": {
                        "RNW 12": "RNW 12 HDG 128 UNTIL 410 HDG 128 VECTORS"
                    }
                },
                {
                    "rwy": "RNW 27L",
                    "fixes": {
                        "RNW 27L": "RNW 27L HDG 273 UNTIL 410 HDG 273 VECTORS"
                    }
                },
                {
                    "rwy": "RNW 27R",
                    "fixes": {
                        "RNW 27R": "RNW 27R HDG 273 UNTIL 410 HDG 273 VECTORS"
                    }
                },
                {
                    "rwy": "RNW 30",
                    "fixes": {
                        "RNW 30": "RNW 30 HDG 308 UNTIL 410 HDG 308 VECTORS"
                    }
                }
            ],
            "transitions": [
                {
                    "name": "CAMIX",
                    "fixes": [
                        "ELQUE",
                        "CAMIX"
                    ]
                },
                {
                    "name": "RAJAY",
                    "fixes": [
                        "ELQUE",
                        "RAJAY"
                    ]
                }
            ]
        },
        {
            "name": "LIFRR1",
            "rnw": "16",
            "fixes": {
                "LIFRR": "LIFRR 4000",
                "BOBOE": "BOBOE"
            },
            "sub_fixes": [
                {
                    "rwy": "RNW 09L",
                    "fixes": {
                        "RNW 09L": "RNW 09L HDG 093 VECTORS"
                    }
                },
                {
                    "rwy": "RNW 09R",
                    "fixes": {
                        "RNW 09R": "RNW 09R HDG 093 VECTORS"
                    }
                },
                {
                    "rwy": "RNW 12",
                    "fixes": {
                        "RNW 12": "RNW 12 HDG 128 VECTORS"
                    }
                },
                {
                    "rwy": "RNW 27L",
                    "fixes": {
                        "RNW 27L": "RNW 27L HDG 273 VECTORS"
                    }
                },
                {
                    "rwy": "RNW 27R",
                    "fixes": {
                        "RNW 27R": "RNW 27R HDG 273 VECTORS"
                    }
                },
                {
                    "rwy": "RNW 30",
                    "fixes": {
                        "RNW 30": "RNW 30 HDG 308 VECTORS"
                    }
                }
            ],
            "transitions": [
                {
                    "name": "BAIRN",
                    "fixes": [
                        "DURRY",
                        "CLEFF",
                        "BAIRN"
                    ]
                },
                {
                    "name": "WIXED",
                    "fixes": [
                        "DURRY",
                        "CLEFF",
                        "WIXED"
                    ]
                }
            ]
        },
        {
            "name": "MAYNR1",
            "rnw": "09L",
            "fixes": {
                "AUSTI": "AUSTI 5000",
                "MAYNR": "MAYNR"
            },
            "sub_fixes": [],
            "transitions": [
                {
                    "name": "CANOA",
                    "fixes": [
                        "MCLAW",
                        "SLIPT",
                        "JABOX",
                        "CANOA"
                    ]
                },
                {
                    "name": "FUNDI",
                    "fixes": [
                        "MCLAW",
                        "FUNDI"
                    ]
                },
                {
                    "name": "MAXIM",
                    "fixes": [
                        "MCLAW",
                        "SLIPT",
                        "JABOX",
                        "MAXIM"
                    ]
                }
            ]
        }
    ],
    "stars": [
        {
            "name": "BHHIA3",
            "runway": "RNW 09L RNW 09R RNW 12 RNW 27L RNW 27R RNW 30",
            "fixes": {
                "BHHIA": "BHHIA 7000",
                "CEMDI": "OVERFLY CEMDI 7000 HDG 081 VECTORS"
            }
        },
        {
            "name": "BLUFI4",
            "runway": "RNW 09L RNW 09R RNW 12 RNW 27L RNW 27R RNW 30",
            "fixes": {
                "BLUFI": "BLUFI",
                "HEATT": "HEATT",
                "KAINS": "KAINS",
                "VKZ": "VKZ"
            }
        },
        {
            "name": "CUUDA2",
            "runway": "RNW 09L RNW 09R RNW 12 RNW 27L RNW 27R RNW 30",
            "fixes": {
                "CUUDA": "CUUDA 8000",
                "LOKKR": "LOKKR",
                "SERIF": "SERIF",
                "BEPAC": "BEPAC",
                "WANAR": "OVERFLY WANAR TRK 276 VECTORS"
            }
        },
        {
            "name": "DEKAL8",
            "runway": "RNW 09L RNW 09R RNW 12 RNW 27L RNW 27R RNW 30",
            "fixes": {
                "DEKAL": "DEKAL",
                "FLL": "FLL"
            }
        },
        {
            "name": "DVALL3",
            "runway": "RNW 09L RNW 09R RNW 12 RNW 27L RNW 27R RNW 30",
            "fixes": {
                "DVALL": "DVALL",
                "WEVER": "WEVER",
                "FAMIN": "FAMIN",
                "DHP": "DHP"
            }
        },
        {
            "name": "FORTL9",
            "runway": "RNW 09L RNW 09R RNW 12 RNW 27L RNW 27R RNW 30",
            "fixes": {
                "FORTL": "FORTL",
                "CHICK": "CHICK",
                "BANTY": "BANTY",
                "FLL": "FLL"
            }
        },
        {
            "name": "FROGZ3",
            "runway": "RNW 09L RNW 09R RNW 12 RNW 27L RNW 27R RNW 30",
            "fixes": {
                "FROGZ": "FROGZ",
                "DRIER": "OVERFLY DRIER 9000 HDG 085 VECTORS"
            }
        },
        {
            "name": "KYAKS3",
            "runway": "RNW 09L RNW 09R RNW 12 RNW 27L RNW 27R RNW 30",
            "fixes": {
                "KYAKS": "KYAKS",
                "JEPSI": "JEPSI",
                "FRRDY": "OVERFLY FRRDY 4000 TRK 278 VECTORS"
            }
        },
        {
            "name": "OLAHS3",
            "runway": "RNW 09L RNW 09R RNW 12 RNW 27L RNW 27R RNW 30",
            "fixes": {
                "OLAHS": "OLAHS",
                "FISHB": "FISHB 5000 SPEED 250",
                "JEPSI": "JEPSI",
                "FRRDY": "OVERFLY FRRDY 5000 HDG 276 VECTORS"
            }
        },
        {
            "name": "PALMZ2",
            "runway": "RNW 09L RNW 09R RNW 12 RNW 27L RNW 27R RNW 30",
            "fixes": {
                "PALMZ": "PALMZ",
                "PRIVY": "PRIVY",
                "COOFS": "COOFS",
                "DHP": "DHP"
            }
        },
        {
            "name": "TARPN3",
            "runway": "RNW 09L RNW 09R RNW 12 RNW 27L RNW 27R RNW 30",
            "fixes": {
                "TARPN": "TARPN",
                "SPNER": "SPNER",
                "IMAPY": "OVERFLY IMAPY TRK 191 VECTORS"
            }
        }
    ],
    "approaches": [
        {
            "name": "ILS09L",
            "fixes": {
                "OKANE": "OKANE AT OR ABOVE 1600",
                "SAZBO": "SAZBO 1600 RNW 09L HDG 093 INTERCEPT RADIAL 069 TO",
                "JANUS": "JANUS JANUS HOLD AT JANUS RIGHT TURN INBOUNDCOURSE 069 LEGTIME 1 FAF SAZBO MAP RNW 09L"
            },
            "transitions": []
        },
        {
            "name": "ILS12",
            "fixes": {
                "JARNO": "JARNO AT OR ABOVE 1700",
                "ZIKNA": "ZIKNA 1700 RNW 12 TRK 128 UNTIL 800 HDG 090 INTERCEPT RADIAL 069 TO",
                "JANUS": "JANUS JANUS HOLD AT JANUS RIGHT TURN INBOUNDCOURSE 069 LEGTIME 1 FAF ZIKNA MAP RNW 12"
            },
            "transitions": []
        },
        {
            "name": "ILS27R",
            "fixes": {
                "IZROZ": "IZROZ AT OR ABOVE 1700",
                "JOLYN": "JOLYN 1600 RNW 27R HDG 273 INTERCEPT RADIAL 335 TO",
                "BRBRA": "BRBRA BRBRA AT OR ABOVE 2000 HOLD AT BRBRA RIGHT TURN INBOUNDCOURSE 155 LEGTIME 1 FAF JOLYN MAP RNW 27R"
            },
            "transitions": []
        },
        {
            "name": "RNAV09L",
            "fixes": {
                "OKANE": "OKANE AT OR ABOVE 1600",
                "SAZBO": "SAZBO 1600",
                "ZOLTA": "ZOLTA AT OR ABOVE 520 RNW 09L TRK 093 UNTIL 257",
                "JOLYN": "JOLYN",
                "JANUS": "OVERFLY JANUS AT OR ABOVE 2000 HOLD AT JANUS RIGHT TURN INBOUNDCOURSE 060 LEGDIST 4 FAF SAZBO MAP RNW 09L"
            },
            "transitions": [
                {
                    "name": "OKANE",
                    "fixes": {
                        "OKANE": "OKANE LEFT TURN INBOUNDCOURSE 093 ALT 1600 LEGDIST 4"
                    }
                },
                {
                    "name": "WUDIP",
                    "fixes": {
                        "WUDIP": "WUDIP"
                    }
                }
            ]
        },
        {
            "name": "RNAV12",
            "fixes": {
                "JARNO": "JARNO AT OR ABOVE 1700",
                "ZIKNA": "ZIKNA 1700 RNW 12 TRK 128 UNTIL 208",
                "ADGAY": "ADGAY",
                "JANUS": "OVERFLY JANUS AT OR ABOVE 2000 HOLD AT JANUS RIGHT TURN INBOUNDCOURSE 060 LEGDIST 4 FAF ZIKNA MAP RNW 12"
            },
            "transitions": [
                {
                    "name": "WUDIP",
                    "fixes": {
                        "WUDIP": "WUDIP"
                    }
                }
            ]
        },
        {
            "name": "RNAV27R",
            "fixes": {
                "IZROZ": "IZROZ AT OR ABOVE 1700",
                "JOLYN": "JOLYN 1600 RNW 27R TRK 273 UNTIL 290",
                "SAZBO": "SAZBO",
                "BRBRA": "OVERFLY BRBRA AT OR ABOVE 2000 HOLD AT BRBRA RIGHT TURN INBOUNDCOURSE 154 LEGDIST 4 FAF JOLYN MAP RNW 27R"
            },
            "transitions": [
                {
                    "name": "LONNI",
                    "fixes": {
                        "LONNI": "LONNI",
                        "TOWES": "TOWES AT OR ABOVE 1700"
                    }
                }
            ]
        },
        {
            "name": "RNAV30",
            "fixes": {
                "HOWHS": "HOWHS AT OR ABOVE 3000 OVERFLY HOWHS AT OR ABOVE 3000 HOLD AT HOWHS RIGHT TURN INBOUNDCOURSE 293 ALT 3000 LEGDIST 4 FAF PRTAL MAP RNW 30",
                "PRTAL": "PRTAL 1600",
                "HYLEA": "HYLEA AT OR ABOVE 960 RNW 30 TRK 308 UNTIL 800 TURN RIGHT DIRECT"
            },
            "transitions": [
                {
                    "name": "BOHTZ",
                    "fixes": {
                        "BOHTZ": "BOHTZ"
                    }
                },
                {
                    "name": "HOWHS",
                    "fixes": {
                        "HOWHS": "HOWHS RIGHT TURN INBOUNDCOURSE 293 ALT 3000 LEGDIST 4"
                    }
                }
            ]
        }
    ]
}