{
    "fixes": [
        {
            "name": "AWALU",
            "lat": 48.083894433333334,
            "lon": 92.94697778333334
        },
        {
            "name": "GOVNY",
            "lat": 48.15829166666666,
            "lon": 93.04688611666667
        },
        {
            "name": "JOPEP",
            "lat": 47.957975,
            "lon": 92.77871388333334
        },
        {
            "name": "RAXUE",
            "lat": 48.328088883333336,
            "lon": 93.27095
        },
        {
            "name": "TOEGO",
            "lat": 47.69215,
            "lon": 92.91698611666666
        },
        {
            "name": "ZANBU",
            "lat": 48.04976666666666,
            "lon": 92.90128333333334
        },
        {
            "name": "ZUNNI",
            "lat": 48.081011116666666,
            "lon": 93.13229166666666
        }
    ],
    "rnws": [
        "RNW 13",
        "RNW 31"
    ],
    "sids": [],
    "stars": [],
    "approaches": [
        {
            "name": "RNAV13",
            "fixes": {
                "GOVNY": "GOVNY AT OR ABOVE 3000",
                "AWALU": "AWALU 3000",
                "ZANBU": "ZANBU AT OR ABOVE 2100 RNW 13 TRK 136 UNTIL 1680",
                "JOPEP": "JOPEP",
                "TOEGO": "OVERFLY TOEGO AT OR ABOVE 3600 HOLD AT TOEGO RIGHT TURN INBOUNDCOURSE 158 LEGDIST 4 FAF AWALU MAP RNW 13"
            },
            "transitions": [
                {
                    "name": "RAXUE",
                    "fixes": {
                        "RAXUE": "RAXUE"
                    }
                },
                {
                    "name": "ZUNNI",
                    "fixes": {
                        "ZUNNI": "ZUNNI",
                        "GOVNY": "OVERFLY GOVNY AT OR ABOVE 3000 HOLD AT GOVNY LEFT TURN INBOUNDCOURSE 136 ALT 3000 LEGDIST 4"
                    }
                }
            ]
        }
    ]
}