{
    "fixes": [
        {
            "name": "ALB",
            "lat": 42.74728056666667,
            "lon": 73.80318333333334
        },
        {
            "name": "AUDIL",
            "lat": 42.87187221666667,
            "lon": 76.443075
        },
        {
            "name": "BAF",
            "lat": 42.16195833333333,
            "lon": 72.7162
        },
        {
            "name": "BOSOX",
            "lat": 42.201886116666664,
            "lon": 71.62767778333334
        },
        {
            "name": "CAM",
            "lat": 42.99428888333333,
            "lon": 73.34401943333333
        },
        {
            "name": "CANAN",
            "lat": 42.492838883333334,
            "lon": 73.44668611666667
        },
        {
            "name": "CFLSR",
            "lat": 42.25783611666667,
            "lon": 71.70353611666667
        },
        {
            "name": "DEWEE",
            "lat": 42.25328056666667,
            "lon": 71.61581388333333
        },
        {
            "name": "GDM",
            "lat": 42.54592221666667,
            "lon": 72.05818888333333
        },
        {
            "name": "GRAYM",
            "lat": 42.10118611666667,
            "lon": 72.031525
        },
        {
            "name": "GRIPE",
            "lat": 42.13579721666667,
            "lon": 71.90901943333333
        },
        {
            "name": "HNK",
            "lat": 42.06305833333333,
            "lon": 75.31628333333333
        },
        {
            "name": "LAWRN",
            "lat": 42.20325,
            "lon": 71.82613056666666
        },
        {
            "name": "MOLDS",
            "lat": 42.208586116666666,
            "lon": 73.05371943333333
        },
        {
            "name": "PAMLA",
            "lat": 42.13642778333333,
            "lon": 71.71215278333334
        },
        {
            "name": "PUT",
            "lat": 41.95546111666667,
            "lon": 71.84409443333334
        },
        {
            "name": "RILOC",
            "lat": 42.27345,
            "lon": 72.01493056666666
        },
        {
            "name": "RKA",
            "lat": 42.46633056666667,
            "lon": 75.23922778333333
        },
        {
            "name": "SHIGY",
            "lat": 42.399430566666666,
            "lon": 73.31693888333334
        },
        {
            "name": "SLOWW",
            "lat": 42.210541666666664,
            "lon": 71.80248611666667
        },
        {
            "name": "SPAGS",
            "lat": 42.260136116666665,
            "lon": 71.74836111666667
        },
        {
            "name": "SPENO",
            "lat": 42.280152783333335,
            "lon": 72.15408333333333
        },
        {
            "name": "SQUEL",
            "lat": 42.113775,
            "lon": 71.76599443333333
        },
        {
            "name": "STELA",
            "lat": 42.281430566666664,
            "lon": 73.15393333333333
        },
        {
            "name": "SWEDE",
            "lat": 42.477811116666665,
            "lon": 74.66891943333333
        },
        {
            "name": "TROYY",
            "lat": 42.080430566666664,
            "lon": 71.79509443333333
        },
        {
            "name": "WHYBE",
            "lat": 42.253841666666666,
            "lon": 71.41653611666666
        },
        {
            "name": "WILET",
            "lat": 42.55881943333333,
            "lon": 75.88816943333333
        },
        {
            "name": "WITNY",
            "lat": 42.04939443333333,
            "lon": 72.23665556666667
        }
    ],
    "rnws": [
        "RNW 11",
        "RNW 15",
        "RNW 29",
        "RNW 33"
    ],
    "sids": [],
    "stars": [
        {
            "name": "STELA1",
            "runway": "RNW 11 RNW 15 RNW 29 RNW 33",
            "fixes": {
                "CANAN": "CANAN",
                "SHIGY": "SHIGY",
                "STELA": "STELA",
                "MOLDS": "MOLDS",
                "BAF": "BAF"
            }
        }
    ],
    "approaches": [
        {
            "name": "VORD33",
            "fixes": {
                "SQUEL": "SQUEL AT OR ABOVE 3000",
                "LAWRN": "LAWRN 2500 RNW 33 TRK 347 UNTIL 1410 TURN LEFT HDG 240 INTERCEPT RADIAL 191 TO",
                "GRAYM": "GRAYM GRAYM AT OR ABOVE 3000 HOLD AT GRAYM RIGHT TURN INBOUNDCOURSE 191 LEGTIME 1 FAF LAWRN MAP RNW 33"
            },
            "transitions": [
                {
                    "name": "GDM",
                    "fixes": {
                        "GDM": "GDM",
                        "LAWRN": "LAWRN AT OR ABOVE 3000 HOLD AT LAWRN LEFT TURN INBOUNDCOURSE 347 ALT 2700 LEGTIME 1"
                    }
                },
                {
                    "name": "PUT",
                    "fixes": {
                        "PUT": "PUT"
                    }
                }
            ]
        },
        {
            "name": "ILS11",
            "fixes": {
                "SPENO": "SPENO AT OR ABOVE 2800",
                "RILOC": "RILOC 2800 RNW 11 TRK 109 UNTIL 1800 TURN RIGHT HDG 230 INTERCEPT RADIAL 167 TO",
                "LAWRN": "LAWRN LAWRN AT OR ABOVE 3000 HOLD AT LAWRN LEFT TURN INBOUNDCOURSE 347 LEGTIME 1 FAF RILOC MAP RNW 11"
            },
            "transitions": [
                {
                    "name": "GDM",
                    "fixes": {
                        "GDM": "GDM",
                        "RILOC": "RILOC AT OR ABOVE 2900 HOLD AT RILOC LEFT TURN INBOUNDCOURSE 109 ALT 2800 LEGTIME 1"
                    }
                }
            ]
        },
        {
            "name": "ILS29",
            "fixes": {
                "CFLSR": "CFLSR AT OR ABOVE 2700",
                "SPAGS": "SPAGS 2700 RNW 29 TRK 289 UNTIL 1600 HDG 240 INTERCEPT RADIAL 179 TO",
                "GRIPE": "GRIPE GRIPE AT OR ABOVE 3000 HOLD AT GRIPE RIGHT TURN INBOUNDCOURSE 179 LEGTIME 1 FAF SPAGS MAP RNW 29"
            },
            "transitions": [
                {
                    "name": "GDM",
                    "fixes": {
                        "GDM": "GDM",
                        "SPAGS": "SPAGS AT OR ABOVE 3500 HOLD AT SPAGS LEFT TURN INBOUNDCOURSE 289 ALT 2700 LEGTIME 1"
                    }
                },
                {
                    "name": "PUT",
                    "fixes": {
                        "PUT": "PUT",
                        "SPAGS": "SPAGS AT OR ABOVE 2700 HOLD AT SPAGS LEFT TURN INBOUNDCOURSE 289 ALT 2700 LEGTIME 1"
                    }
                }
            ]
        },
        {
            "name": "RNAV11",
            "fixes": {
                "SPENO": "SPENO AT OR ABOVE 3000",
                "RILOC": "RILOC 2800 RNW 11 TRK 109 UNTIL 1180",
                "SPAGS": "OVERFLY SPAGS AT OR ABOVE 2700 HOLD AT SPAGS LEFT TURN INBOUNDCOURSE 289 LEGDIST 4 FAF RILOC MAP RNW 11"
            },
            "transitions": [
                {
                    "name": "BAF",
                    "fixes": {
                        "BAF": "BAF"
                    }
                },
                {
                    "name": "WITNY",
                    "fixes": {
                        "WITNY": "WITNY"
                    }
                }
            ]
        },
        {
            "name": "RNAV29",
            "fixes": {
                "DEWEE": "DEWEE AT OR ABOVE 3000",
                "SPAGS": "SPAGS 2700 RNW 29 TRK 289 UNTIL 1190",
                "RILOC": "OVERFLY RILOC AT OR ABOVE 3000 HOLD AT RILOC LEFT TURN INBOUNDCOURSE 109 LEGDIST 4 FAF SPAGS MAP RNW 29"
            },
            "transitions": [
                {
                    "name": "WHYBE",
                    "fixes": {
                        "WHYBE": "WHYBE"
                    }
                }
            ]
        },
        {
            "name": "RNAV33",
            "fixes": {
                "PAMLA": "PAMLA AT OR ABOVE 3000",
                "SLOWW": "SLOWW 2400 RNW 33 TRK 333 UNTIL 1410 TURN LEFT DIRECT",
                "GRIPE": "OVERFLY GRIPE AT OR ABOVE 3000 HOLD AT GRIPE RIGHT TURN INBOUNDCOURSE 179 LEGDIST 4 FAF SLOWW MAP RNW 33"
            },
            "transitions": [
                {
                    "name": "GDM",
                    "fixes": {
                        "GDM": "GDM",
                        "BOSOX": "BOSOX AT OR ABOVE 3600"
                    }
                },
                {
                    "name": "GRAYM",
                    "fixes": {
                        "GRAYM": "GRAYM",
                        "TROYY": "TROYY AT OR ABOVE 3000"
                    }
                },
                {
                    "name": "PUT",
                    "fixes": {
                        "PUT": "PUT",
                        "TROYY": "TROYY AT OR ABOVE 3000"
                    }
                }
            ]
        }
    ]
}