{
    "fixes": [
        {
            "name": "ALB",
            "lat": 42.74728056666667,
            "lon": 73.80318333333334
        },
        {
            "name": "ARQEB",
            "lat": 41.5601,
            "lon": 73.15286666666667
        },
        {
            "name": "ATHOS",
            "lat": 42.24708056666667,
            "lon": 73.8121
        },
        {
            "name": "BDR",
            "lat": 41.160705566666664,
            "lon": 73.12448611666667
        },
        {
            "name": "BISCO",
            "lat": 41.67599166666667,
            "lon": 73.03166388333334
        },
        {
            "name": "CUTMA",
            "lat": 41.28050833333333,
            "lon": 73.092625
        },
        {
            "name": "CYPER",
            "lat": 42.10899166666667,
            "lon": 74.27375556666667
        },
        {
            "name": "DAAVY",
            "lat": 41.38090278333333,
            "lon": 73.11416943333333
        },
        {
            "name": "DENNA",
            "lat": 41.233275,
            "lon": 73.19387221666666
        },
        {
            "name": "DNY",
            "lat": 42.178280566666665,
            "lon": 74.95694166666667
        },
        {
            "name": "GICEN",
            "lat": 41.52811943333333,
            "lon": 73.14595278333333
        },
        {
            "name": "HUMOM",
            "lat": 41.442152783333334,
            "lon": 73.12739166666667
        },
        {
            "name": "LOVES",
            "lat": 41.53878888333333,
            "lon": 73.48809443333333
        },
        {
            "name": "MOONI",
            "lat": 41.63146666666667,
            "lon": 73.32206388333333
        },
        {
            "name": "MUVGE",
            "lat": 41.2439,
            "lon": 72.89044166666666
        },
        {
            "name": "PETER",
            "lat": 42.20525833333333,
            "lon": 74.530625
        },
        {
            "name": "PWL",
            "lat": 41.76977221666667,
            "lon": 73.60055278333333
        },
        {
            "name": "RKA",
            "lat": 42.46633056666667,
            "lon": 75.23922778333333
        },
        {
            "name": "TRESA",
            "lat": 41.88044721666667,
            "lon": 73.81855556666666
        },
        {
            "name": "WEXNO",
            "lat": 41.64979721666667,
            "lon": 73.17230556666667
        },
        {
            "name": "ZATMI",
            "lat": 41.54513611666667,
            "lon": 73.14961666666666
        }
    ],
    "rnws": [
        "RNW 18",
        "RNW 36"
    ],
    "sids": [],
    "stars": [
        {
            "name": "BDR1",
            "runway": "RNW 18 RNW 36",
            "fixes": {
                "PWL": "PWL",
                "LOVES": "LOVES",
                "DENNA": "DENNA"
            }
        },
        {
            "name": "DENNA3",
            "runway": "RNW 18 RNW 36",
            "fixes": {
                "PWL": "PWL",
                "LOVES": "LOVES 6000",
                "DENNA": "DENNA"
            }
        }
    ],
    "approaches": [
        {
            "name": "ILS36",
            "fixes": {
                "CUTMA": "CUTMA AT OR ABOVE 2500",
                "DAAVY": "DAAVY 2500 RNW 36 TRK 005 UNTIL 1130 HDG 005 INTERCEPT RADIAL 317 TO",
                "ZATMI": "ZATMI ZATMI AT OR ABOVE 3000 HOLD AT ZATMI RIGHT TURN INBOUNDCOURSE 317 ALT 3000 LEGTIME 1 FAF DAAVY MAP RNW 36"
            },
            "transitions": [
                {
                    "name": "BDR",
                    "fixes": {
                        "BDR": "BDR"
                    }
                }
            ]
        },
        {
            "name": "RNAV18",
            "fixes": {
                "WEXNO": "WEXNO AT OR ABOVE 3000",
                "ARQEB": "ARQEB 2200",
                "GICEN": "GICEN AT OR ABOVE 1580 RNW 18 TRK 185 UNTIL 1130",
                "CUTMA": "OVERFLY CUTMA AT OR ABOVE 2500 HOLD AT CUTMA RIGHT TURN INBOUNDCOURSE 005 LEGDIST 4 FAF ARQEB MAP RNW 18"
            },
            "transitions": [
                {
                    "name": "BISCO",
                    "fixes": {
                        "BISCO": "BISCO"
                    }
                },
                {
                    "name": "PWL",
                    "fixes": {
                        "PWL": "PWL",
                        "MOONI": "MOONI AT OR ABOVE 3000"
                    }
                },
                {
                    "name": "WEXNO",
                    "fixes": {
                        "WEXNO": "WEXNO RIGHT TURN INBOUNDCOURSE 185 ALT 3000 LEGDIST 4"
                    }
                }
            ]
        },
        {
            "name": "RNAV36",
            "fixes": {
                "CUTMA": "CUTMA AT OR ABOVE 2500",
                "DAAVY": "DAAVY 2500",
                "HUMOM": "HUMOM AT OR ABOVE 1300 RNW 36 TRK 005 UNTIL 971",
                "ZATMI": "OVERFLY ZATMI AT OR ABOVE 3000 HOLD AT ZATMI RIGHT TURN INBOUNDCOURSE 090 ALT 3000 LEGDIST 4 FAF DAAVY MAP RNW 36"
            },
            "transitions": [
                {
                    "name": "BDR",
                    "fixes": {
                        "BDR": "BDR"
                    }
                },
                {
                    "name": "MUVGE",
                    "fixes": {
                        "MUVGE": "MUVGE"
                    }
                },
                {
                    "name": "ZATMI",
                    "fixes": {
                        "ZATMI": "ZATMI",
                        "CUTMA": "OVERFLY CUTMA AT OR ABOVE 2500 HOLD AT CUTMA RIGHT TURN INBOUNDCOURSE 005 ALT 2500 LEGDIST 4"
                    }
                }
            ]
        }
    ]
}