{
    "fixes": [
        {
            "name": "AXXIS",
            "lat": 42.830586116666666,
            "lon": 81.98338056666667
        },
        {
            "name": "BARII",
            "lat": 40.889583333333334,
            "lon": 84.12213611666667
        },
        {
            "name": "BGHRT",
            "lat": 40.65,
            "lon": 87.93333333333334
        },
        {
            "name": "BGLRI",
            "lat": 40.23653888333333,
            "lon": 86.17756943333333
        },
        {
            "name": "BOBCT",
            "lat": 40.54878333333333,
            "lon": 82.01285833333333
        },
        {
            "name": "BOREK",
            "lat": 42.9375,
            "lon": 79.9475
        },
        {
            "name": "BROKK",
            "lat": 42.33138888333333,
            "lon": 81.58193888333334
        },
        {
            "name": "BROVI",
            "lat": 42.52388611666667,
            "lon": 83.79552778333333
        },
        {
            "name": "BROZZ",
            "lat": 42.22439166666667,
            "lon": 84.15489166666667
        },
        {
            "name": "CCOBB",
            "lat": 42.22890278333333,
            "lon": 84.3791
        },
        {
            "name": "CLLEM",
            "lat": 42.633358333333334,
            "lon": 85.073475
        },
        {
            "name": "CLVIN",
            "lat": 41.39321388333333,
            "lon": 83.55463333333333
        },
        {
            "name": "COLTS",
            "lat": 42.963780566666664,
            "lon": 79.32085833333333
        },
        {
            "name": "DDEEZ",
            "lat": 43.54236111666667,
            "lon": 83.60252221666667
        },
        {
            "name": "DURGY",
            "lat": 42.680894433333336,
            "lon": 84.07363888333333
        },
        {
            "name": "DUTEL",
            "lat": 44.66638888333333,
            "lon": 81.29638888333334
        },
        {
            "name": "ESSBE",
            "lat": 42.05887778333334,
            "lon": 81.788275
        },
        {
            "name": "ETBOX",
            "lat": 44.526944433333334,
            "lon": 80.12972221666666
        },
        {
            "name": "FAEGO",
            "lat": 42.8013,
            "lon": 82.46646943333333
        },
        {
            "name": "FLOKA",
            "lat": 42.790869433333334,
            "lon": 82.87192221666666
        },
        {
            "name": "FNT",
            "lat": 42.96677221666667,
            "lon": 83.74696666666667
        },
        {
            "name": "FOREY",
            "lat": 41.8398,
            "lon": 82.66964166666666
        },
        {
            "name": "GETCH",
            "lat": 43.168652783333336,
            "lon": 86.05085
        },
        {
            "name": "GNZOE",
            "lat": 43.71666666666667,
            "lon": 83.66666666666667
        },
        {
            "name": "GRIVY",
            "lat": 41.07952221666667,
            "lon": 81.2185
        },
        {
            "name": "HAZIT",
            "lat": 41.87592778333333,
            "lon": 84.72167221666666
        },
        {
            "name": "HEVYD",
            "lat": 41.2975,
            "lon": 85.07276388333334
        },
        {
            "name": "HHOWE",
            "lat": 42.256422216666664,
            "lon": 82.46835
        },
        {
            "name": "HOSSA",
            "lat": 42.00703333333333,
            "lon": 85.07006388333333
        },
        {
            "name": "HUBBY",
            "lat": 43.7,
            "lon": 84.91666666666667
        },
        {
            "name": "HUCCY",
            "lat": 42.73741388333333,
            "lon": 84.1744
        },
        {
            "name": "HUUTZ",
            "lat": 41.70517778333333,
            "lon": 83.58993056666667
        },
        {
            "name": "IIICE",
            "lat": 42.44665833333333,
            "lon": 84.959875
        },
        {
            "name": "ITPEG",
            "lat": 42.89388888333333,
            "lon": 80.86083333333333
        },
        {
            "name": "IYLGO",
            "lat": 42.781177783333334,
            "lon": 84.66925278333333
        },
        {
            "name": "JAXII",
            "lat": 42.78379721666667,
            "lon": 83.85510278333334
        },
        {
            "name": "JEKAV",
            "lat": 42.62285833333333,
            "lon": 83.66445278333333
        },
        {
            "name": "JIVEX",
            "lat": 42.654825,
            "lon": 84.02728611666667
        },
        {
            "name": "JWELS",
            "lat": 41.69906111666667,
            "lon": 83.78972221666666
        },
        {
            "name": "KARIT",
            "lat": 43.723055566666666,
            "lon": 82.14444443333333
        },
        {
            "name": "KAYLN",
            "lat": 42.43881111666666,
            "lon": 84.62464166666666
        },
        {
            "name": "KELTI",
            "lat": 43.2825,
            "lon": 78.93333333333334
        },
        {
            "name": "KILTT",
            "lat": 42.54446943333333,
            "lon": 84.22606943333334
        },
        {
            "name": "KNRKO",
            "lat": 40.88478333333333,
            "lon": 85.89359721666666
        },
        {
            "name": "KOZAR",
            "lat": 40.595047216666664,
            "lon": 80.58473611666666
        },
        {
            "name": "KZLOV",
            "lat": 42.07355833333333,
            "lon": 82.7354
        },
        {
            "name": "LIDDS",
            "lat": 42.031725,
            "lon": 82.51076111666667
        },
        {
            "name": "LNCON",
            "lat": 42.24371943333333,
            "lon": 81.5176
        },
        {
            "name": "LOALA",
            "lat": 42.90036666666666,
            "lon": 83.36906111666667
        },
        {
            "name": "LOPVO",
            "lat": 42.916944433333335,
            "lon": 80.40055556666667
        },
        {
            "name": "MALTB",
            "lat": 42.2493,
            "lon": 82.64763333333333
        },
        {
            "name": "MIGGY",
            "lat": 42.998666666666665,
            "lon": 84.13998333333333
        },
        {
            "name": "MONEE",
            "lat": 43.2405,
            "lon": 84.46415278333333
        },
        {
            "name": "MRDOC",
            "lat": 42.092563883333334,
            "lon": 81.59065
        },
        {
            "name": "MTRCT",
            "lat": 42.43110278333333,
            "lon": 84.32997778333333
        },
        {
            "name": "NACCA",
            "lat": 41.58827778333333,
            "lon": 82.35481943333333
        },
        {
            "name": "NIMNM",
            "lat": 42.62507778333333,
            "lon": 85.61790556666666
        },
        {
            "name": "NOONR",
            "lat": 41.9536,
            "lon": 82.0864
        },
        {
            "name": "OKLND",
            "lat": 42.728875,
            "lon": 83.52823888333333
        },
        {
            "name": "OREYO",
            "lat": 43.508555566666665,
            "lon": 84.68884721666667
        },
        {
            "name": "PAVYL",
            "lat": 42.14302778333333,
            "lon": 82.45151666666666
        },
        {
            "name": "PETTE",
            "lat": 42.078969433333334,
            "lon": 84.34425278333333
        },
        {
            "name": "PHAUL",
            "lat": 41.70902778333333,
            "lon": 83.411975
        },
        {
            "name": "PICTR",
            "lat": 42.502063883333335,
            "lon": 83.63356388333334
        },
        {
            "name": "PICUP",
            "lat": 42.85642778333333,
            "lon": 81.83726111666667
        },
        {
            "name": "PIPTY",
            "lat": 42.83240833333333,
            "lon": 84.13186111666667
        },
        {
            "name": "PODEE",
            "lat": 42.58976666666667,
            "lon": 83.91191388333333
        },
        {
            "name": "POVCI",
            "lat": 42.41799721666667,
            "lon": 83.87691388333333
        },
        {
            "name": "PUUDL",
            "lat": 40.120666666666665,
            "lon": 84.05595556666667
        },
        {
            "name": "QBURT",
            "lat": 40.889541666666666,
            "lon": 85.50256666666667
        },
        {
            "name": "REEDA",
            "lat": 41.10238056666667,
            "lon": 84.639675
        },
        {
            "name": "RINTE",
            "lat": 40.28780833333333,
            "lon": 84.04291943333334
        },
        {
            "name": "RIPPY",
            "lat": 42.779794433333336,
            "lon": 82.79106388333334
        },
        {
            "name": "RRALF",
            "lat": 42.53228611666667,
            "lon": 84.11455833333333
        },
        {
            "name": "SEABS",
            "lat": 40.991194433333334,
            "lon": 85.29091111666666
        },
        {
            "name": "SIKBO",
            "lat": 43.65361111666667,
            "lon": 79.34916666666666
        },
        {
            "name": "SINKR",
            "lat": 40.45129166666667,
            "lon": 84.38520278333333
        },
        {
            "name": "SLLAP",
            "lat": 43.45008333333333,
            "lon": 84.93883056666667
        },
        {
            "name": "SLVVA",
            "lat": 42.14391943333333,
            "lon": 82.62671111666667
        },
        {
            "name": "SMUUV",
            "lat": 42.466325,
            "lon": 86.127325
        },
        {
            "name": "SNDRS",
            "lat": 41.24998888333333,
            "lon": 84.14845556666667
        },
        {
            "name": "STAZE",
            "lat": 38.9372,
            "lon": 84.14697778333333
        },
        {
            "name": "SVM",
            "lat": 42.40864166666667,
            "lon": 83.59390278333333
        },
        {
            "name": "SWETY",
            "lat": 42.619175,
            "lon": 82.93445278333333
        },
        {
            "name": "SYREN",
            "lat": 42.15869443333333,
            "lon": 84.11651111666667
        },
        {
            "name": "TANKO",
            "lat": 43.02568888333333,
            "lon": 82.38399443333333
        },
        {
            "name": "TFTUN",
            "lat": 40.84616943333333,
            "lon": 83.79830556666667
        },
        {
            "name": "TORRR",
            "lat": 40.741602783333335,
            "lon": 84.41635833333333
        },
        {
            "name": "TRMML",
            "lat": 43.20521111666667,
            "lon": 83.48108333333333
        },
        {
            "name": "VRNRS",
            "lat": 42.27702778333333,
            "lon": 82.70818056666667
        },
        {
            "name": "WEBOR",
            "lat": 42.615316666666665,
            "lon": 86.11649721666667
        },
        {
            "name": "WEPPY",
            "lat": 42.688344433333334,
            "lon": 84.27370278333333
        },
        {
            "name": "WINNZ",
            "lat": 41.924072216666666,
            "lon": 82.57489721666667
        },
        {
            "name": "WWODD",
            "lat": 39.86779166666667,
            "lon": 86.353225
        },
        {
            "name": "WWSHR",
            "lat": 41.34280278333333,
            "lon": 82.0516
        },
        {
            "name": "ZEGBI",
            "lat": 42.239505566666665,
            "lon": 85.08198333333333
        },
        {
            "name": "ZETTR",
            "lat": 42.92321943333334,
            "lon": 82.70936388333334
        },
        {
            "name": "ZEYOU",
            "lat": 41.70338888333333,
            "lon": 81.82380833333333
        }
    ],
    "rnws": [
        "RNW 13",
        "RNW 31"
    ],
    "sids": [
        {
            "name": "BARII2",
            "rnw": "31",
            "fixes": {
                "HUUTZ": "HUUTZ AT OR ABOVE 4000",
                "BARII": "BARII"
            },
            "sub_fixes": [
                {
                    "rwy": "RNW 13",
                    "fixes": {
                        "RNW 13": "RNW 13 HDG 132 VECTORS"
                    }
                },
                {
                    "rwy": "RNW 31",
                    "fixes": {
                        "RNW 31": "RNW 31 HDG 312 VECTORS"
                    }
                }
            ],
            "transitions": [
                {
                    "name": "SINKR",
                    "fixes": [
                        "SINKR"
                    ]
                }
            ]
        },
        {
            "name": "CCOBB2",
            "rnw": "31",
            "fixes": {
                "BROZZ": "BROZZ AT OR ABOVE 4000",
                "CCOBB": "CCOBB"
            },
            "sub_fixes": [
                {
                    "rwy": "RNW 13",
                    "fixes": {
                        "RNW 13": "RNW 13 HDG 132 VECTORS"
                    }
                },
                {
                    "rwy": "RNW 31",
                    "fixes": {
                        "RNW 31": "RNW 31 HDG 312 VECTORS"
                    }
                }
            ],
            "transitions": [
                {
                    "name": "ZEGBI",
                    "fixes": [
                        "ZEGBI"
                    ]
                }
            ]
        },
        {
            "name": "CLVIN2",
            "rnw": "31",
            "fixes": {
                "PHAUL": "PHAUL AT OR ABOVE 4000",
                "CLVIN": "CLVIN"
            },
            "sub_fixes": [
                {
                    "rwy": "RNW 13",
                    "fixes": {
                        "RNW 13": "RNW 13 HDG 132 VECTORS"
                    }
                },
                {
                    "rwy": "RNW 31",
                    "fixes": {
                        "RNW 31": "RNW 31 HDG 312 VECTORS"
                    }
                }
            ],
            "transitions": [
                {
                    "name": "STAZE",
                    "fixes": [
                        "TFTUN",
                        "RINTE",
                        "PUUDL",
                        "STAZE"
                    ]
                }
            ]
        },
        {
            "name": "HHOWE3",
            "rnw": "31",
            "fixes": {
                "MALTB": "MALTB AT OR ABOVE 4000",
                "HHOWE": "HHOWE"
            },
            "sub_fixes": [
                {
                    "rwy": "RNW 13",
                    "fixes": {
                        "RNW 13": "RNW 13 HDG 132 VECTORS"
                    }
                },
                {
                    "rwy": "RNW 31",
                    "fixes": {
                        "RNW 31": "RNW 31 HDG 312 VECTORS"
                    }
                }
            ],
            "transitions": [
                {
                    "name": "BROKK",
                    "fixes": [
                        "BROKK"
                    ]
                },
                {
                    "name": "LNCON",
                    "fixes": [
                        "LNCON"
                    ]
                }
            ]
        },
        {
            "name": "KAYLN2",
            "rnw": "31",
            "fixes": {
                "MTRCT": "MTRCT AT OR ABOVE 4000",
                "KAYLN": "KAYLN"
            },
            "sub_fixes": [
                {
                    "rwy": "RNW 13",
                    "fixes": {
                        "RNW 13": "RNW 13 HDG 132 VECTORS"
                    }
                },
                {
                    "rwy": "RNW 31",
                    "fixes": {
                        "RNW 31": "RNW 31 HDG 312 VECTORS"
                    }
                }
            ],
            "transitions": [
                {
                    "name": "SMUUV",
                    "fixes": [
                        "IIICE",
                        "SMUUV"
                    ]
                }
            ]
        },
        {
            "name": "KZLOV1",
            "rnw": "31",
            "fixes": {
                "KZLOV": "KZLOV AT OR BELOW 10000 AT OR ABOVE 4000",
                "WINNZ": "WINNZ"
            },
            "sub_fixes": [
                {
                    "rwy": "RNW 13",
                    "fixes": {
                        "RNW 13": "RNW 13 HDG 132 VECTORS"
                    }
                },
                {
                    "rwy": "RNW 31",
                    "fixes": {
                        "RNW 31": "RNW 31 HDG 312 VECTORS"
                    }
                }
            ],
            "transitions": []
        },
        {
            "name": "LIDDS2",
            "rnw": "31",
            "fixes": {
                "KZLOV": "KZLOV AT OR BELOW 15000 AT OR ABOVE 4000",
                "LIDDS": "LIDDS"
            },
            "sub_fixes": [
                {
                    "rwy": "RNW 13",
                    "fixes": {
                        "RNW 13": "RNW 13 HDG 132 VECTORS"
                    }
                },
                {
                    "rwy": "RNW 31",
                    "fixes": {
                        "RNW 31": "RNW 31 HDG 312 VECTORS"
                    }
                }
            ],
            "transitions": [
                {
                    "name": "GRIVY",
                    "fixes": [
                        "NOONR",
                        "ZEYOU",
                        "GRIVY"
                    ]
                }
            ]
        },
        {
            "name": "MIGGY2",
            "rnw": "31",
            "fixes": {
                "JAXII": "JAXII AT OR ABOVE 4000",
                "MIGGY": "MIGGY"
            },
            "sub_fixes": [
                {
                    "rwy": "RNW 13",
                    "fixes": {
                        "RNW 13": "RNW 13 HDG 132 VECTORS"
                    }
                },
                {
                    "rwy": "RNW 31",
                    "fixes": {
                        "RNW 31": "RNW 31 HDG 312 VECTORS"
                    }
                }
            ],
            "transitions": [
                {
                    "name": "GETCH",
                    "fixes": [
                        "MONEE",
                        "GETCH"
                    ]
                },
                {
                    "name": "HUBBY",
                    "fixes": [
                        "MONEE",
                        "HUBBY"
                    ]
                },
                {
                    "name": "SLLAP",
                    "fixes": [
                        "MONEE",
                        "SLLAP"
                    ]
                }
            ]
        },
        {
            "name": "PAVYL2",
            "rnw": "31",
            "fixes": {
                "SLVVA": "SLVVA AT OR ABOVE 4000",
                "PAVYL": "PAVYL"
            },
            "sub_fixes": [
                {
                    "rwy": "RNW 13",
                    "fixes": {
                        "RNW 13": "RNW 13 HDG 132 VECTORS"
                    }
                },
                {
                    "rwy": "RNW 31",
                    "fixes": {
                        "RNW 31": "RNW 31 HDG 312 VECTORS"
                    }
                }
            ],
            "transitions": [
                {
                    "name": "ESSBE",
                    "fixes": [
                        "ESSBE"
                    ]
                },
                {
                    "name": "MRDOC",
                    "fixes": [
                        "MRDOC"
                    ]
                }
            ]
        },
        {
            "name": "SNDRS2",
            "rnw": "31",
            "fixes": {
                "JWELS": "JWELS AT OR ABOVE 4000",
                "SNDRS": "SNDRS"
            },
            "sub_fixes": [
                {
                    "rwy": "RNW 13",
                    "fixes": {
                        "RNW 13": "RNW 13 HDG 132 VECTORS"
                    }
                },
                {
                    "rwy": "RNW 31",
                    "fixes": {
                        "RNW 31": "RNW 31 HDG 312 VECTORS"
                    }
                }
            ],
            "transitions": [
                {
                    "name": "BGHRT",
                    "fixes": [
                        "REEDA",
                        "SEABS",
                        "KNRKO",
                        "BGHRT"
                    ]
                },
                {
                    "name": "TORRR",
                    "fixes": [
                        "TORRR"
                    ]
                }
            ]
        },
        {
            "name": "TRMML3",
            "rnw": "31",
            "fixes": {
                "LOALA": "LOALA AT OR ABOVE 4000",
                "TRMML": "TRMML"
            },
            "sub_fixes": [
                {
                    "rwy": "RNW 13",
                    "fixes": {
                        "RNW 13": "RNW 13 HDG 132 VECTORS"
                    }
                },
                {
                    "rwy": "RNW 31",
                    "fixes": {
                        "RNW 31": "RNW 31 HDG 312 VECTORS"
                    }
                }
            ],
            "transitions": [
                {
                    "name": "GNZOE",
                    "fixes": [
                        "DDEEZ",
                        "GNZOE"
                    ]
                }
            ]
        },
        {
            "name": "ZETTR3",
            "rnw": "31",
            "fixes": {
                "FLOKA": "FLOKA AT OR ABOVE 4000",
                "ZETTR": "ZETTR AT OR BELOW 17000"
            },
            "sub_fixes": [
                {
                    "rwy": "RNW 13",
                    "fixes": {
                        "RNW 13": "RNW 13 HDG 132 VECTORS"
                    }
                },
                {
                    "rwy": "RNW 31",
                    "fixes": {
                        "RNW 31": "RNW 31 HDG 312 VECTORS"
                    }
                }
            ],
            "transitions": [
                {
                    "name": "DUTEL",
                    "fixes": [
                        "KARIT",
                        "DUTEL"
                    ]
                },
                {
                    "name": "ETBOX",
                    "fixes": [
                        "KARIT",
                        "ETBOX"
                    ]
                },
                {
                    "name": "KELTI",
                    "fixes": [
                        "TANKO",
                        "KELTI"
                    ]
                },
                {
                    "name": "SIKBO",
                    "fixes": [
                        "TANKO",
                        "SIKBO"
                    ]
                },
                {
                    "name": "TANKO",
                    "fixes": [
                        "TANKO"
                    ]
                }
            ]
        }
    ],
    "stars": [
        {
            "name": "FOREY2",
            "runway": "RNW 13 RNW 31",
            "fixes": {
                "FOREY": "FOREY",
                "VRNRS": "VRNRS",
                "SWETY": "OVERFLY SWETY AT OR ABOVE 4000 TRK 300 VECTORS"
            }
        },
        {
            "name": "OKLND1",
            "runway": "RNW 13 RNW 31",
            "fixes": {
                "AXXIS": "AXXIS",
                "FAEGO": "FAEGO",
                "RIPPY": "RIPPY",
                "OKLND": "OVERFLY OKLND AT OR ABOVE 4000 TRK 272 VECTORS"
            }
        },
        {
            "name": "PETTE2",
            "runway": "RNW 13 RNW 31",
            "fixes": {
                "PETTE": "PETTE",
                "SYREN": "OVERFLY SYREN AT OR ABOVE 4000 TRK 025 VECTORS"
            }
        },
        {
            "name": "RRALF3",
            "runway": "RNW 13 RNW 31",
            "fixes": {
                "RRALF": "RRALF",
                "PICTR": "OVERFLY PICTR AT OR ABOVE 4000 TRK 085 VECTORS"
            }
        }
    ],
    "approaches": [
        {
            "name": "ILS13",
            "fixes": {
                "HUCCY": "HUCCY AT OR ABOVE 3000 HUCCY HUCCY AT OR ABOVE 3000 HOLD AT HUCCY RIGHT TURN INBOUNDCOURSE 132 LEGTIME 1 FAF DURGY MAP RNW 13",
                "DURGY": "DURGY 2500 RNW 13 TRK 132 UNTIL 1600 TURN RIGHT HDG 356 INTERCEPT RADIAL 312 TO"
            },
            "transitions": [
                {
                    "name": "FNT",
                    "fixes": {
                        "FNT": "FNT",
                        "HUCCY": "HUCCY AT OR ABOVE 3000 HOLD AT HUCCY RIGHT TURN INBOUNDCOURSE 132 ALT 3000 LEGTIME 1"
                    }
                },
                {
                    "name": "SVM",
                    "fixes": {
                        "SVM": "SVM",
                        "HUCCY": "HUCCY AT OR ABOVE 3000 HOLD AT HUCCY RIGHT TURN INBOUNDCOURSE 132 ALT 3000 LEGTIME 1"
                    }
                }
            ]
        },
        {
            "name": "RNAV13",
            "fixes": {
                "HUCCY": "HUCCY AT OR ABOVE 3000",
                "DURGY": "DURGY 2500",
                "JIVEX": "JIVEX AT OR ABOVE 1660 RNW 13 TRK 132 UNTIL 1162",
                "BROVI": "OVERFLY BROVI AT OR ABOVE 2800 HOLD AT BROVI RIGHT TURN INBOUNDCOURSE 312 LEGDIST 4 FAF DURGY MAP RNW 13"
            },
            "transitions": [
                {
                    "name": "FNT",
                    "fixes": {
                        "FNT": "FNT",
                        "PIPTY": "PIPTY AT OR ABOVE 3000"
                    }
                },
                {
                    "name": "HUCCY",
                    "fixes": {
                        "HUCCY": "HUCCY RIGHT TURN INBOUNDCOURSE 132 ALT 3000 LEGDIST 4"
                    }
                },
                {
                    "name": "WEPPY",
                    "fixes": {
                        "WEPPY": "WEPPY"
                    }
                }
            ]
        },
        {
            "name": "RNAV31",
            "fixes": {
                "BROVI": "BROVI AT OR ABOVE 2800",
                "PODEE": "PODEE 2100 RNW 31 TRK 312 UNTIL 1143",
                "HUCCY": "OVERFLY HUCCY AT OR ABOVE 3000 HOLD AT HUCCY RIGHT TURN INBOUNDCOURSE 132 LEGDIST 4 FAF PODEE MAP RNW 31"
            },
            "transitions": [
                {
                    "name": "BROVI",
                    "fixes": {
                        "BROVI": "BROVI RIGHT TURN INBOUNDCOURSE 312 ALT 2800 LEGDIST 4"
                    }
                },
                {
                    "name": "JEKAV",
                    "fixes": {
                        "JEKAV": "JEKAV"
                    }
                },
                {
                    "name": "POVCI",
                    "fixes": {
                        "POVCI": "POVCI"
                    }
                }
            ]
        }
    ]
}