{
    "fixes": [
        {
            "name": "COTSA",
            "lat": 34.517,
            "lon": 111.89122778333333
        },
        {
            "name": "DRK",
            "lat": 34.70255278333333,
            "lon": 112.48034166666666
        },
        {
            "name": "FERER",
            "lat": 34.19789721666667,
            "lon": 111.79391666666666
        },
        {
            "name": "MINGY",
            "lat": 34.549458333333334,
            "lon": 111.74983888333334
        },
        {
            "name": "NINTE",
            "lat": 34.613416666666666,
            "lon": 111.97105556666666
        },
        {
            "name": "OATES",
            "lat": 34.87014443333333,
            "lon": 111.70937778333334
        },
        {
            "name": "UPEJI",
            "lat": 34.67913333333333,
            "lon": 112.00714166666667
        },
        {
            "name": "WEKIG",
            "lat": 34.581330566666665,
            "lon": 111.94446388333333
        }
    ],
    "rnws": [
        "RNW 14",
        "RNW 32"
    ],
    "sids": [
        {
            "name": "MINGY1",
            "rnw": "35R",
            "fixes": {},
            "sub_fixes": [
                {
                    "rwy": "RNW 14",
                    "fixes": {
                        "RNW 14": "RNW 14 HDG 145 UNTIL 4100",
                        "MINGY": "OVERFLY MINGY AT OR ABOVE 10000"
                    }
                },
                {
                    "rwy": "RNW 32",
                    "fixes": {
                        "RNW 32": "RNW 32 HDG 325 UNTIL 4100 TURN RIGHT DIRECT",
                        "MINGY": "OVERFLY MINGY AT OR ABOVE 10000"
                    }
                }
            ],
            "transitions": []
        }
    ],
    "stars": [],
    "approaches": [
        {
            "name": "RNAV32",
            "fixes": {
                "COTSA": "COTSA AT OR ABOVE 8500",
                "WEKIG": "WEKIG AT OR ABOVE 7100",
                "NINTE": "NINTE 6400",
                "UPEJI": "UPEJI AT OR ABOVE 4740 RNW 32 TRK 325 UNTIL 3960 TURN RIGHT DIRECT",
                "MINGY": "OVERFLY MINGY AT OR ABOVE 10000 HOLD AT MINGY RIGHT TURN INBOUNDCOURSE 345 LEGDIST 7 FAF NINTE MAP RNW 32"
            },
            "transitions": [
                {
                    "name": "DRK",
                    "fixes": {
                        "DRK": "DRK",
                        "COTSA": "OVERFLY COTSA AT OR ABOVE 9100 HOLD AT COTSA RIGHT TURN INBOUNDCOURSE 315 ALT 8500 LEGDIST 7"
                    }
                },
                {
                    "name": "FERER",
                    "fixes": {
                        "FERER": "FERER"
                    }
                },
                {
                    "name": "OATES",
                    "fixes": {
                        "OATES": "OATES",
                        "COTSA": "OVERFLY COTSA AT OR ABOVE 9100 HOLD AT COTSA RIGHT TURN INBOUNDCOURSE 315 ALT 8500 LEGDIST 7"
                    }
                }
            ]
        }
    ]
}