{
    "fixes": [
        {
            "name": "BECKY",
            "lat": 44.55319721666667,
            "lon": 88.59719443333333
        },
        {
            "name": "BIPID",
            "lat": 44.55120278333333,
            "lon": 88.85749166666666
        },
        {
            "name": "BRUNR",
            "lat": 44.346344433333336,
            "lon": 89.34356388333333
        },
        {
            "name": "COMTS",
            "lat": 44.55231943333333,
            "lon": 88.72060556666666
        },
        {
            "name": "CUTTS",
            "lat": 44.339,
            "lon": 89.16537221666667
        },
        {
            "name": "FNDRY",
            "lat": 44.32658333333333,
            "lon": 88.878075
        },
        {
            "name": "GWIZZ",
            "lat": 44.33545556666667,
            "lon": 89.08157221666667
        },
        {
            "name": "HAMTN",
            "lat": 43.680425,
            "lon": 89.41179443333333
        },
        {
            "name": "JOMOR",
            "lat": 44.14665278333333,
            "lon": 89.35916666666667
        },
        {
            "name": "LIMME",
            "lat": 44.104694433333336,
            "lon": 88.754725
        },
        {
            "name": "OSH",
            "lat": 43.990433333333335,
            "lon": 88.55593333333333
        },
        {
            "name": "RROBB",
            "lat": 44.543244433333335,
            "lon": 89.53079166666667
        },
        {
            "name": "WWEGA",
            "lat": 44.31998333333333,
            "lon": 88.73241111666667
        }
    ],
    "rnws": [
        "RNW 10",
        "RNW 13",
        "RNW 28",
        "RNW 31"
    ],
    "sids": [],
    "stars": [],
    "approaches": [
        {
            "name": "RNAV10",
            "fixes": {
                "BRUNR": "BRUNR AT OR ABOVE 2800",
                "CUTTS": "CUTTS 2700",
                "GWIZZ": "GWIZZ AT OR ABOVE 1540 RNW 10 TRK 094 UNTIL 1090",
                "WWEGA": "OVERFLY WWEGA AT OR ABOVE 2800 HOLD AT WWEGA RIGHT TURN INBOUNDCOURSE 275 LEGDIST 4 FAF CUTTS MAP RNW 10"
            },
            "transitions": [
                {
                    "name": "COMTS",
                    "fixes": {
                        "COMTS": "COMTS",
                        "BRUNR": "OVERFLY BRUNR AT OR ABOVE 2800 HOLD AT BRUNR RIGHT TURN INBOUNDCOURSE 094 ALT 2800 LEGDIST 4"
                    }
                },
                {
                    "name": "HAMTN",
                    "fixes": {
                        "HAMTN": "HAMTN",
                        "JOMOR": "JOMOR AT OR ABOVE 2800"
                    }
                },
                {
                    "name": "LIMME",
                    "fixes": {
                        "LIMME": "LIMME",
                        "BRUNR": "OVERFLY BRUNR AT OR ABOVE 2800 HOLD AT BRUNR RIGHT TURN INBOUNDCOURSE 094 ALT 2800 LEGDIST 4"
                    }
                },
                {
                    "name": "RROBB",
                    "fixes": {
                        "RROBB": "RROBB"
                    }
                }
            ]
        },
        {
            "name": "RNAV28",
            "fixes": {
                "WWEGA": "WWEGA AT OR ABOVE 2800",
                "FNDRY": "FNDRY 2700 RNW 28 TRK 275 UNTIL 1240",
                "BRUNR": "OVERFLY BRUNR AT OR ABOVE 2800 HOLD AT BRUNR RIGHT TURN INBOUNDCOURSE 094 LEGDIST 4 FAF FNDRY MAP RNW 28"
            },
            "transitions": [
                {
                    "name": "BECKY",
                    "fixes": {
                        "BECKY": "BECKY"
                    }
                },
                {
                    "name": "BIPID",
                    "fixes": {
                        "BIPID": "BIPID",
                        "WWEGA": "OVERFLY WWEGA AT OR ABOVE 2800 HOLD AT WWEGA RIGHT TURN INBOUNDCOURSE 275 ALT 2800 LEGDIST 4"
                    }
                },
                {
                    "name": "OSH",
                    "fixes": {
                        "OSH": "OSH"
                    }
                }
            ]
        }
    ]
}