{
    "fixes": [
        {
            "name": "ALIGE",
            "lat": 43.031533333333336,
            "lon": 90.83522778333334
        },
        {
            "name": "ANAGE",
            "lat": 43.08608888333333,
            "lon": 91.20185
        },
        {
            "name": "ARULE",
            "lat": 42.83050278333333,
            "lon": 91.05795833333333
        },
        {
            "name": "AVABE",
            "lat": 42.947927783333334,
            "lon": 91.04385833333333
        },
        {
            "name": "BAKBE",
            "lat": 42.98400556666667,
            "lon": 90.98621111666667
        },
        {
            "name": "BASPE",
            "lat": 43.149858333333334,
            "lon": 91.27508333333333
        },
        {
            "name": "BITLE",
            "lat": 42.937441666666665,
            "lon": 90.88404166666666
        },
        {
            "name": "CALPI",
            "lat": 43.096147216666665,
            "lon": 91.36210278333333
        },
        {
            "name": "CELRI",
            "lat": 43.072675,
            "lon": 91.18647221666667
        },
        {
            "name": "ELUNE",
            "lat": 42.875422216666664,
            "lon": 90.91485556666666
        },
        {
            "name": "FALNO",
            "lat": 43.001325,
            "lon": 91.04948056666667
        },
        {
            "name": "TEVEE",
            "lat": 42.884005566666666,
            "lon": 90.971075
        },
        {
            "name": "TIGBE",
            "lat": 43.203525,
            "lon": 91.18794443333333
        },
        {
            "name": "UWEVY",
            "lat": 42.95348611666667,
            "lon": 90.87509166666666
        }
    ],
    "rnws": [
        "RNW 11",
        "RNW 14",
        "RNW 29",
        "RNW 32"
    ],
    "sids": [],
    "stars": [],
    "approaches": [
        {
            "name": "RNAV14",
            "fixes": {
                "BASPE": "BASPE AT OR ABOVE 3000",
                "ANAGE": "ANAGE 2300",
                "CELRI": "CELRI AT OR ABOVE 1960 RNW 14 TRK 140 UNTIL 1061",
                "TEVEE": "OVERFLY TEVEE AT OR ABOVE 3000 HOLD AT TEVEE RIGHT TURN INBOUNDCOURSE 320 LEGDIST 4 FAF ANAGE MAP RNW 14"
            },
            "transitions": [
                {
                    "name": "BASPE",
                    "fixes": {
                        "BASPE": "BASPE RIGHT TURN INBOUNDCOURSE 140 ALT 3000 LEGDIST 4"
                    }
                },
                {
                    "name": "CALPI",
                    "fixes": {
                        "CALPI": "CALPI AT OR ABOVE 3000"
                    }
                },
                {
                    "name": "TIGBE",
                    "fixes": {
                        "TIGBE": "TIGBE AT OR ABOVE 3000"
                    }
                }
            ]
        },
        {
            "name": "RNAV29",
            "fixes": {
                "UWEVY": "UWEVY AT OR ABOVE 3000 OVERFLY UWEVY AT OR ABOVE 3000 HOLD AT UWEVY RIGHT TURN INBOUNDCOURSE 291 LEGDIST 4 FAF BAKBE MAP RNW 29",
                "BAKBE": "BAKBE 2700",
                "FALNO": "FALNO AT OR ABOVE 1740 RNW 29 TRK 290 UNTIL 2000 TURN RIGHT DIRECT"
            },
            "transitions": [
                {
                    "name": "ALIGE",
                    "fixes": {
                        "ALIGE": "ALIGE AT OR ABOVE 3000"
                    }
                },
                {
                    "name": "ELUNE",
                    "fixes": {
                        "ELUNE": "ELUNE AT OR ABOVE 3000"
                    }
                },
                {
                    "name": "UWEVY",
                    "fixes": {
                        "UWEVY": "UWEVY RIGHT TURN INBOUNDCOURSE 291 ALT 3000 LEGDIST 4"
                    }
                }
            ]
        },
        {
            "name": "RNAV32",
            "fixes": {
                "TEVEE": "TEVEE AT OR ABOVE 3000",
                "AVABE": "AVABE 2300 RNW 32 TRK 320 UNTIL 1061",
                "BASPE": "OVERFLY BASPE AT OR ABOVE 3000 HOLD AT BASPE RIGHT TURN INBOUNDCOURSE 140 LEGDIST 4 FAF AVABE MAP RNW 32"
            },
            "transitions": [
                {
                    "name": "ARULE",
                    "fixes": {
                        "ARULE": "ARULE AT OR ABOVE 3000"
                    }
                },
                {
                    "name": "BITLE",
                    "fixes": {
                        "BITLE": "BITLE AT OR ABOVE 3000"
                    }
                },
                {
                    "name": "TEVEE",
                    "fixes": {
                        "TEVEE": "TEVEE RIGHT TURN INBOUNDCOURSE 320 ALT 3000 LEGDIST 4"
                    }
                }
            ]
        }
    ]
}