{
    "fixes": [
        {
            "name": "CAGAK",
            "lat": 36.518655566666666,
            "lon": 88.31790556666667
        },
        {
            "name": "CUMPI",
            "lat": 36.246125,
            "lon": 88.41703611666667
        },
        {
            "name": "EDEPE",
            "lat": 36.421258333333334,
            "lon": 88.35341666666666
        },
        {
            "name": "HESIR",
            "lat": 36.171830566666664,
            "lon": 88.55118333333333
        },
        {
            "name": "LANKY",
            "lat": 36.48715833333333,
            "lon": 88.21453888333333
        },
        {
            "name": "NUBEE",
            "lat": 36.668816666666665,
            "lon": 88.42991943333334
        },
        {
            "name": "OMADY",
            "lat": 36.124875,
            "lon": 88.35370278333333
        },
        {
            "name": "WASED",
            "lat": 36.14839443333333,
            "lon": 88.45241388333334
        }
    ],
    "rnws": [
        "RNW 02",
        "RNW 20"
    ],
    "sids": [],
    "stars": [],
    "approaches": [
        {
            "name": "RNAV02",
            "fixes": {
                "WASED": "WASED AT OR ABOVE 2300",
                "CUMPI": "CUMPI 2300 RNW 02 TRK 016 UNTIL 780",
                "CAGAK": "OVERFLY CAGAK AT OR ABOVE 3000 HOLD AT CAGAK RIGHT TURN INBOUNDCOURSE 196 LEGDIST 4 FAF CUMPI MAP RNW 02"
            },
            "transitions": [
                {
                    "name": "HESIR",
                    "fixes": {
                        "HESIR": "HESIR"
                    }
                },
                {
                    "name": "OMADY",
                    "fixes": {
                        "OMADY": "OMADY"
                    }
                },
                {
                    "name": "WASED",
                    "fixes": {
                        "WASED": "WASED RIGHT TURN INBOUNDCOURSE 016 ALT 2300 LEGDIST 4"
                    }
                }
            ]
        },
        {
            "name": "RNAV20",
            "fixes": {
                "CAGAK": "CAGAK AT OR ABOVE 3000",
                "EDEPE": "EDEPE 2200 RNW 20 TRK 196 UNTIL 821",
                "WASED": "OVERFLY WASED AT OR ABOVE 2300 HOLD AT WASED RIGHT TURN INBOUNDCOURSE 016 LEGDIST 4 FAF EDEPE MAP RNW 20"
            },
            "transitions": [
                {
                    "name": "CAGAK",
                    "fixes": {
                        "CAGAK": "CAGAK RIGHT TURN INBOUNDCOURSE 196 ALT 3000 LEGDIST 4"
                    }
                },
                {
                    "name": "LANKY",
                    "fixes": {
                        "LANKY": "LANKY",
                        "CAGAK": "OVERFLY CAGAK AT OR ABOVE 3000 HOLD AT CAGAK RIGHT TURN INBOUNDCOURSE 196 ALT 3000 LEGDIST 4"
                    }
                },
                {
                    "name": "NUBEE",
                    "fixes": {
                        "NUBEE": "NUBEE"
                    }
                }
            ]
        }
    ]
}