{
    "fixes": [
        {
            "name": "ASTOE",
            "lat": 44.465408333333336,
            "lon": 96.63804166666667
        },
        {
            "name": "CEPKA",
            "lat": 43.89457778333333,
            "lon": 96.30778333333333
        },
        {
            "name": "FSD",
            "lat": 43.64949166666667,
            "lon": 96.781125
        },
        {
            "name": "GHENT",
            "lat": 44.468875,
            "lon": 95.8318
        },
        {
            "name": "HEVBA",
            "lat": 43.792141666666666,
            "lon": 96.31683056666667
        },
        {
            "name": "NIKKE",
            "lat": 43.79946388333333,
            "lon": 96.47759443333334
        },
        {
            "name": "RAYOV",
            "lat": 44.08739166666667,
            "lon": 96.29063888333333
        },
        {
            "name": "SAKNE",
            "lat": 44.18716943333333,
            "lon": 96.28172778333334
        },
        {
            "name": "TIBUC",
            "lat": 44.27579721666667,
            "lon": 96.54934166666666
        },
        {
            "name": "WAKON",
            "lat": 43.784591666666664,
            "lon": 96.15610556666667
        },
        {
            "name": "WATKU",
            "lat": 43.94471943333333,
            "lon": 96.30333056666667
        },
        {
            "name": "ZOVOB",
            "lat": 44.01850833333334,
            "lon": 96.29677221666667
        }
    ],
    "rnws": [
        "RNW 09",
        "RNW 18",
        "RNW 27",
        "RNW 36"
    ],
    "sids": [],
    "stars": [],
    "approaches": [
        {
            "name": "RNAV18",
            "fixes": {
                "SAKNE": "SAKNE AT OR ABOVE 3800",
                "RAYOV": "RAYOV 3700",
                "ZOVOB": "ZOVOB AT OR ABOVE 2380 RNW 18 TRK 181 UNTIL 1986",
                "HEVBA": "OVERFLY HEVBA AT OR ABOVE 3400 HOLD AT HEVBA RIGHT TURN INBOUNDCOURSE 001 LEGDIST 4 FAF RAYOV MAP RNW 18"
            },
            "transitions": [
                {
                    "name": "ASTOE",
                    "fixes": {
                        "ASTOE": "ASTOE",
                        "TIBUC": "TIBUC AT OR ABOVE 3800"
                    }
                },
                {
                    "name": "FSD",
                    "fixes": {
                        "FSD": "FSD",
                        "SAKNE": "OVERFLY SAKNE AT OR ABOVE 3800 HOLD AT SAKNE RIGHT TURN INBOUNDCOURSE 181 ALT 3800 LEGDIST 4"
                    }
                },
                {
                    "name": "GHENT",
                    "fixes": {
                        "GHENT": "GHENT"
                    }
                }
            ]
        },
        {
            "name": "RNAV36",
            "fixes": {
                "HEVBA": "HEVBA AT OR ABOVE 3400",
                "CEPKA": "CEPKA 3300",
                "WATKU": "WATKU AT OR ABOVE 2340 RNW 36 TRK 001 UNTIL 1934",
                "SAKNE": "OVERFLY SAKNE AT OR ABOVE 3800 HOLD AT SAKNE RIGHT TURN INBOUNDCOURSE 181 LEGDIST 4 FAF CEPKA MAP RNW 36"
            },
            "transitions": [
                {
                    "name": "HEVBA",
                    "fixes": {
                        "HEVBA": "HEVBA RIGHT TURN INBOUNDCOURSE 001 ALT 3400 LEGDIST 4"
                    }
                },
                {
                    "name": "NIKKE",
                    "fixes": {
                        "NIKKE": "NIKKE"
                    }
                },
                {
                    "name": "WAKON",
                    "fixes": {
                        "WAKON": "WAKON"
                    }
                }
            ]
        }
    ]
}