{
    "fixes": [
        {
            "name": "47VOR",
            "lat": 42.146936116666666,
            "lon": 87.91926388333333
        },
        {
            "name": "ACITO",
            "lat": 41.398611116666665,
            "lon": 88.18333333333334
        },
        {
            "name": "ADELL",
            "lat": 41.24972221666667,
            "lon": 88.25
        },
        {
            "name": "AHLOU",
            "lat": 41.65083333333333,
            "lon": 88.12445278333334
        },
        {
            "name": "AKMIE",
            "lat": 40.71076943333333,
            "lon": 88.491125
        },
        {
            "name": "ARLYN",
            "lat": 40.31666666666667,
            "lon": 88.66666666666667
        },
        {
            "name": "BACEN",
            "lat": 41.406666666666666,
            "lon": 88.02972221666667
        },
        {
            "name": "BEKKI",
            "lat": 40.31666666666667,
            "lon": 88.34833333333333
        },
        {
            "name": "BLOKR",
            "lat": 41.24972221666667,
            "lon": 88.08333333333333
        },
        {
            "name": "BRBIE",
            "lat": 41.65083333333333,
            "lon": 88.02276111666667
        },
        {
            "name": "CARYN",
            "lat": 41.24972221666667,
            "lon": 87.8925
        },
        {
            "name": "CATER",
            "lat": 41.65083333333333,
            "lon": 87.83972221666667
        },
        {
            "name": "CF16",
            "lat": 42.29464443333333,
            "lon": 87.99753888333333
        },
        {
            "name": "CMSKY",
            "lat": 41.413055566666664,
            "lon": 87.87722221666667
        },
        {
            "name": "CYBIL",
            "lat": 40.31666666666667,
            "lon": 87.86444443333333
        },
        {
            "name": "DARCY",
            "lat": 41.20222221666667,
            "lon": 87.72583333333333
        },
        {
            "name": "DEERE",
            "lat": 42.199133333333336,
            "lon": 87.60390278333334
        },
        {
            "name": "DENNT",
            "lat": 41.41916666666667,
            "lon": 87.72472221666666
        },
        {
            "name": "DONVE",
            "lat": 39.98638888333333,
            "lon": 87.62583333333333
        },
        {
            "name": "DREGS",
            "lat": 40.31666666666667,
            "lon": 87.6075
        },
        {
            "name": "DUMGE",
            "lat": 39.98638888333333,
            "lon": 87.39833333333333
        },
        {
            "name": "DWANE",
            "lat": 41.65083333333333,
            "lon": 87.73474166666666
        },
        {
            "name": "EARND",
            "lat": 41.425277783333335,
            "lon": 87.57222221666666
        },
        {
            "name": "ELANR",
            "lat": 41.20166666666667,
            "lon": 87.53333333333333
        },
        {
            "name": "EMEGE",
            "lat": 39.71305556666667,
            "lon": 86.67777778333334
        },
        {
            "name": "EMMLY",
            "lat": 40.45,
            "lon": 87.33333333333333
        },
        {
            "name": "ERECO",
            "lat": 39.98638888333333,
            "lon": 87.11666666666666
        },
        {
            "name": "ETAME",
            "lat": 39.98444443333333,
            "lon": 86.9
        },
        {
            "name": "EZRAH",
            "lat": 41.65083333333333,
            "lon": 87.63523888333333
        },
        {
            "name": "FILLZ",
            "lat": 42.252397216666665,
            "lon": 88.16820556666667
        },
        {
            "name": "FUGIO",
            "lat": 42.1544,
            "lon": 87.92348333333334
        },
        {
            "name": "HIGUH",
            "lat": 42.301344433333334,
            "lon": 88.00112778333333
        },
        {
            "name": "JILYN",
            "lat": 41.99285,
            "lon": 87.98626388333334
        },
        {
            "name": "JORJO",
            "lat": 41.884483333333336,
            "lon": 87.98855
        },
        {
            "name": "MONKZ",
            "lat": 41.88433056666667,
            "lon": 87.80179721666667
        },
        {
            "name": "OBK",
            "lat": 42.22137778333333,
            "lon": 87.95166943333334
        },
        {
            "name": "OYFAM",
            "lat": 42.35004721666667,
            "lon": 87.83379166666667
        },
        {
            "name": "PAMME",
            "lat": 42.201588883333336,
            "lon": 87.94836111666666
        },
        {
            "name": "PI001",
            "lat": 42.275833166666665,
            "lon": 87.97992241666667
        },
        {
            "name": "PI002",
            "lat": 42.34129718333333,
            "lon": 87.94048573333333
        },
        {
            "name": "PI003",
            "lat": 42.37694616666667,
            "lon": 88.03252198333334
        },
        {
            "name": "PI004",
            "lat": 42.2768535,
            "lon": 87.97603208333334
        },
        {
            "name": "PI005",
            "lat": 42.34070056666667,
            "lon": 87.93201415
        },
        {
            "name": "PI006",
            "lat": 42.37986611666667,
            "lon": 88.021391
        },
        {
            "name": "RBS",
            "lat": 40.581702783333334,
            "lon": 88.16426666666666
        },
        {
            "name": "SCOTO",
            "lat": 39.169147216666666,
            "lon": 86.85471943333333
        },
        {
            "name": "ZYDEK",
            "lat": 41.9923,
            "lon": 87.8144
        }
    ],
    "rnws": [
        "RNW 06",
        "RNW 12",
        "RNW 16",
        "RNW 24",
        "RNW 30",
        "RNW 34"
    ],
    "sids": [
        {
            "name": "JORJO5",
            "rnw": "29R",
            "fixes": {
                "JILYN": "JILYN",
                "JORJO": "JORJO"
            },
            "sub_fixes": [
                {
                    "rwy": "RNW 12",
                    "fixes": {
                        "RNW 12": "RNW 12 HDG 121 UNTIL 1160 HDG 121 VECTORS"
                    }
                },
                {
                    "rwy": "RNW 16",
                    "fixes": {
                        "RNW 16": "RNW 16 HDG 162 UNTIL 1160 HDG 162 VECTORS"
                    }
                },
                {
                    "rwy": "RNW 30",
                    "fixes": {
                        "RNW 30": "RNW 30 HDG 301 UNTIL 1160 HDG 301 VECTORS"
                    }
                },
                {
                    "rwy": "RNW 34",
                    "fixes": {
                        "RNW 34": "RNW 34 HDG 342 UNTIL 1160 HDG 342 VECTORS"
                    }
                }
            ],
            "transitions": [
                {
                    "name": "AKMIE",
                    "fixes": [
                        "AHLOU",
                        "ACITO",
                        "ADELL",
                        "AKMIE"
                    ]
                },
                {
                    "name": "ARLYN",
                    "fixes": [
                        "AHLOU",
                        "ACITO",
                        "ADELL",
                        "AKMIE",
                        "ARLYN"
                    ]
                },
                {
                    "name": "BEKKI",
                    "fixes": [
                        "BRBIE",
                        "BACEN",
                        "BLOKR",
                        "BEKKI"
                    ]
                },
                {
                    "name": "RBS",
                    "fixes": [
                        "BRBIE",
                        "BACEN",
                        "BLOKR",
                        "RBS"
                    ]
                }
            ]
        },
        {
            "name": "MONKZ5",
            "rnw": "29R",
            "fixes": {
                "ZYDEK": "ZYDEK",
                "MONKZ": "MONKZ"
            },
            "sub_fixes": [
                {
                    "rwy": "RNW 12",
                    "fixes": {
                        "RNW 12": "RNW 12 HDG 121 UNTIL 1160 HDG 121 VECTORS"
                    }
                },
                {
                    "rwy": "RNW 16",
                    "fixes": {
                        "RNW 16": "RNW 16 HDG 162 UNTIL 1160 HDG 162 VECTORS"
                    }
                },
                {
                    "rwy": "RNW 30",
                    "fixes": {
                        "RNW 30": "RNW 30 HDG 301 UNTIL 1160 HDG 301 VECTORS"
                    }
                },
                {
                    "rwy": "RNW 34",
                    "fixes": {
                        "RNW 34": "RNW 34 HDG 342 UNTIL 1160 HDG 342 VECTORS"
                    }
                }
            ],
            "transitions": [
                {
                    "name": "CYBIL",
                    "fixes": [
                        "CATER",
                        "CMSKY",
                        "CARYN",
                        "CYBIL"
                    ]
                },
                {
                    "name": "DONVE",
                    "fixes": [
                        "DWANE",
                        "DENNT",
                        "DARCY",
                        "DREGS",
                        "DONVE"
                    ]
                },
                {
                    "name": "ELANR",
                    "fixes": [
                        "EZRAH",
                        "EARND",
                        "ELANR"
                    ]
                },
                {
                    "name": "EMEGE",
                    "fixes": [
                        "EZRAH",
                        "EARND",
                        "ELANR",
                        "EMMLY",
                        "ETAME",
                        "EMEGE"
                    ]
                },
                {
                    "name": "EMMLY",
                    "fixes": [
                        "EZRAH",
                        "EARND",
                        "ELANR",
                        "EMMLY"
                    ]
                },
                {
                    "name": "ERECO",
                    "fixes": [
                        "EZRAH",
                        "EARND",
                        "ELANR",
                        "EMMLY",
                        "ERECO"
                    ]
                },
                {
                    "name": "SCOTO",
                    "fixes": [
                        "DWANE",
                        "DENNT",
                        "DARCY",
                        "DREGS",
                        "DUMGE",
                        "SCOTO"
                    ]
                }
            ]
        }
    ],
    "stars": [],
    "approaches": [
        {
            "name": "ILS16",
            "fixes": {
                "CF16": "CF16 AT OR ABOVE 2700",
                "PAMME": "PAMME 2300 RNW 16 TRK 161 UNTIL 1400 TURN LEFT DIRECT",
                "OBK": "OBK AT OR ABOVE 2700 HOLD AT OBK LEFT TURN INBOUNDCOURSE 163 ALT 2700 LEGTIME 1 FAF PAMME MAP RNW 16"
            },
            "transitions": [
                {
                    "name": "OBK",
                    "fixes": {
                        "PI001": "PI001 AT OR ABOVE 2700 SPEED 210",
                        "PI002": "OVERFLY PI002 AT OR ABOVE 2700 SPEED 210",
                        "PI003": "PI003 AT OR ABOVE 2700 SPEED 210"
                    }
                }
            ]
        },
        {
            "name": "RNAV16",
            "fixes": {
                "HIGUH": "HIGUH AT OR ABOVE 2500",
                "PAMME": "PAMME 2300",
                "FUGIO": "FUGIO AT OR ABOVE 1320 RNW 16 TRK 161 UNTIL 1200 TURN LEFT DIRECT",
                "DEERE": "OVERFLY DEERE AT OR ABOVE 2100 HOLD AT DEERE RIGHT TURN INBOUNDCOURSE 218 LEGDIST 4 FAF PAMME MAP RNW 16"
            },
            "transitions": [
                {
                    "name": "FILLZ",
                    "fixes": {
                        "FILLZ": "FILLZ"
                    }
                },
                {
                    "name": "HIGUH",
                    "fixes": {
                        "HIGUH": "HIGUH RIGHT TURN INBOUNDCOURSE 161 ALT 2500 LEGDIST 4"
                    }
                },
                {
                    "name": "OYFAM",
                    "fixes": {
                        "OYFAM": "OYFAM"
                    }
                }
            ]
        },
        {
            "name": "VOR16",
            "fixes": {
                "OBK": "OBK 2700 OBK AT OR ABOVE 2700 HOLD AT OBK LEFT TURN INBOUNDCOURSE 163 LEGTIME 1 FAF OBK MAP RNW 16",
                "47VOR": "47VOR AT OR ABOVE 1200 RNW 16 TRK 164 UNTIL 1400 TURN LEFT DIRECT"
            },
            "transitions": [
                {
                    "name": "OBK",
                    "fixes": {
                        "PI004": "PI004 AT OR ABOVE 2700 SPEED 210",
                        "PI005": "OVERFLY PI005 AT OR ABOVE 2700 SPEED 210",
                        "PI006": "PI006 AT OR ABOVE 2700 SPEED 210"
                    }
                }
            ]
        }
    ]
}