{
    "fixes": [
        {
            "name": "CAMAS",
            "lat": 43.01345833333333,
            "lon": 123.62218611666667
        },
        {
            "name": "CF337",
            "lat": 43.11582778333333,
            "lon": 123.34753888333333
        },
        {
            "name": "EHHIB",
            "lat": 43.13013888333333,
            "lon": 123.35569721666667
        },
        {
            "name": "EROWY",
            "lat": 43.05574166666667,
            "lon": 123.5007
        },
        {
            "name": "IDISY",
            "lat": 43.05643333333333,
            "lon": 123.35559166666667
        },
        {
            "name": "IJOZI",
            "lat": 43.49604166666666,
            "lon": 123.35619721666667
        },
        {
            "name": "MA337",
            "lat": 43.232366666666664,
            "lon": 123.355775
        },
        {
            "name": "OCUKY",
            "lat": 43.170791666666666,
            "lon": 123.35575278333333
        },
        {
            "name": "PI001",
            "lat": 43.12480083333333,
            "lon": 123.33973891666666
        },
        {
            "name": "PI002",
            "lat": 43.0668068,
            "lon": 123.39739976666667
        },
        {
            "name": "PI003",
            "lat": 43.0177964,
            "lon": 123.31658186666667
        },
        {
            "name": "RBG",
            "lat": 43.18241666666667,
            "lon": 123.35224166666667
        },
        {
            "name": "YILUB",
            "lat": 43.49604166666666,
            "lon": 123.5007
        },
        {
            "name": "ZUMDO",
            "lat": 43.40396388333333,
            "lon": 123.57388611666667
        }
    ],
    "rnws": [
        "RNW 16",
        "RNW 34"
    ],
    "sids": [],
    "stars": [],
    "approaches": [
        {
            "name": "RNAVB34",
            "fixes": {
                "IDISY": "IDISY AT OR ABOVE 3700",
                "EHHIB": "EHHIB AT OR ABOVE 3300",
                "OCUKY": "OCUKY 2700 RNW 34 TRK 346 UNTIL 933",
                "IJOZI": "IJOZI",
                "YILUB": "YILUB",
                "ZUMDO": "ZUMDO",
                "EROWY": "OVERFLY EROWY AT OR ABOVE 5600 HOLD AT EROWY LEFT TURN INBOUNDCOURSE 076 LEGDIST 5 FAF OCUKY MAP RNW 34"
            },
            "transitions": [
                {
                    "name": "CAMAS",
                    "fixes": {
                        "CAMAS": "CAMAS",
                        "EROWY": "EROWY AT OR ABOVE 5600"
                    }
                }
            ]
        },
        {
            "name": "VORA16",
            "fixes": {
                "CF337": "CF337 AT OR ABOVE 3800",
                "RBG": "RBG 2800 RBG AT OR ABOVE 5000 HOLD AT RBG RIGHT TURN INBOUNDCOURSE 163 LEGTIME 1 FAF RBG MAP MA337",
                "MA337": "MA337 2100 RNW 16 TRK 337 UNTIL 4000 TURN LEFT DIRECT"
            },
            "transitions": [
                {
                    "name": "RBG",
                    "fixes": {
                        "PI001": "PI001 AT OR ABOVE 5000 SPEED 210",
                        "PI002": "OVERFLY PI002 AT OR ABOVE 5000 SPEED 210",
                        "PI003": "PI003 AT OR ABOVE 5000 SPEED 210"
                    }
                }
            ]
        },
        {
            "name": "VORA34",
            "fixes": {
                "CF337": "CF337 AT OR ABOVE 3800",
                "RBG": "RBG 2800 RBG AT OR ABOVE 5000 HOLD AT RBG RIGHT TURN INBOUNDCOURSE 163 LEGTIME 1 FAF RBG MAP MA337",
                "MA337": "MA337 2100 RNW 34 TRK 337 UNTIL 4000 TURN LEFT DIRECT"
            },
            "transitions": [
                {
                    "name": "RBG",
                    "fixes": {
                        "PI001": "PI001 AT OR ABOVE 5000 SPEED 210",
                        "PI002": "OVERFLY PI002 AT OR ABOVE 5000 SPEED 210",
                        "PI003": "PI003 AT OR ABOVE 5000 SPEED 210"
                    }
                }
            ]
        }
    ]
}