{
    "fixes": [
        {
            "name": "AHEFY",
            "lat": 32.75553333333333,
            "lon": 80.49068888333333
        },
        {
            "name": "ALD",
            "lat": 33.01249443333333,
            "lon": 81.29223333333333
        },
        {
            "name": "BOWMA",
            "lat": 33.317175,
            "lon": 80.73850833333333
        },
        {
            "name": "CHS",
            "lat": 32.89431943333334,
            "lon": 80.03781388333333
        },
        {
            "name": "CIGLO",
            "lat": 32.86728611666667,
            "lon": 80.46319721666667
        },
        {
            "name": "DORLY",
            "lat": 32.734861116666664,
            "lon": 80.58641666666666
        },
        {
            "name": "DOTMY",
            "lat": 32.989972216666665,
            "lon": 80.560075
        },
        {
            "name": "EZAFY",
            "lat": 33.085075,
            "lon": 80.79534721666667
        },
        {
            "name": "HETIL",
            "lat": 32.98783888333333,
            "lon": 80.66326943333334
        },
        {
            "name": "IDIFI",
            "lat": 33.105905566666664,
            "lon": 80.69928888333334
        },
        {
            "name": "LAMKE",
            "lat": 33.065227783333334,
            "lon": 80.47343056666666
        },
        {
            "name": "LATNY",
            "lat": 32.8342,
            "lon": 80.61654166666666
        },
        {
            "name": "LIBME",
            "lat": 32.857,
            "lon": 80.71263056666666
        },
        {
            "name": "MUTCY",
            "lat": 32.77291666666667,
            "lon": 80.80880278333333
        },
        {
            "name": "NIXGY",
            "lat": 32.71411666666667,
            "lon": 80.6821
        },
        {
            "name": "REFOK",
            "lat": 32.89171388333333,
            "lon": 80.67286943333333
        },
        {
            "name": "STOAS",
            "lat": 32.95941666666667,
            "lon": 80.71155278333333
        },
        {
            "name": "WIBSI",
            "lat": 33.00704721666666,
            "lon": 80.66912221666666
        },
        {
            "name": "WIVEL",
            "lat": 33.12666111666667,
            "lon": 80.60318611666666
        }
    ],
    "rnws": [
        "RNW 05",
        "RNW 09",
        "RNW 17",
        "RNW 23",
        "RNW 27",
        "RNW 35"
    ],
    "sids": [],
    "stars": [],
    "approaches": [
        {
            "name": "ILSY23",
            "fixes": {
                "LAMKE": "LAMKE AT OR ABOVE 2100",
                "DOTMY": "DOTMY 1800 RNW 23 TRK 229 UNTIL 700 TURN RIGHT HDG 000 INTERCEPT RADIAL 282 TO",
                "STOAS": "STOAS STOAS AT OR ABOVE 2000 HOLD AT STOAS RIGHT TURN INBOUNDCOURSE 282 LEGTIME 1 FAF DOTMY MAP RNW 23"
            },
            "transitions": [
                {
                    "name": "LAMKE",
                    "fixes": {
                        "LAMKE": "LAMKE RIGHT TURN INBOUNDCOURSE 229 ALT 2100 LEGTIME 1"
                    }
                }
            ]
        },
        {
            "name": "ILSZ23",
            "fixes": {
                "LAMKE": "LAMKE AT OR ABOVE 2100",
                "DOTMY": "DOTMY 1800 RNW 23 TRK 229 UNTIL 1500 TURN RIGHT DIRECT",
                "STOAS": "STOAS AT OR ABOVE 2000 HOLD AT STOAS RIGHT TURN INBOUNDCOURSE 282 LEGDIST 4 FAF DOTMY MAP RNW 23"
            },
            "transitions": [
                {
                    "name": "LAMKE",
                    "fixes": {
                        "LAMKE": "LAMKE RIGHT TURN INBOUNDCOURSE 229 ALT 2100 LEGTIME 1"
                    }
                }
            ]
        },
        {
            "name": "RNAV05",
            "fixes": {
                "MUTCY": "MUTCY AT OR ABOVE 2400",
                "LIBME": "LIBME 1700",
                "REFOK": "REFOK AT OR ABOVE 760 RNW 05 TRK 049 UNTIL 424",
                "LAMKE": "OVERFLY LAMKE AT OR ABOVE 2100 HOLD AT LAMKE RIGHT TURN INBOUNDCOURSE 229 LEGDIST 4 FAF LIBME MAP RNW 05"
            },
            "transitions": [
                {
                    "name": "MUTCY",
                    "fixes": {
                        "MUTCY": "MUTCY RIGHT TURN INBOUNDCOURSE 049 ALT 2400 LEGDIST 4"
                    }
                }
            ]
        },
        {
            "name": "RNAV17",
            "fixes": {
                "IDIFI": "IDIFI AT OR ABOVE 2000",
                "WIBSI": "WIBSI 1700",
                "HETIL": "HETIL AT OR ABOVE 1300 RNW 17 TRK 171 UNTIL 343",
                "LATNY": "LATNY TURN LEFT DIRECT",
                "CIGLO": "CIGLO",
                "LAMKE": "OVERFLY LAMKE AT OR ABOVE 2100 HOLD AT LAMKE RIGHT TURN INBOUNDCOURSE 229 LEGDIST 4 FAF WIBSI MAP RNW 17"
            },
            "transitions": [
                {
                    "name": "ALD",
                    "fixes": {
                        "ALD": "ALD",
                        "EZAFY": "EZAFY AT OR ABOVE 2000"
                    }
                },
                {
                    "name": "BOWMA",
                    "fixes": {
                        "BOWMA": "BOWMA"
                    }
                },
                {
                    "name": "LAMKE",
                    "fixes": {
                        "LAMKE": "LAMKE",
                        "WIVEL": "WIVEL AT OR ABOVE 2000"
                    }
                }
            ]
        },
        {
            "name": "RNAV23",
            "fixes": {
                "LAMKE": "LAMKE AT OR ABOVE 2100 OVERFLY LAMKE AT OR ABOVE 2100 HOLD AT LAMKE RIGHT TURN INBOUNDCOURSE 229 LEGDIST 4 FAF DOTMY MAP RNW 23",
                "DOTMY": "DOTMY 1800 RNW 23 TRK 229 UNTIL 1200 TURN RIGHT DIRECT"
            },
            "transitions": [
                {
                    "name": "LAMKE",
                    "fixes": {
                        "LAMKE": "LAMKE RIGHT TURN INBOUNDCOURSE 229 ALT 2100 LEGDIST 4"
                    }
                }
            ]
        },
        {
            "name": "RNAV35",
            "fixes": {
                "DORLY": "DORLY AT OR ABOVE 2400",
                "LATNY": "LATNY 1700 RNW 35 TRK 351 UNTIL 398",
                "WIBSI": "WIBSI",
                "LAMKE": "OVERFLY LAMKE AT OR ABOVE 2100 HOLD AT LAMKE RIGHT TURN INBOUNDCOURSE 229 LEGDIST 4 FAF LATNY MAP RNW 35"
            },
            "transitions": [
                {
                    "name": "ALD",
                    "fixes": {
                        "ALD": "ALD",
                        "NIXGY": "NIXGY AT OR ABOVE 2400"
                    }
                },
                {
                    "name": "CHS",
                    "fixes": {
                        "CHS": "CHS",
                        "AHEFY": "AHEFY AT OR ABOVE 2400"
                    }
                }
            ]
        }
    ]
}