{
    "fixes": [
        {
            "name": "ANX",
            "lat": 39.095425,
            "lon": 94.12883611666666
        },
        {
            "name": "AUGIE",
            "lat": 38.246766666666666,
            "lon": 93.735975
        },
        {
            "name": "BEJCY",
            "lat": 38.595722216666665,
            "lon": 93.83703611666667
        },
        {
            "name": "CUCTO",
            "lat": 38.69354166666667,
            "lon": 93.81929721666667
        },
        {
            "name": "FALIS",
            "lat": 38.976002783333335,
            "lon": 93.76780278333334
        },
        {
            "name": "HODEN",
            "lat": 38.83105833333333,
            "lon": 94.00539721666667
        },
        {
            "name": "IYOCO",
            "lat": 39.01883611666667,
            "lon": 94.31891666666667
        },
        {
            "name": "JIDIR",
            "lat": 38.878166666666665,
            "lon": 93.78568333333334
        },
        {
            "name": "LUNCH",
            "lat": 38.86306388333333,
            "lon": 93.88515
        },
        {
            "name": "MAPCD",
            "lat": 38.78815278333333,
            "lon": 93.80703888333333
        },
        {
            "name": "OCTAM",
            "lat": 39.073911116666665,
            "lon": 93.79269166666667
        },
        {
            "name": "ROBDY",
            "lat": 39.20619443333333,
            "lon": 93.96863611666667
        },
        {
            "name": "YOCPU",
            "lat": 38.752344433333334,
            "lon": 93.80860833333334
        },
        {
            "name": "ZABAD",
            "lat": 38.9664,
            "lon": 93.99325833333333
        },
        {
            "name": "ZEVNI",
            "lat": 38.81993333333333,
            "lon": 93.79630556666666
        }
    ],
    "rnws": [
        "RNW 01",
        "RNW 14",
        "RNW 19",
        "RNW 32"
    ],
    "sids": [],
    "stars": [],
    "approaches": [
        {
            "name": "RNAV01",
            "fixes": {
                "BEJCY": "BEJCY AT OR ABOVE 3000",
                "CUCTO": "CUCTO 2500",
                "YOCPU": "YOCPU AT OR ABOVE 1360 RNW 01 TRK 007 UNTIL 1047",
                "FALIS": "OVERFLY FALIS AT OR ABOVE 3000 HOLD AT FALIS RIGHT TURN INBOUNDCOURSE 187 LEGDIST 4 FAF CUCTO MAP RNW 01"
            },
            "transitions": [
                {
                    "name": "AUGIE",
                    "fixes": {
                        "AUGIE": "AUGIE"
                    }
                },
                {
                    "name": "HODEN",
                    "fixes": {
                        "HODEN": "HODEN",
                        "BEJCY": "OVERFLY BEJCY AT OR ABOVE 3000 HOLD AT BEJCY RIGHT TURN INBOUNDCOURSE 007 ALT 3000 LEGDIST 4"
                    }
                }
            ]
        },
        {
            "name": "RNAV19",
            "fixes": {
                "FALIS": "FALIS AT OR ABOVE 3000",
                "JIDIR": "JIDIR 2500",
                "ZEVNI": "ZEVNI AT OR ABOVE 1360 RNW 19 TRK 187 UNTIL 1047",
                "BEJCY": "OVERFLY BEJCY AT OR ABOVE 3000 HOLD AT BEJCY RIGHT TURN INBOUNDCOURSE 007 LEGDIST 4 FAF JIDIR MAP RNW 19"
            },
            "transitions": [
                {
                    "name": "HODEN",
                    "fixes": {
                        "HODEN": "HODEN",
                        "FALIS": "OVERFLY FALIS AT OR ABOVE 3000 HOLD AT FALIS RIGHT TURN INBOUNDCOURSE 187 ALT 3000 LEGDIST 4"
                    }
                },
                {
                    "name": "OCTAM",
                    "fixes": {
                        "OCTAM": "OCTAM"
                    }
                }
            ]
        },
        {
            "name": "VORA01",
            "fixes": {
                "ZABAD": "ZABAD AT OR ABOVE 3100",
                "LUNCH": "LUNCH 3000 LUNCH AT OR ABOVE 3100 HOLD AT LUNCH RIGHT TURN INBOUNDCOURSE 134 ALT 3100 LEGTIME 1 FAF LUNCH MAP MAPCD",
                "MAPCD": "MAPCD 1380 RNW 01 TRK 134 UNTIL 1900 TURN RIGHT DIRECT"
            },
            "transitions": [
                {
                    "name": "ANX",
                    "fixes": {
                        "ANX": "ANX"
                    }
                },
                {
                    "name": "IYOCO",
                    "fixes": {
                        "IYOCO": "IYOCO"
                    }
                },
                {
                    "name": "ROBDY",
                    "fixes": {
                        "ROBDY": "ROBDY"
                    }
                }
            ]
        },
        {
            "name": "VORA14",
            "fixes": {
                "ZABAD": "ZABAD AT OR ABOVE 3100",
                "LUNCH": "LUNCH 3000 LUNCH AT OR ABOVE 3100 HOLD AT LUNCH RIGHT TURN INBOUNDCOURSE 134 ALT 3100 LEGTIME 1 FAF LUNCH MAP MAPCD",
                "MAPCD": "MAPCD 1380 RNW 14 TRK 134 UNTIL 1900 TURN RIGHT DIRECT"
            },
            "transitions": [
                {
                    "name": "ANX",
                    "fixes": {
                        "ANX": "ANX"
                    }
                },
                {
                    "name": "IYOCO",
                    "fixes": {
                        "IYOCO": "IYOCO"
                    }
                },
                {
                    "name": "ROBDY",
                    "fixes": {
                        "ROBDY": "ROBDY"
                    }
                }
            ]
        },
        {
            "name": "VORA19",
            "fixes": {
                "ZABAD": "ZABAD AT OR ABOVE 3100",
                "LUNCH": "LUNCH 3000 LUNCH AT OR ABOVE 3100 HOLD AT LUNCH RIGHT TURN INBOUNDCOURSE 134 ALT 3100 LEGTIME 1 FAF LUNCH MAP MAPCD",
                "MAPCD": "MAPCD 1380 RNW 19 TRK 134 UNTIL 1900 TURN RIGHT DIRECT"
            },
            "transitions": [
                {
                    "name": "ANX",
                    "fixes": {
                        "ANX": "ANX"
                    }
                },
                {
                    "name": "IYOCO",
                    "fixes": {
                        "IYOCO": "IYOCO"
                    }
                },
                {
                    "name": "ROBDY",
                    "fixes": {
                        "ROBDY": "ROBDY"
                    }
                }
            ]
        },
        {
            "name": "VORA32",
            "fixes": {
                "ZABAD": "ZABAD AT OR ABOVE 3100",
                "LUNCH": "LUNCH 3000 LUNCH AT OR ABOVE 3100 HOLD AT LUNCH RIGHT TURN INBOUNDCOURSE 134 ALT 3100 LEGTIME 1 FAF LUNCH MAP MAPCD",
                "MAPCD": "MAPCD 1380 RNW 32 TRK 134 UNTIL 1900 TURN RIGHT DIRECT"
            },
            "transitions": [
                {
                    "name": "ANX",
                    "fixes": {
                        "ANX": "ANX"
                    }
                },
                {
                    "name": "IYOCO",
                    "fixes": {
                        "IYOCO": "IYOCO"
                    }
                },
                {
                    "name": "ROBDY",
                    "fixes": {
                        "ROBDY": "ROBDY"
                    }
                }
            ]
        }
    ]
}