{
    "fixes": [
        {
            "name": "CUPLI",
            "lat": 34.94699721666667,
            "lon": 79.84764721666667
        },
        {
            "name": "HODOG",
            "lat": 34.78116111666667,
            "lon": 79.57625833333333
        },
        {
            "name": "NIGTE",
            "lat": 34.87151111666667,
            "lon": 79.72385833333334
        },
        {
            "name": "NIMDE",
            "lat": 35.011386116666664,
            "lon": 79.72916943333334
        },
        {
            "name": "RAEFO",
            "lat": 34.96265556666667,
            "lon": 79.38131388333333
        },
        {
            "name": "TOWEY",
            "lat": 34.64875,
            "lon": 79.62803888333333
        },
        {
            "name": "ZIPPO",
            "lat": 34.84135,
            "lon": 79.67451666666666
        }
    ],
    "rnws": [
        "RNW 04",
        "RNW 14",
        "RNW 22",
        "RNW 32"
    ],
    "sids": [],
    "stars": [],
    "approaches": [
        {
            "name": "RNAV32",
            "fixes": {
                "HODOG": "HODOG AT OR ABOVE 2100",
                "ZIPPO": "ZIPPO 1900",
                "NIGTE": "NIGTE AT OR ABOVE 900 RNW 32",
                "CUPLI": "CUPLI TURN RIGHT DIRECT",
                "NIMDE": "NIMDE",
                "RAEFO": "OVERFLY RAEFO AT OR ABOVE 2400 HOLD AT RAEFO RIGHT TURN INBOUNDCOURSE 095 LEGDIST 4 FAF ZIPPO MAP RNW 32"
            },
            "transitions": [
                {
                    "name": "HODOG",
                    "fixes": {
                        "HODOG": "HODOG RIGHT TURN INBOUNDCOURSE 315 ALT 2100 LEGDIST 4"
                    }
                },
                {
                    "name": "RAEFO",
                    "fixes": {
                        "RAEFO": "RAEFO"
                    }
                },
                {
                    "name": "TOWEY",
                    "fixes": {
                        "TOWEY": "TOWEY"
                    }
                }
            ]
        }
    ]
}