{
    "fixes": [
        {
            "name": "AF001",
            "lat": 44.60186581666667,
            "lon": 121.14655495
        },
        {
            "name": "AF002",
            "lat": 44.558168566666666,
            "lon": 121.01953115
        },
        {
            "name": "AF003",
            "lat": 44.49144673333333,
            "lon": 120.91416175
        },
        {
            "name": "AF004",
            "lat": 43.89508036666667,
            "lon": 121.1912565
        },
        {
            "name": "AF005",
            "lat": 43.9365381,
            "lon": 121.0451241
        },
        {
            "name": "AF006",
            "lat": 44.007971833333336,
            "lon": 120.92321615
        },
        {
            "name": "AF007",
            "lat": 44.17699871666667,
            "lon": 120.80300865
        },
        {
            "name": "AF008",
            "lat": 44.254817816666666,
            "lon": 120.7916386
        },
        {
            "name": "AF009",
            "lat": 44.33259413333333,
            "lon": 120.80358078333333
        },
        {
            "name": "AF010",
            "lat": 44.40984161666667,
            "lon": 121.38143368333333
        },
        {
            "name": "AF011",
            "lat": 44.3784441,
            "lon": 121.45653678333333
        },
        {
            "name": "AF012",
            "lat": 44.32953306666667,
            "lon": 121.51021921666667
        },
        {
            "name": "AF013",
            "lat": 44.331677866666666,
            "lon": 121.50864016666667
        },
        {
            "name": "AF014",
            "lat": 44.30312623333333,
            "lon": 121.52545666666667
        },
        {
            "name": "ARNOY",
            "lat": 44.50113888333333,
            "lon": 120.91117221666667
        },
        {
            "name": "ARUBE",
            "lat": 44.277141666666665,
            "lon": 121.09415278333333
        },
        {
            "name": "AWBAN",
            "lat": 44.122483333333335,
            "lon": 120.857575
        },
        {
            "name": "BODKE",
            "lat": 44.231155566666665,
            "lon": 121.09911943333333
        },
        {
            "name": "BOTTL",
            "lat": 44.36694721666667,
            "lon": 121.47263333333333
        },
        {
            "name": "CAGOG",
            "lat": 44.344475,
            "lon": 120.92868611666667
        },
        {
            "name": "CANAM",
            "lat": 44.323127783333334,
            "lon": 121.18578611666666
        },
        {
            "name": "CESUK",
            "lat": 44.297,
            "lon": 121.31628888333333
        },
        {
            "name": "COFMO",
            "lat": 44.331755566666665,
            "lon": 120.95996666666667
        },
        {
            "name": "COLTA",
            "lat": 44.185997216666664,
            "lon": 120.99850556666667
        },
        {
            "name": "COPPR",
            "lat": 43.97635,
            "lon": 121.56211943333334
        },
        {
            "name": "CUPRI",
            "lat": 44.61771111666667,
            "lon": 121.25385833333333
        },
        {
            "name": "CUXEP",
            "lat": 44.24285556666667,
            "lon": 120.89353056666667
        },
        {
            "name": "DOYEP",
            "lat": 44.193558333333335,
            "lon": 121.26441111666666
        },
        {
            "name": "DRACK",
            "lat": 44.114641666666664,
            "lon": 121.43313056666666
        },
        {
            "name": "DSD",
            "lat": 44.25276111666667,
            "lon": 121.30355278333333
        },
        {
            "name": "EENIE",
            "lat": 44.297811116666665,
            "lon": 121.6458
        },
        {
            "name": "FESOD",
            "lat": 43.890138883333336,
            "lon": 121.37890278333333
        },
        {
            "name": "FIXEV",
            "lat": 44.27108333333334,
            "lon": 120.96029166666666
        },
        {
            "name": "FLUSS",
            "lat": 44.43683611666667,
            "lon": 120.70012221666667
        },
        {
            "name": "FOVOK",
            "lat": 44.07425833333333,
            "lon": 121.19651388333334
        },
        {
            "name": "FUFQO",
            "lat": 44.082175,
            "lon": 120.67426943333334
        },
        {
            "name": "HAPET",
            "lat": 44.18703888333334,
            "lon": 121.000825
        },
        {
            "name": "HERBS",
            "lat": 44.418675,
            "lon": 121.28104166666667
        },
        {
            "name": "HITGU",
            "lat": 44.177138883333335,
            "lon": 120.76838056666666
        },
        {
            "name": "HOGEP",
            "lat": 44.237380566666666,
            "lon": 120.96317778333334
        },
        {
            "name": "HORRN",
            "lat": 44.48084166666667,
            "lon": 121.642425
        },
        {
            "name": "HUTKI",
            "lat": 44.34677778333333,
            "lon": 120.92301943333334
        },
        {
            "name": "IGISE",
            "lat": 44.20808888333333,
            "lon": 120.84855
        },
        {
            "name": "IYIVA",
            "lat": 44.521644433333336,
            "lon": 121.47448056666667
        },
        {
            "name": "JAPUV",
            "lat": 44.190997216666666,
            "lon": 121.01459443333333
        },
        {
            "name": "JEKMO",
            "lat": 44.20910833333333,
            "lon": 121.04995556666667
        },
        {
            "name": "JIDUT",
            "lat": 44.36824721666667,
            "lon": 121.06979721666667
        },
        {
            "name": "JJETT",
            "lat": 44.943175,
            "lon": 121.68232221666666
        },
        {
            "name": "JUGVU",
            "lat": 44.2148,
            "lon": 121.30011666666667
        },
        {
            "name": "JURDY",
            "lat": 44.36425833333333,
            "lon": 121.39769721666667
        },
        {
            "name": "JUSLU",
            "lat": 44.396672216666666,
            "lon": 121.16859166666667
        },
        {
            "name": "KICBY",
            "lat": 44.20089721666667,
            "lon": 121.28039721666667
        },
        {
            "name": "LOYCE",
            "lat": 44.25566943333333,
            "lon": 121.46850278333334
        },
        {
            "name": "NIFLI",
            "lat": 44.289886116666665,
            "lon": 120.73425556666666
        },
        {
            "name": "NISVE",
            "lat": 44.14329721666667,
            "lon": 121.28549166666667
        },
        {
            "name": "NUCLA",
            "lat": 43.97986388333333,
            "lon": 120.92204721666667
        },
        {
            "name": "OCTAD",
            "lat": 44.00553333333333,
            "lon": 121.35503056666667
        },
        {
            "name": "PI001",
            "lat": 44.25984165,
            "lon": 121.3843961
        },
        {
            "name": "PI002",
            "lat": 44.316299183333335,
            "lon": 121.44606315
        },
        {
            "name": "PI003",
            "lat": 44.2728399,
            "lon": 121.53458503333333
        },
        {
            "name": "PIBME",
            "lat": 44.22311388333333,
            "lon": 121.22625
        },
        {
            "name": "POCIT",
            "lat": 43.699375,
            "lon": 121.04784443333334
        },
        {
            "name": "POWEL",
            "lat": 44.17871388333333,
            "lon": 121.08646666666667
        },
        {
            "name": "PUKAJ",
            "lat": 44.02429166666667,
            "lon": 121.24005833333334
        },
        {
            "name": "RARBE",
            "lat": 44.3049,
            "lon": 121.026025
        },
        {
            "name": "RETDO",
            "lat": 44.30826388333333,
            "lon": 121.01778888333334
        },
        {
            "name": "RF001",
            "lat": 44.31950331666667,
            "lon": 120.96452655
        },
        {
            "name": "RF002",
            "lat": 44.31751668333333,
            "lon": 120.90106301666667
        },
        {
            "name": "RF003",
            "lat": 44.29935906666667,
            "lon": 120.84283856666667
        },
        {
            "name": "RF004",
            "lat": 44.267455733333335,
            "lon": 120.79762203333334
        },
        {
            "name": "RF005",
            "lat": 44.22606278333333,
            "lon": 120.77142061666666
        },
        {
            "name": "RF006",
            "lat": 44.28282488333333,
            "lon": 121.33452611666667
        },
        {
            "name": "RF007",
            "lat": 44.264531383333335,
            "lon": 121.34330246666667
        },
        {
            "name": "RF008",
            "lat": 44.23144826666667,
            "lon": 121.33150213333333
        },
        {
            "name": "RF009",
            "lat": 44.22161751666667,
            "lon": 121.31800556666667
        },
        {
            "name": "RF010",
            "lat": 44.17884936666667,
            "lon": 121.31380835
        },
        {
            "name": "RF011",
            "lat": 44.145655633333334,
            "lon": 121.33730063333333
        },
        {
            "name": "RF012",
            "lat": 44.108565283333334,
            "lon": 121.34173733333333
        },
        {
            "name": "RF013",
            "lat": 44.072982016666664,
            "lon": 121.32650673333333
        },
        {
            "name": "RF014",
            "lat": 44.044080816666664,
            "lon": 121.29385576666667
        },
        {
            "name": "RF015",
            "lat": 44.357991266666666,
            "lon": 121.04878043333333
        },
        {
            "name": "RF016",
            "lat": 44.34269853333333,
            "lon": 121.03543516666667
        },
        {
            "name": "RF017",
            "lat": 44.36820088333333,
            "lon": 121.11518088333334
        },
        {
            "name": "RF018",
            "lat": 44.371369433333335,
            "lon": 121.09239443333334
        },
        {
            "name": "RF019",
            "lat": 44.222259816666664,
            "lon": 120.86074123333333
        },
        {
            "name": "RF020",
            "lat": 44.23384446666667,
            "lon": 120.87605163333333
        },
        {
            "name": "RF021",
            "lat": 44.10133883333334,
            "lon": 121.1934662
        },
        {
            "name": "RF022",
            "lat": 44.12661716666667,
            "lon": 121.18036728333334
        },
        {
            "name": "RF023",
            "lat": 44.1485968,
            "lon": 121.15858685
        },
        {
            "name": "RF024",
            "lat": 44.16577545,
            "lon": 121.12960486666667
        },
        {
            "name": "RF025",
            "lat": 44.200012816666664,
            "lon": 120.98889031666667
        },
        {
            "name": "RF026",
            "lat": 44.215998733333336,
            "lon": 120.97048353333334
        },
        {
            "name": "RF027",
            "lat": 44.258378566666664,
            "lon": 120.96799906666666
        },
        {
            "name": "RF028",
            "lat": 44.2764738,
            "lon": 120.98255905
        },
        {
            "name": "RUSRE",
            "lat": 44.079738883333334,
            "lon": 120.85440833333334
        },
        {
            "name": "SAKKO",
            "lat": 44.111783333333335,
            "lon": 120.782325
        },
        {
            "name": "SIKZY",
            "lat": 44.22936943333333,
            "lon": 121.35858888333334
        },
        {
            "name": "SMRDK",
            "lat": 44.2862,
            "lon": 121.55652221666666
        },
        {
            "name": "SNOKY",
            "lat": 44.229933333333335,
            "lon": 121.67312221666667
        },
        {
            "name": "TABSE",
            "lat": 44.28290833333333,
            "lon": 121.53165
        },
        {
            "name": "TIKNE",
            "lat": 44.203597216666665,
            "lon": 121.27378333333333
        },
        {
            "name": "TISTE",
            "lat": 44.17643888333333,
            "lon": 120.97725556666667
        },
        {
            "name": "UCIBA",
            "lat": 44.254163883333334,
            "lon": 121.16186943333334
        },
        {
            "name": "UNUNE",
            "lat": 44.50290556666667,
            "lon": 121.63015556666667
        },
        {
            "name": "URBIA",
            "lat": 44.015697216666666,
            "lon": 121.19335833333334
        },
        {
            "name": "URHAZ",
            "lat": 44.35897778333333,
            "lon": 121.13477778333333
        },
        {
            "name": "VERNN",
            "lat": 44.31071111666667,
            "lon": 121.01178056666667
        },
        {
            "name": "VUCUV",
            "lat": 44.316225,
            "lon": 121.27837221666667
        },
        {
            "name": "WALDO",
            "lat": 44.741894433333336,
            "lon": 122.03536666666666
        },
        {
            "name": "WEGBO",
            "lat": 44.21905,
            "lon": 121.23616388333333
        },
        {
            "name": "WELPU",
            "lat": 44.185575,
            "lon": 121.31763333333333
        },
        {
            "name": "WISSL",
            "lat": 44.59705278333333,
            "lon": 121.4164
        },
        {
            "name": "WONEK",
            "lat": 44.243794433333335,
            "lon": 121.34026111666667
        },
        {
            "name": "WUMUT",
            "lat": 44.01845556666667,
            "lon": 121.13262221666666
        },
        {
            "name": "WURUK",
            "lat": 44.41209166666667,
            "lon": 120.92114443333334
        },
        {
            "name": "WUSIV",
            "lat": 44.28974721666667,
            "lon": 121.00449443333333
        },
        {
            "name": "YIGUS",
            "lat": 44.32453056666667,
            "lon": 121.03198056666666
        },
        {
            "name": "YONKU",
            "lat": 44.514325,
            "lon": 121.26800556666667
        },
        {
            "name": "YUBUB",
            "lat": 44.38549166666667,
            "lon": 120.82741943333333
        },
        {
            "name": "YUNNU",
            "lat": 44.1096,
            "lon": 121.30253333333333
        },
        {
            "name": "ZETBU",
            "lat": 44.290058333333334,
            "lon": 121.06248888333333
        },
        {
            "name": "ZEVAD",
            "lat": 44.3032,
            "lon": 121.26034443333333
        },
        {
            "name": "ZIBID",
            "lat": 44.16268611666667,
            "lon": 121.387675
        }
    ],
    "rnws": [
        "RNW 05",
        "RNW 11",
        "RNW 23",
        "RNW 29"
    ],
    "sids": [],
    "stars": [],
    "approaches": [
        {
            "name": "ILS23",
            "fixes": {
                "HUTKI": "HUTKI AT OR ABOVE 5600",
                "VERNN": "VERNN 5100 RNW 23 TRK 226 UNTIL 3700 TURN RIGHT HDG 320 INTERCEPT RADIAL 348 TO",
                "CUPRI": "CUPRI CUPRI AT OR ABOVE 7000 HOLD AT CUPRI RIGHT TURN INBOUNDCOURSE 168 LEGTIME 1 FAF VERNN MAP RNW 23"
            },
            "transitions": [
                {
                    "name": "CUPRI",
                    "fixes": {
                        "CUPRI": "CUPRI",
                        "AF001": "AF001",
                        "AF002": "AF002",
                        "AF003": "AF003",
                        "YUBUB": "YUBUB AT OR ABOVE 7100"
                    }
                },
                {
                    "name": "FESOD",
                    "fixes": {
                        "FESOD": "FESOD",
                        "AF004": "AF004",
                        "AF005": "AF005",
                        "AF006": "AF006",
                        "RUSRE": "RUSRE AT OR ABOVE 7700",
                        "AF007": "AF007",
                        "AF008": "AF008",
                        "AF009": "AF009",
                        "YUBUB": "YUBUB AT OR ABOVE 7100"
                    }
                },
                {
                    "name": "FLUSS",
                    "fixes": {
                        "FLUSS": "FLUSS",
                        "YUBUB": "YUBUB AT OR ABOVE 7100"
                    }
                }
            ]
        },
        {
            "name": "RNAVY05",
            "fixes": {
                "ZIBID": "ZIBID AT OR ABOVE 5900",
                "KICBY": "KICBY 5000",
                "PIBME": "PIBME AT OR ABOVE 4140 RNW 05 TRK 046 UNTIL 3275",
                "COFMO": "COFMO TURN RIGHT DIRECT",
                "SAKKO": "OVERFLY SAKKO AT OR ABOVE 9500 HOLD AT SAKKO RIGHT TURN INBOUNDCOURSE 276 ALT 9500 LEGDIST 7 FAF KICBY MAP RNW 05"
            },
            "transitions": [
                {
                    "name": "COPPR",
                    "fixes": {
                        "COPPR": "COPPR",
                        "OCTAD": "OCTAD AT OR ABOVE 8800"
                    }
                },
                {
                    "name": "CUPRI",
                    "fixes": {
                        "CUPRI": "CUPRI",
                        "SMRDK": "SMRDK AT OR ABOVE 6800"
                    }
                },
                {
                    "name": "HORRN",
                    "fixes": {
                        "HORRN": "HORRN",
                        "SMRDK": "SMRDK AT OR ABOVE 8700"
                    }
                },
                {
                    "name": "SAKKO",
                    "fixes": {
                        "SAKKO": "SAKKO",
                        "WUMUT": "WUMUT AT OR ABOVE 6800",
                        "OCTAD": "OCTAD AT OR ABOVE 6800"
                    }
                },
                {
                    "name": "WISSL",
                    "fixes": {
                        "WISSL": "WISSL",
                        "SMRDK": "SMRDK AT OR ABOVE 8700"
                    }
                }
            ]
        },
        {
            "name": "RNAVZ05",
            "fixes": {
                "WEGBO": "WEGBO 4300 RNW 05",
                "RARBE": "RARBE",
                "RF001": "RF001",
                "RF002": "RF002",
                "RF003": "RF003",
                "RF004": "RF004",
                "RF005": "RF005",
                "HITGU": "HITGU",
                "SAKKO": "OVERFLY SAKKO AT OR ABOVE 9500 HOLD AT SAKKO RIGHT TURN INBOUNDCOURSE 276 ALT 9500 LEGDIST 7 FAF WEGBO MAP RNW 05"
            },
            "transitions": [
                {
                    "name": "ARNOY",
                    "fixes": {
                        "ARNOY": "ARNOY",
                        "VUCUV": "VUCUV AT OR ABOVE 7400",
                        "CESUK": "CESUK AT OR ABOVE 6900 SPEED 180",
                        "RF006": "RF006",
                        "RF007": "RF007",
                        "WONEK": "WONEK AT OR ABOVE 6000",
                        "RF008": "RF008",
                        "RF009": "RF009",
                        "JUGVU": "JUGVU AT OR ABOVE 5200"
                    }
                },
                {
                    "name": "EENIE",
                    "fixes": {
                        "EENIE": "EENIE",
                        "LOYCE": "LOYCE AT OR ABOVE 6500",
                        "SIKZY": "SIKZY AT OR ABOVE 5800 SPEED 180",
                        "JUGVU": "JUGVU AT OR ABOVE 5200"
                    }
                },
                {
                    "name": "FESOD",
                    "fixes": {
                        "FESOD": "FESOD",
                        "OCTAD": "OCTAD AT OR ABOVE 9000",
                        "YUNNU": "YUNNU AT OR ABOVE 5900",
                        "NISVE": "NISVE AT OR ABOVE 5800 SPEED 180",
                        "DOYEP": "DOYEP AT OR ABOVE 4900"
                    }
                },
                {
                    "name": "WISSL",
                    "fixes": {
                        "WISSL": "WISSL",
                        "JURDY": "JURDY AT OR ABOVE 7000 SPEED 180",
                        "WONEK": "WONEK AT OR ABOVE 6000",
                        "RF008": "RF008",
                        "RF009": "RF009",
                        "JUGVU": "JUGVU AT OR ABOVE 5200"
                    }
                }
            ]
        },
        {
            "name": "RNAV11",
            "fixes": {
                "JURDY": "JURDY AT OR ABOVE 6300",
                "ZEVAD": "ZEVAD 4700 RNW 11 TRK 108 UNTIL 3600",
                "URBIA": "OVERFLY URBIA AT OR ABOVE 8500 HOLD AT URBIA RIGHT TURN INBOUNDCOURSE 306 ALT 8500 LEGDIST 7 FAF ZEVAD MAP RNW 11"
            },
            "transitions": [
                {
                    "name": "DRACK",
                    "fixes": {
                        "DRACK": "DRACK",
                        "SMRDK": "SMRDK AT OR ABOVE 10300"
                    }
                },
                {
                    "name": "JJETT",
                    "fixes": {
                        "JJETT": "JJETT",
                        "IYIVA": "IYIVA AT OR ABOVE 8000"
                    }
                },
                {
                    "name": "SNOKY",
                    "fixes": {
                        "SNOKY": "SNOKY",
                        "SMRDK": "SMRDK AT OR ABOVE 10300"
                    }
                },
                {
                    "name": "WALDO",
                    "fixes": {
                        "WALDO": "WALDO",
                        "UNUNE": "UNUNE AT OR ABOVE 12100"
                    }
                },
                {
                    "name": "YONKU",
                    "fixes": {
                        "YONKU": "YONKU"
                    }
                }
            ]
        },
        {
            "name": "RNAVY23",
            "fixes": {
                "YUBUB": "YUBUB AT OR ABOVE 6600",
                "HUTKI": "HUTKI AT OR ABOVE 5800",
                "VERNN": "VERNN 5100",
                "ARUBE": "ARUBE AT OR ABOVE 3800 RNW 23 TRK 226 UNTIL 3267",
                "WELPU": "WELPU",
                "URBIA": "OVERFLY URBIA AT OR ABOVE 8500 HOLD AT URBIA RIGHT TURN INBOUNDCOURSE 306 LEGDIST 7 FAF VERNN MAP RNW 23"
            },
            "transitions": [
                {
                    "name": "CUPRI",
                    "fixes": {
                        "CUPRI": "CUPRI",
                        "ARNOY": "ARNOY AT OR ABOVE 7500"
                    }
                },
                {
                    "name": "FESOD",
                    "fixes": {
                        "FESOD": "FESOD",
                        "NIFLI": "NIFLI AT OR ABOVE 7800"
                    }
                },
                {
                    "name": "HORRN",
                    "fixes": {
                        "HORRN": "HORRN",
                        "ARNOY": "ARNOY AT OR ABOVE 8000"
                    }
                },
                {
                    "name": "SAKKO",
                    "fixes": {
                        "SAKKO": "SAKKO",
                        "NIFLI": "NIFLI AT OR ABOVE 7000"
                    }
                },
                {
                    "name": "URBIA",
                    "fixes": {
                        "URBIA": "URBIA",
                        "NIFLI": "NIFLI AT OR ABOVE 7500"
                    }
                }
            ]
        },
        {
            "name": "RNAVZ23",
            "fixes": {
                "ZETBU": "ZETBU 4300 RNW 23",
                "TIKNE": "TIKNE",
                "RF010": "RF010",
                "RF011": "RF011",
                "RF012": "RF012",
                "RF013": "RF013",
                "RF014": "RF014",
                "PUKAJ": "PUKAJ",
                "URBIA": "OVERFLY URBIA AT OR ABOVE 8500 HOLD AT URBIA RIGHT TURN INBOUNDCOURSE 306 ALT 8500 LEGDIST 7 FAF ZETBU MAP RNW 23"
            },
            "transitions": [
                {
                    "name": "ARNOY",
                    "fixes": {
                        "ARNOY": "ARNOY",
                        "WURUK": "WURUK AT OR ABOVE 7900",
                        "CAGOG": "CAGOG AT OR ABOVE 6200 SPEED 180",
                        "RETDO": "RETDO AT OR ABOVE 5000"
                    }
                },
                {
                    "name": "CUPRI",
                    "fixes": {
                        "CUPRI": "CUPRI",
                        "JUSLU": "JUSLU AT OR ABOVE 6600 SPEED 180",
                        "JIDUT": "JIDUT AT OR ABOVE 6100",
                        "RF015": "RF015",
                        "RF016": "RF016",
                        "YIGUS": "YIGUS AT OR ABOVE 5100"
                    }
                },
                {
                    "name": "DSD",
                    "fixes": {
                        "DSD": "DSD",
                        "CANAM": "CANAM AT OR ABOVE 6700",
                        "URHAZ": "URHAZ AT OR ABOVE 6300 SPEED 180",
                        "RF017": "RF017",
                        "RF018": "RF018",
                        "JIDUT": "JIDUT AT OR ABOVE 6100",
                        "RF015": "RF015",
                        "RF016": "RF016",
                        "YIGUS": "YIGUS AT OR ABOVE 5100"
                    }
                },
                {
                    "name": "SAKKO",
                    "fixes": {
                        "SAKKO": "SAKKO",
                        "IGISE": "IGISE AT OR ABOVE 6600",
                        "RF019": "RF019",
                        "RF020": "RF020",
                        "CUXEP": "CUXEP AT OR ABOVE 6300",
                        "FIXEV": "FIXEV AT OR ABOVE 5800 SPEED 180",
                        "WUSIV": "WUSIV AT OR ABOVE 5100"
                    }
                },
                {
                    "name": "URBIA",
                    "fixes": {
                        "URBIA": "URBIA",
                        "FOVOK": "FOVOK AT OR ABOVE 7000",
                        "RF021": "RF021",
                        "RF022": "RF022",
                        "RF023": "RF023",
                        "RF024": "RF024",
                        "POWEL": "POWEL AT OR ABOVE 6600",
                        "JAPUV": "JAPUV AT OR ABOVE 6300 SPEED 180",
                        "RF025": "RF025",
                        "RF026": "RF026",
                        "HOGEP": "HOGEP AT OR ABOVE 6300",
                        "RF027": "RF027",
                        "RF028": "RF028",
                        "WUSIV": "WUSIV AT OR ABOVE 5100"
                    }
                },
                {
                    "name": "WISSL",
                    "fixes": {
                        "WISSL": "WISSL",
                        "JUSLU": "JUSLU AT OR ABOVE 6600 SPEED 180",
                        "JIDUT": "JIDUT AT OR ABOVE 6100",
                        "RF015": "RF015",
                        "RF016": "RF016",
                        "YIGUS": "YIGUS AT OR ABOVE 5100"
                    }
                }
            ]
        },
        {
            "name": "RNAVY29",
            "fixes": {
                "AWBAN": "AWBAN AT OR ABOVE 7600",
                "TISTE": "TISTE 6400",
                "HAPET": "HAPET AT OR ABOVE 5920",
                "JEKMO": "JEKMO AT OR ABOVE 4900",
                "BODKE": "BODKE AT OR ABOVE 3900 RNW 29 TRK 288 UNTIL 4000",
                "YONKU": "OVERFLY YONKU AT OR ABOVE 7000 HOLD AT YONKU RIGHT TURN INBOUNDCOURSE 168 LEGDIST 7 FAF TISTE MAP RNW 29"
            },
            "transitions": [
                {
                    "name": "DSD",
                    "fixes": {
                        "DSD": "DSD",
                        "AWBAN": "OVERFLY AWBAN AT OR ABOVE 7600 HOLD AT AWBAN RIGHT TURN INBOUNDCOURSE 288 ALT 7600 LEGDIST 7"
                    }
                },
                {
                    "name": "FUFQO",
                    "fixes": {
                        "FUFQO": "FUFQO"
                    }
                },
                {
                    "name": "POCIT",
                    "fixes": {
                        "POCIT": "POCIT",
                        "NUCLA": "NUCLA AT OR ABOVE 8800"
                    }
                }
            ]
        },
        {
            "name": "RNAVZ29",
            "fixes": {
                "AWBAN": "AWBAN AT OR ABOVE 7600",
                "COLTA": "COLTA 6300 RNW 29 TRK 288 UNTIL 4000",
                "YONKU": "OVERFLY YONKU AT OR ABOVE 7000 HOLD AT YONKU RIGHT TURN INBOUNDCOURSE 168 LEGDIST 7 FAF COLTA MAP RNW 29"
            },
            "transitions": [
                {
                    "name": "DSD",
                    "fixes": {
                        "DSD": "DSD",
                        "AWBAN": "OVERFLY AWBAN AT OR ABOVE 7600 HOLD AT AWBAN RIGHT TURN INBOUNDCOURSE 288 ALT 7600 LEGDIST 7"
                    }
                },
                {
                    "name": "FUFQO",
                    "fixes": {
                        "FUFQO": "FUFQO"
                    }
                },
                {
                    "name": "POCIT",
                    "fixes": {
                        "POCIT": "POCIT",
                        "NUCLA": "NUCLA AT OR ABOVE 8800"
                    }
                }
            ]
        },
        {
            "name": "VORA05",
            "fixes": {
                "DSD": "DSD 5900 DSD TURN RIGHT DIRECT DSD AT OR ABOVE 7900 HOLD AT DSD RIGHT TURN INBOUNDCOURSE 168 LEGTIME 1 FAF DSD MAP UCIBA",
                "UCIBA": "UCIBA 3760 RNW 05 TRK 071 UNTIL 4100 TURN RIGHT HDG 220 INTERCEPT RADIAL 323 TO"
            },
            "transitions": [
                {
                    "name": "DSD",
                    "fixes": {
                        "PI001": "PI001 AT OR ABOVE 7900 SPEED 210",
                        "PI002": "OVERFLY PI002 AT OR ABOVE 7900 SPEED 210",
                        "PI003": "PI003 AT OR ABOVE 7900 SPEED 210"
                    }
                },
                {
                    "name": "EENIE",
                    "fixes": {
                        "EENIE": "EENIE",
                        "TABSE": "TABSE AT OR ABOVE 7900"
                    }
                },
                {
                    "name": "HERBS",
                    "fixes": {
                        "HERBS": "HERBS",
                        "AF010": "AF010",
                        "AF011": "AF011",
                        "AF012": "AF012",
                        "TABSE": "TABSE AT OR ABOVE 7900"
                    }
                },
                {
                    "name": "HORRN",
                    "fixes": {
                        "HORRN": "HORRN",
                        "BOTTL": "BOTTL AT OR ABOVE 9000",
                        "AF013": "AF013",
                        "AF014": "AF014",
                        "TABSE": "TABSE AT OR ABOVE 7900"
                    }
                }
            ]
        },
        {
            "name": "VORA11",
            "fixes": {
                "DSD": "DSD 5900 DSD TURN RIGHT DIRECT DSD AT OR ABOVE 7900 HOLD AT DSD RIGHT TURN INBOUNDCOURSE 168 LEGTIME 1 FAF DSD MAP UCIBA",
                "UCIBA": "UCIBA 3760 RNW 11 TRK 071 UNTIL 4100 TURN RIGHT HDG 220 INTERCEPT RADIAL 323 TO"
            },
            "transitions": [
                {
                    "name": "DSD",
                    "fixes": {
                        "PI001": "PI001 AT OR ABOVE 7900 SPEED 210",
                        "PI002": "OVERFLY PI002 AT OR ABOVE 7900 SPEED 210",
                        "PI003": "PI003 AT OR ABOVE 7900 SPEED 210"
                    }
                },
                {
                    "name": "EENIE",
                    "fixes": {
                        "EENIE": "EENIE",
                        "TABSE": "TABSE AT OR ABOVE 7900"
                    }
                },
                {
                    "name": "HERBS",
                    "fixes": {
                        "HERBS": "HERBS",
                        "AF010": "AF010",
                        "AF011": "AF011",
                        "AF012": "AF012",
                        "TABSE": "TABSE AT OR ABOVE 7900"
                    }
                },
                {
                    "name": "HORRN",
                    "fixes": {
                        "HORRN": "HORRN",
                        "BOTTL": "BOTTL AT OR ABOVE 9000",
                        "AF013": "AF013",
                        "AF014": "AF014",
                        "TABSE": "TABSE AT OR ABOVE 7900"
                    }
                }
            ]
        },
        {
            "name": "VORA23",
            "fixes": {
                "DSD": "DSD 5900 DSD TURN RIGHT DIRECT DSD AT OR ABOVE 7900 HOLD AT DSD RIGHT TURN INBOUNDCOURSE 168 LEGTIME 1 FAF DSD MAP UCIBA",
                "UCIBA": "UCIBA 3760 RNW 23 TRK 071 UNTIL 4100 TURN RIGHT HDG 220 INTERCEPT RADIAL 323 TO"
            },
            "transitions": [
                {
                    "name": "DSD",
                    "fixes": {
                        "PI001": "PI001 AT OR ABOVE 7900 SPEED 210",
                        "PI002": "OVERFLY PI002 AT OR ABOVE 7900 SPEED 210",
                        "PI003": "PI003 AT OR ABOVE 7900 SPEED 210"
                    }
                },
                {
                    "name": "EENIE",
                    "fixes": {
                        "EENIE": "EENIE",
                        "TABSE": "TABSE AT OR ABOVE 7900"
                    }
                },
                {
                    "name": "HERBS",
                    "fixes": {
                        "HERBS": "HERBS",
                        "AF010": "AF010",
                        "AF011": "AF011",
                        "AF012": "AF012",
                        "TABSE": "TABSE AT OR ABOVE 7900"
                    }
                },
                {
                    "name": "HORRN",
                    "fixes": {
                        "HORRN": "HORRN",
                        "BOTTL": "BOTTL AT OR ABOVE 9000",
                        "AF013": "AF013",
                        "AF014": "AF014",
                        "TABSE": "TABSE AT OR ABOVE 7900"
                    }
                }
            ]
        },
        {
            "name": "VORA29",
            "fixes": {
                "DSD": "DSD 5900 DSD TURN RIGHT DIRECT DSD AT OR ABOVE 7900 HOLD AT DSD RIGHT TURN INBOUNDCOURSE 168 LEGTIME 1 FAF DSD MAP UCIBA",
                "UCIBA": "UCIBA 3760 RNW 29 TRK 071 UNTIL 4100 TURN RIGHT HDG 220 INTERCEPT RADIAL 323 TO"
            },
            "transitions": [
                {
                    "name": "DSD",
                    "fixes": {
                        "PI001": "PI001 AT OR ABOVE 7900 SPEED 210",
                        "PI002": "OVERFLY PI002 AT OR ABOVE 7900 SPEED 210",
                        "PI003": "PI003 AT OR ABOVE 7900 SPEED 210"
                    }
                },
                {
                    "name": "EENIE",
                    "fixes": {
                        "EENIE": "EENIE",
                        "TABSE": "TABSE AT OR ABOVE 7900"
                    }
                },
                {
                    "name": "HERBS",
                    "fixes": {
                        "HERBS": "HERBS",
                        "AF010": "AF010",
                        "AF011": "AF011",
                        "AF012": "AF012",
                        "TABSE": "TABSE AT OR ABOVE 7900"
                    }
                },
                {
                    "name": "HORRN",
                    "fixes": {
                        "HORRN": "HORRN",
                        "BOTTL": "BOTTL AT OR ABOVE 9000",
                        "AF013": "AF013",
                        "AF014": "AF014",
                        "TABSE": "TABSE AT OR ABOVE 7900"
                    }
                }
            ]
        }
    ]
}