{
    "fixes": [
        {
            "name": "CELSI",
            "lat": 45.53861666666667,
            "lon": 92.68916388333334
        },
        {
            "name": "INNAA",
            "lat": 45.608641666666664,
            "lon": 92.90877778333333
        },
        {
            "name": "JALEP",
            "lat": 45.45871111666666,
            "lon": 93.02093333333333
        },
        {
            "name": "LENCK",
            "lat": 45.498783333333336,
            "lon": 92.85516666666666
        },
        {
            "name": "WENIB",
            "lat": 46.067708333333336,
            "lon": 93.13504721666666
        },
        {
            "name": "ZONRI",
            "lat": 45.66781388333333,
            "lon": 92.93777221666667
        }
    ],
    "rnws": [
        "RNW 16",
        "RNW 34"
    ],
    "sids": [],
    "stars": [],
    "approaches": [
        {
            "name": "RNAV34",
            "fixes": {
                "LENCK": "LENCK AT OR ABOVE 3000",
                "INNAA": "INNAA 2700",
                "ZONRI": "ZONRI AT OR ABOVE 1440 RNW 34 TRK 339 UNTIL 1210",
                "WENIB": "OVERFLY WENIB AT OR ABOVE 3000 HOLD AT WENIB RIGHT TURN INBOUNDCOURSE 116 LEGDIST 4 FAF INNAA MAP RNW 34"
            },
            "transitions": [
                {
                    "name": "CELSI",
                    "fixes": {
                        "CELSI": "CELSI"
                    }
                },
                {
                    "name": "JALEP",
                    "fixes": {
                        "JALEP": "JALEP"
                    }
                },
                {
                    "name": "LENCK",
                    "fixes": {
                        "LENCK": "LENCK RIGHT TURN INBOUNDCOURSE 339 ALT 3000 LEGDIST 4"
                    }
                }
            ]
        }
    ]
}