{
    "fixes": [
        {
            "name": "DULPE",
            "lat": 48.86218611666666,
            "lon": 95.24226666666667
        },
        {
            "name": "DUSEC",
            "lat": 49.008008333333336,
            "lon": 95.43743333333333
        },
        {
            "name": "EPAME",
            "lat": 48.786911116666666,
            "lon": 95.14214166666666
        },
        {
            "name": "FAPAK",
            "lat": 48.73196943333333,
            "lon": 95.23678056666667
        },
        {
            "name": "GAYCE",
            "lat": 48.841775,
            "lon": 95.04729443333333
        },
        {
            "name": "HAPKO",
            "lat": 49.09331666666667,
            "lon": 95.55229166666666
        },
        {
            "name": "HILOD",
            "lat": 48.77616388333333,
            "lon": 95.12789443333334
        },
        {
            "name": "JOVIN",
            "lat": 49.19587778333333,
            "lon": 95.37633888333333
        },
        {
            "name": "PI001",
            "lat": 48.81833843333333,
            "lon": 95.18440058333333
        },
        {
            "name": "PI002",
            "lat": 48.7468461,
            "lon": 95.19198218333334
        },
        {
            "name": "PI003",
            "lat": 48.73647378333333,
            "lon": 95.076731
        },
        {
            "name": "PUCKT",
            "lat": 48.68542778333333,
            "lon": 95.00788056666667
        },
        {
            "name": "ROADD",
            "lat": 48.862377783333336,
            "lon": 95.24252221666667
        },
        {
            "name": "TEVPE",
            "lat": 49.022561116666665,
            "lon": 95.67357221666667
        },
        {
            "name": "WEPVO",
            "lat": 48.97095556666667,
            "lon": 95.38768333333333
        }
    ],
    "rnws": [
        "RNW 04",
        "RNW 13",
        "RNW 22",
        "RNW 31"
    ],
    "sids": [],
    "stars": [],
    "approaches": [
        {
            "name": "ILS31",
            "fixes": {
                "HILOD": "HILOD AT OR ABOVE 3000",
                "ROADD": "ROADD 2997 RNW 31 TRK 315 UNTIL 2900 TURN LEFT DIRECT ROADD AT OR ABOVE 3000 HOLD AT ROADD LEFT TURN INBOUNDCOURSE 315 LEGTIME 1 FAF ROADD MAP RNW 31"
            },
            "transitions": [
                {
                    "name": "PUCKT",
                    "fixes": {
                        "PUCKT": "PUCKT"
                    }
                },
                {
                    "name": "ROADD",
                    "fixes": {
                        "PI001": "PI001 AT OR ABOVE 3000 SPEED 210",
                        "PI002": "OVERFLY PI002 AT OR ABOVE 3000 SPEED 210",
                        "PI003": "PI003 AT OR ABOVE 3000 SPEED 210"
                    }
                }
            ]
        },
        {
            "name": "RNAV13",
            "fixes": {
                "HAPKO": "HAPKO AT OR ABOVE 3000",
                "DUSEC": "DUSEC 2700",
                "WEPVO": "WEPVO AT OR ABOVE 1740 RNW 13 TRK 135 UNTIL 1276",
                "EPAME": "OVERFLY EPAME AT OR ABOVE 3000 HOLD AT EPAME RIGHT TURN INBOUNDCOURSE 315 LEGDIST 4 FAF DUSEC MAP RNW 13"
            },
            "transitions": [
                {
                    "name": "HAPKO",
                    "fixes": {
                        "HAPKO": "HAPKO RIGHT TURN INBOUNDCOURSE 134 ALT 3000 LEGDIST 4"
                    }
                },
                {
                    "name": "JOVIN",
                    "fixes": {
                        "JOVIN": "JOVIN"
                    }
                },
                {
                    "name": "TEVPE",
                    "fixes": {
                        "TEVPE": "TEVPE"
                    }
                }
            ]
        },
        {
            "name": "RNAV31",
            "fixes": {
                "EPAME": "EPAME AT OR ABOVE 3000",
                "DULPE": "DULPE 3000 RNW 31 TRK 315 UNTIL 1326",
                "HAPKO": "OVERFLY HAPKO AT OR ABOVE 3000 HOLD AT HAPKO RIGHT TURN INBOUNDCOURSE 134 LEGDIST 4 FAF DULPE MAP RNW 31"
            },
            "transitions": [
                {
                    "name": "EPAME",
                    "fixes": {
                        "EPAME": "EPAME RIGHT TURN INBOUNDCOURSE 315 ALT 3000 LEGDIST 4"
                    }
                },
                {
                    "name": "FAPAK",
                    "fixes": {
                        "FAPAK": "FAPAK"
                    }
                },
                {
                    "name": "GAYCE",
                    "fixes": {
                        "GAYCE": "GAYCE"
                    }
                }
            ]
        }
    ]
}