{
    "fixes": [
        {
            "name": "ADENA",
            "lat": 34.73299166666666,
            "lon": 81.54281943333334
        },
        {
            "name": "ANDYS",
            "lat": 34.37075,
            "lon": 81.14383611666666
        },
        {
            "name": "ARGAL",
            "lat": 36.171286116666664,
            "lon": 78.16536388333333
        },
        {
            "name": "AUDII",
            "lat": 36.20214166666667,
            "lon": 78.81007221666667
        },
        {
            "name": "AZELL",
            "lat": 35.856597216666664,
            "lon": 80.2367
        },
        {
            "name": "BARMY",
            "lat": 35.37482778333333,
            "lon": 79.84274721666667
        },
        {
            "name": "BATTA",
            "lat": 35.59185278333333,
            "lon": 79.08783056666667
        },
        {
            "name": "BAZOO",
            "lat": 35.975594433333335,
            "lon": 85.87006111666666
        },
        {
            "name": "BEAVY",
            "lat": 34.567991666666664,
            "lon": 81.10156666666667
        },
        {
            "name": "BENBY",
            "lat": 35.748525,
            "lon": 81.9213
        },
        {
            "name": "BFORE",
            "lat": 36.11946111666666,
            "lon": 83.69846943333333
        },
        {
            "name": "BIFFL",
            "lat": 35.05194443333333,
            "lon": 80.41861943333333
        },
        {
            "name": "BIFFS",
            "lat": 34.470561116666666,
            "lon": 81.87741943333333
        },
        {
            "name": "BNA",
            "lat": 36.13696111666667,
            "lon": 86.68477221666667
        },
        {
            "name": "BOBZY",
            "lat": 35.185566666666666,
            "lon": 81.63413611666667
        },
        {
            "name": "BRAYN",
            "lat": 35.172902783333335,
            "lon": 82.21186943333333
        },
        {
            "name": "BZM",
            "lat": 35.86885278333333,
            "lon": 81.24052778333333
        },
        {
            "name": "CEGAL",
            "lat": 36.76976943333333,
            "lon": 81.12348611666667
        },
        {
            "name": "CHPTR",
            "lat": 34.59299443333333,
            "lon": 81.44567221666667
        },
        {
            "name": "CLAWD",
            "lat": 36.419161116666665,
            "lon": 81.14715278333334
        },
        {
            "name": "CLT",
            "lat": 35.19028888333333,
            "lon": 80.95175278333333
        },
        {
            "name": "COLID",
            "lat": 35.456316666666666,
            "lon": 80.58668333333334
        },
        {
            "name": "COPEL",
            "lat": 34.370469433333334,
            "lon": 79.85943333333333
        },
        {
            "name": "CUBIM",
            "lat": 36.87704166666666,
            "lon": 83.005825
        },
        {
            "name": "DEBIE",
            "lat": 34.93029443333333,
            "lon": 81.80890556666667
        },
        {
            "name": "DOOGE",
            "lat": 36.81081388333333,
            "lon": 82.587325
        },
        {
            "name": "DURST",
            "lat": 35.704222216666665,
            "lon": 79.26821666666666
        },
        {
            "name": "ESTRR",
            "lat": 35.001030566666664,
            "lon": 81.592975
        },
        {
            "name": "EYPAD",
            "lat": 34.520041666666664,
            "lon": 81.50539443333334
        },
        {
            "name": "FILDS",
            "lat": 36.586655566666664,
            "lon": 80.74473888333333
        },
        {
            "name": "FLO",
            "lat": 34.23296943333333,
            "lon": 79.65716111666667
        },
        {
            "name": "FLYYN",
            "lat": 36.10480556666667,
            "lon": 81.05034166666667
        },
        {
            "name": "GANDT",
            "lat": 33.772669433333334,
            "lon": 81.71526111666667
        },
        {
            "name": "GILFN",
            "lat": 34.79561111666666,
            "lon": 80.96706666666667
        },
        {
            "name": "GINNN",
            "lat": 35.04259166666667,
            "lon": 81.46863333333333
        },
        {
            "name": "GIPPR",
            "lat": 35.20969443333333,
            "lon": 79.98552778333334
        },
        {
            "name": "GRD",
            "lat": 34.25156666666667,
            "lon": 82.15415
        },
        {
            "name": "GSO",
            "lat": 36.04569166666667,
            "lon": 79.97637221666666
        },
        {
            "name": "GULFY",
            "lat": 35.300213883333335,
            "lon": 80.09808333333334
        },
        {
            "name": "HALLS",
            "lat": 35.852119433333336,
            "lon": 85.26554721666666
        },
        {
            "name": "HAMLN",
            "lat": 34.35901388333333,
            "lon": 80.77843333333334
        },
        {
            "name": "HENBY",
            "lat": 36.719486116666666,
            "lon": 80.02480833333334
        },
        {
            "name": "HMMPY",
            "lat": 34.80295278333333,
            "lon": 80.86048056666667
        },
        {
            "name": "ICONS",
            "lat": 34.620783333333335,
            "lon": 80.972575
        },
        {
            "name": "IKPEZ",
            "lat": 35.7382,
            "lon": 80.48784721666667
        },
        {
            "name": "IPTAY",
            "lat": 34.34904721666667,
            "lon": 82.83974166666667
        },
        {
            "name": "IRQ",
            "lat": 33.707352783333334,
            "lon": 82.16206388333333
        },
        {
            "name": "JARPO",
            "lat": 35.606861116666664,
            "lon": 80.53398888333334
        },
        {
            "name": "JDEAN",
            "lat": 35.57988888333333,
            "lon": 80.96073888333333
        },
        {
            "name": "JENDO",
            "lat": 33.83761943333333,
            "lon": 81.30409721666666
        },
        {
            "name": "JOJJO",
            "lat": 35.55471111666667,
            "lon": 81.46970278333333
        },
        {
            "name": "JOTTA",
            "lat": 36.014730566666664,
            "lon": 80.84938611666666
        },
        {
            "name": "KABEE",
            "lat": 34.66104721666667,
            "lon": 80.16282221666667
        },
        {
            "name": "KILNS",
            "lat": 35.53235278333333,
            "lon": 79.82150278333333
        },
        {
            "name": "KOTNE",
            "lat": 35.554577783333336,
            "lon": 80.55231943333334
        },
        {
            "name": "KRITR",
            "lat": 35.68929721666667,
            "lon": 80.92431943333334
        },
        {
            "name": "KRUQ",
            "lat": 35.64588333333333,
            "lon": 80.52029166666667
        },
        {
            "name": "KWEEN",
            "lat": 34.67993611666667,
            "lon": 80.84512778333334
        },
        {
            "name": "LACHN",
            "lat": 35.194716666666665,
            "lon": 81.32999166666667
        },
        {
            "name": "LAMDE",
            "lat": 34.99069721666667,
            "lon": 80.15203888333333
        },
        {
            "name": "LIB",
            "lat": 35.81162221666666,
            "lon": 79.61259166666666
        },
        {
            "name": "LILIC",
            "lat": 35.429752783333335,
            "lon": 80.15811111666666
        },
        {
            "name": "LILLS",
            "lat": 34.93544166666667,
            "lon": 79.93020278333333
        },
        {
            "name": "LOCAS",
            "lat": 35.20143888333333,
            "lon": 80.44580278333333
        },
        {
            "name": "LOCKS",
            "lat": 34.92771943333333,
            "lon": 81.29241388333334
        },
        {
            "name": "LONEE",
            "lat": 35.51314443333333,
            "lon": 81.39701388333333
        },
        {
            "name": "LUKES",
            "lat": 34.030875,
            "lon": 82.15737221666667
        },
        {
            "name": "LYH",
            "lat": 37.25457778333333,
            "lon": 79.23638056666667
        },
        {
            "name": "MERIL",
            "lat": 35.61324166666667,
            "lon": 79.43386388333333
        },
        {
            "name": "MESHY",
            "lat": 35.252036116666666,
            "lon": 80.46576943333334
        },
        {
            "name": "MOPED",
            "lat": 35.57117778333333,
            "lon": 80.90472778333333
        },
        {
            "name": "MTCHL",
            "lat": 35.64005556666667,
            "lon": 81.54575
        },
        {
            "name": "MUNBE",
            "lat": 35.32930556666667,
            "lon": 80.48933333333333
        },
        {
            "name": "NALEY",
            "lat": 36.35269443333333,
            "lon": 80.80680833333334
        },
        {
            "name": "NASCR",
            "lat": 35.45555278333333,
            "lon": 80.53865278333333
        },
        {
            "name": "NEANO",
            "lat": 35.08135,
            "lon": 81.99648333333333
        },
        {
            "name": "NOOKS",
            "lat": 33.98222221666666,
            "lon": 81.03222221666667
        },
        {
            "name": "NOONN",
            "lat": 36.01065833333333,
            "lon": 85.09546666666667
        },
        {
            "name": "NUTZE",
            "lat": 35.844563883333336,
            "lon": 77.68242221666667
        },
        {
            "name": "OWALT",
            "lat": 35.749475,
            "lon": 80.88255833333334
        },
        {
            "name": "PEKNN",
            "lat": 35.21148888333333,
            "lon": 79.87267221666667
        },
        {
            "name": "PI001",
            "lat": 35.789194183333336,
            "lon": 80.46974498333333
        },
        {
            "name": "PI002",
            "lat": 35.851867666666664,
            "lon": 80.51261138333334
        },
        {
            "name": "PI003",
            "lat": 35.89331921666667,
            "lon": 80.43285893333334
        },
        {
            "name": "PITRW",
            "lat": 32.736958333333334,
            "lon": 79.57313056666666
        },
        {
            "name": "PONTI",
            "lat": 35.650511116666664,
            "lon": 80.35409443333333
        },
        {
            "name": "RDU",
            "lat": 35.87252221666667,
            "lon": 78.78334166666667
        },
        {
            "name": "REWET",
            "lat": 35.41350833333333,
            "lon": 83.24650556666667
        },
        {
            "name": "ROUSH",
            "lat": 35.556294433333335,
            "lon": 80.27933056666667
        },
        {
            "name": "ROVDY",
            "lat": 35.733122216666665,
            "lon": 80.48956666666666
        },
        {
            "name": "RU",
            "lat": 35.733122216666665,
            "lon": 80.48956666666666
        },
        {
            "name": "SLEPP",
            "lat": 36.17279443333334,
            "lon": 82.9256
        },
        {
            "name": "SMIAM",
            "lat": 35.932636116666664,
            "lon": 80.83865
        },
        {
            "name": "SYMCO",
            "lat": 33.99263333333333,
            "lon": 81.93331388333333
        },
        {
            "name": "TASTY",
            "lat": 33.50483611666667,
            "lon": 80.74150278333333
        },
        {
            "name": "TIELR",
            "lat": 36.744475,
            "lon": 82.87888888333333
        },
        {
            "name": "TNSLY",
            "lat": 35.094938883333334,
            "lon": 82.00031666666666
        },
        {
            "name": "TREAL",
            "lat": 33.06970556666667,
            "lon": 81.44105556666666
        },
        {
            "name": "TYI",
            "lat": 35.976725,
            "lon": 77.70373056666666
        },
        {
            "name": "UGANG",
            "lat": 34.806863883333335,
            "lon": 81.05779721666667
        },
        {
            "name": "UNARM",
            "lat": 34.65491111666667,
            "lon": 81.64271388333333
        },
        {
            "name": "UNJAM",
            "lat": 34.21569443333333,
            "lon": 80.80300278333333
        },
        {
            "name": "UWOBU",
            "lat": 35.83444721666667,
            "lon": 80.45393611666667
        },
        {
            "name": "WALUT",
            "lat": 34.66664443333333,
            "lon": 80.842175
        },
        {
            "name": "WAYDS",
            "lat": 35.4432,
            "lon": 81.27573333333333
        },
        {
            "name": "WEAZL",
            "lat": 35.67389443333333,
            "lon": 81.08646666666667
        },
        {
            "name": "WHDRW",
            "lat": 34.82883888333333,
            "lon": 81.25175833333333
        },
        {
            "name": "WHFRD",
            "lat": 35.55635278333333,
            "lon": 81.0768
        },
        {
            "name": "WLLGO",
            "lat": 35.61220556666667,
            "lon": 81.60484443333333
        },
        {
            "name": "YIDPO",
            "lat": 35.89917221666666,
            "lon": 80.64443611666667
        },
        {
            "name": "YNGUN",
            "lat": 35.18906388333333,
            "lon": 81.533225
        },
        {
            "name": "ZUGMY",
            "lat": 35.85050278333333,
            "lon": 80.44826666666667
        }
    ],
    "rnws": [
        "RNW 02",
        "RNW 20"
    ],
    "sids": [
        {
            "name": "BARMY4",
            "rnw": "02",
            "fixes": {
                "MESHY": "MESHY",
                "GULFY": "GULFY",
                "BARMY": "BARMY"
            },
            "sub_fixes": [],
            "transitions": [
                {
                    "name": "NUTZE",
                    "fixes": [
                        "BATTA",
                        "NUTZE"
                    ]
                },
                {
                    "name": "RDU",
                    "fixes": [
                        "BATTA",
                        "RDU"
                    ]
                },
                {
                    "name": "TYI",
                    "fixes": [
                        "BATTA",
                        "TYI"
                    ]
                }
            ]
        },
        {
            "name": "BEAVY5",
            "rnw": "02",
            "fixes": {
                "UGANG": "UGANG",
                "BEAVY": "BEAVY"
            },
            "sub_fixes": [],
            "transitions": [
                {
                    "name": "GANDT",
                    "fixes": [
                        "ANDYS",
                        "GANDT"
                    ]
                },
                {
                    "name": "JENDO",
                    "fixes": [
                        "ANDYS",
                        "JENDO"
                    ]
                }
            ]
        },
        {
            "name": "BOBZY4",
            "rnw": "02",
            "fixes": {
                "LACHN": "LACHN",
                "YNGUN": "YNGUN",
                "BOBZY": "BOBZY"
            },
            "sub_fixes": [],
            "transitions": [
                {
                    "name": "BNA",
                    "fixes": [
                        "BRAYN",
                        "REWET",
                        "HALLS",
                        "BAZOO",
                        "BNA"
                    ]
                },
                {
                    "name": "TNSLY",
                    "fixes": [
                        "TNSLY"
                    ]
                }
            ]
        },
        {
            "name": "ESTRR4",
            "rnw": "02",
            "fixes": {
                "GINNN": "GINNN",
                "ESTRR": "ESTRR"
            },
            "sub_fixes": [],
            "transitions": [
                {
                    "name": "IPTAY",
                    "fixes": [
                        "DEBIE",
                        "IPTAY"
                    ]
                }
            ]
        },
        {
            "name": "ICONS4",
            "rnw": "02",
            "fixes": {
                "GILFN": "GILFN",
                "ICONS": "ICONS"
            },
            "sub_fixes": [],
            "transitions": [
                {
                    "name": "NOOKS",
                    "fixes": [
                        "NOOKS"
                    ]
                }
            ]
        },
        {
            "name": "JOJJO4",
            "rnw": "02",
            "fixes": {
                "WAYDS": "WAYDS",
                "LONEE": "LONEE",
                "JOJJO": "JOJJO"
            },
            "sub_fixes": [],
            "transitions": [
                {
                    "name": "CUBIM",
                    "fixes": [
                        "WLLGO",
                        "BENBY",
                        "TIELR",
                        "CUBIM"
                    ]
                },
                {
                    "name": "DOOGE",
                    "fixes": [
                        "MTCHL",
                        "DOOGE"
                    ]
                },
                {
                    "name": "NOONN",
                    "fixes": [
                        "WLLGO",
                        "BENBY",
                        "SLEPP",
                        "BFORE",
                        "NOONN"
                    ]
                }
            ]
        },
        {
            "name": "KER3",
            "rnw": "02",
            "fixes": {},
            "sub_fixes": [
                {
                    "rwy": "RNW 02",
                    "fixes": {
                        "RNW 02": "RNW 02 HDG 022 UNTIL 1180 HDG 022 VECTORS"
                    }
                },
                {
                    "rwy": "RNW 20",
                    "fixes": {
                        "RNW 20": "RNW 20 HDG 202 UNTIL 1700 HDG 202 VECTORS"
                    }
                }
            ],
            "transitions": [
                {
                    "name": "ANDYS",
                    "fixes": [
                        "CLT",
                        "ANDYS"
                    ]
                },
                {
                    "name": "DEBIE",
                    "fixes": [
                        "CLT",
                        "DEBIE"
                    ]
                },
                {
                    "name": "HAMLN",
                    "fixes": [
                        "CLT",
                        "WALUT",
                        "HAMLN"
                    ]
                },
                {
                    "name": "JOTTA",
                    "fixes": [
                        "CLT",
                        "JOTTA"
                    ]
                },
                {
                    "name": "LILLS",
                    "fixes": [
                        "CLT",
                        "LILLS"
                    ]
                },
                {
                    "name": "MERIL",
                    "fixes": [
                        "CLT",
                        "MERIL"
                    ]
                },
                {
                    "name": "NALEY",
                    "fixes": [
                        "CLT",
                        "JOTTA",
                        "NALEY"
                    ]
                },
                {
                    "name": "NEANO",
                    "fixes": [
                        "CLT",
                        "BOBZY",
                        "NEANO"
                    ]
                },
                {
                    "name": "TREAL",
                    "fixes": [
                        "CLT",
                        "ANDYS",
                        "TREAL"
                    ]
                }
            ]
        },
        {
            "name": "KILNS4",
            "rnw": "02",
            "fixes": {
                "MUNBE": "MUNBE",
                "LILIC": "LILIC",
                "KILNS": "KILNS"
            },
            "sub_fixes": [],
            "transitions": [
                {
                    "name": "AUDII",
                    "fixes": [
                        "DURST",
                        "AUDII"
                    ]
                }
            ]
        },
        {
            "name": "KNI2",
            "rnw": "02",
            "fixes": {
                "CLT": "CLT"
            },
            "sub_fixes": [],
            "transitions": [
                {
                    "name": "ANDYS",
                    "fixes": [
                        "ANDYS"
                    ]
                },
                {
                    "name": "CEGAL",
                    "fixes": [
                        "FLYYN",
                        "CEGAL"
                    ]
                },
                {
                    "name": "DEBIE",
                    "fixes": [
                        "DEBIE"
                    ]
                },
                {
                    "name": "FLYYN",
                    "fixes": [
                        "FLYYN"
                    ]
                },
                {
                    "name": "HAMLN",
                    "fixes": [
                        "WALUT",
                        "HAMLN"
                    ]
                },
                {
                    "name": "LILLS",
                    "fixes": [
                        "LILLS"
                    ]
                },
                {
                    "name": "NEANO",
                    "fixes": [
                        "BOBZY",
                        "NEANO"
                    ]
                },
                {
                    "name": "PEKNN",
                    "fixes": [
                        "GIPPR",
                        "PEKNN"
                    ]
                }
            ]
        },
        {
            "name": "KRITR5",
            "rnw": "02",
            "fixes": {
                "JDEAN": "JDEAN",
                "KRITR": "KRITR"
            },
            "sub_fixes": [],
            "transitions": [
                {
                    "name": "FILDS",
                    "fixes": [
                        "FILDS"
                    ]
                },
                {
                    "name": "SMIAM",
                    "fixes": [
                        "SMIAM"
                    ]
                }
            ]
        },
        {
            "name": "KWEEN4",
            "rnw": "02",
            "fixes": {
                "HMMPY": "HMMPY",
                "KWEEN": "KWEEN"
            },
            "sub_fixes": [],
            "transitions": [
                {
                    "name": "PITRW",
                    "fixes": [
                        "UNJAM",
                        "TASTY",
                        "PITRW"
                    ]
                },
                {
                    "name": "UNJAM",
                    "fixes": [
                        "UNJAM"
                    ]
                }
            ]
        },
        {
            "name": "LILLS2",
            "rnw": "02",
            "fixes": {
                "LAMDE": "LAMDE",
                "LILLS": "LILLS"
            },
            "sub_fixes": [],
            "transitions": []
        },
        {
            "name": "WEAZL4",
            "rnw": "02",
            "fixes": {
                "WHFRD": "WHFRD",
                "WEAZL": "WEAZL"
            },
            "sub_fixes": [],
            "transitions": [
                {
                    "name": "CLAWD",
                    "fixes": [
                        "CLAWD"
                    ]
                }
            ]
        }
    ],
    "stars": [
        {
            "name": "CHPTR4",
            "runway": "RNW 02 RNW 20",
            "fixes": {
                "EYPAD": "EYPAD",
                "CHPTR": "CHPTR",
                "WHDRW": "WHDRW"
            }
        },
        {
            "name": "KABEE3",
            "runway": "RNW 02 RNW 20",
            "fixes": {
                "KABEE": "KABEE",
                "BIFFL": "BIFFL",
                "NASCR": "OVERFLY NASCR HDG 346 VECTORS"
            }
        },
        {
            "name": "NASCR4",
            "runway": "RNW 02 RNW 20",
            "fixes": {
                "NASCR": "NASCR"
            }
        },
        {
            "name": "UNARM7",
            "runway": "RNW 02 RNW 20",
            "fixes": {
                "UNARM": "UNARM",
                "ADENA": "ADENA",
                "LOCKS": "LOCKS",
                "CLT": "CLT"
            }
        }
    ],
    "approaches": [
        {
            "name": "ILS20",
            "fixes": {
                "UWOBU": "UWOBU 2500",
                "ROVDY": "ROVDY 2422 RNW 20 TRK 202 UNTIL 1600 TURN RIGHT DIRECT ROVDY AT OR ABOVE 2900 HOLD AT ROVDY RIGHT TURN INBOUNDCOURSE 202 LEGTIME 1 FAF ROVDY MAP RNW 20"
            },
            "transitions": [
                {
                    "name": "BZM",
                    "fixes": {
                        "BZM": "BZM",
                        "ROVDY": "ROVDY AT OR ABOVE 3900",
                        "PI001": "PI001 AT OR ABOVE 2500 SPEED 210",
                        "PI002": "OVERFLY PI002 AT OR ABOVE 2500 SPEED 210",
                        "PI003": "PI003 AT OR ABOVE 2500 SPEED 210"
                    }
                },
                {
                    "name": "GSO",
                    "fixes": {
                        "GSO": "GSO",
                        "ROVDY": "ROVDY AT OR ABOVE 2900",
                        "PI001": "PI001 AT OR ABOVE 2500 SPEED 210",
                        "PI002": "OVERFLY PI002 AT OR ABOVE 2500 SPEED 210",
                        "PI003": "PI003 AT OR ABOVE 2500 SPEED 210"
                    }
                },
                {
                    "name": "MOPED",
                    "fixes": {
                        "MOPED": "MOPED",
                        "ROVDY": "ROVDY AT OR ABOVE 3400",
                        "PI001": "PI001 AT OR ABOVE 2500 SPEED 210",
                        "PI002": "OVERFLY PI002 AT OR ABOVE 2500 SPEED 210",
                        "PI003": "PI003 AT OR ABOVE 2500 SPEED 210"
                    }
                }
            ]
        },
        {
            "name": "NDB20",
            "fixes": {
                "RU": "RU 2500 RNW 20 TRK 202 UNTIL 1800 TURN RIGHT DIRECT RU AT OR ABOVE 2500 HOLD AT RU RIGHT TURN INBOUNDCOURSE 202 LEGTIME 1 FAF RU MAP RNW 20"
            },
            "transitions": [
                {
                    "name": "BZM",
                    "fixes": {
                        "BZM": "BZM",
                        "RU": "RU AT OR ABOVE 3900",
                        "PI001": "PI001 AT OR ABOVE 2500 SPEED 210",
                        "PI002": "OVERFLY PI002 AT OR ABOVE 2500 SPEED 210",
                        "PI003": "PI003 AT OR ABOVE 2500 SPEED 210"
                    }
                },
                {
                    "name": "GSO",
                    "fixes": {
                        "GSO": "GSO",
                        "RU": "RU AT OR ABOVE 2900",
                        "PI001": "PI001 AT OR ABOVE 2500 SPEED 210",
                        "PI002": "OVERFLY PI002 AT OR ABOVE 2500 SPEED 210",
                        "PI003": "PI003 AT OR ABOVE 2500 SPEED 210"
                    }
                },
                {
                    "name": "MOPED",
                    "fixes": {
                        "MOPED": "MOPED",
                        "RU": "RU AT OR ABOVE 3400",
                        "PI001": "PI001 AT OR ABOVE 2500 SPEED 210",
                        "PI002": "OVERFLY PI002 AT OR ABOVE 2500 SPEED 210",
                        "PI003": "PI003 AT OR ABOVE 2500 SPEED 210"
                    }
                }
            ]
        },
        {
            "name": "RNAV02",
            "fixes": {
                "COLID": "COLID AT OR ABOVE 3100 OVERFLY COLID AT OR ABOVE 3100 HOLD AT COLID RIGHT TURN INBOUNDCOURSE 022 LEGDIST 4 FAF KOTNE MAP RNW 02",
                "KOTNE": "KOTNE 2500",
                "JARPO": "JARPO AT OR ABOVE 1460 RNW 02 TRK 022 UNTIL 1500 TURN RIGHT DIRECT"
            },
            "transitions": [
                {
                    "name": "LOCAS",
                    "fixes": {
                        "LOCAS": "LOCAS"
                    }
                },
                {
                    "name": "OWALT",
                    "fixes": {
                        "OWALT": "OWALT",
                        "COLID": "OVERFLY COLID AT OR ABOVE 3100 HOLD AT COLID RIGHT TURN INBOUNDCOURSE 022 ALT 3100 LEGDIST 4"
                    }
                }
            ]
        },
        {
            "name": "RNAV20",
            "fixes": {
                "ZUGMY": "ZUGMY AT OR ABOVE 2500",
                "IKPEZ": "IKPEZ 2500 RNW 20 TRK 202 UNTIL 2100 TURN RIGHT DIRECT",
                "YIDPO": "OVERFLY YIDPO AT OR ABOVE 3400 HOLD AT YIDPO RIGHT TURN INBOUNDCOURSE 113 LEGDIST 4 FAF IKPEZ MAP RNW 20"
            },
            "transitions": [
                {
                    "name": "AZELL",
                    "fixes": {
                        "AZELL": "AZELL"
                    }
                },
                {
                    "name": "JOTTA",
                    "fixes": {
                        "JOTTA": "JOTTA",
                        "YIDPO": "YIDPO AT OR ABOVE 3000"
                    }
                }
            ]
        }
    ]
}