{
    "fixes": [
        {
            "name": "CIPOS",
            "lat": 44.528761116666665,
            "lon": 95.04828056666666
        },
        {
            "name": "COMOS",
            "lat": 44.62068333333333,
            "lon": 94.74098888333333
        },
        {
            "name": "DMGEZ",
            "lat": 44.359486116666666,
            "lon": 95.19074443333334
        },
        {
            "name": "IJIVI",
            "lat": 44.49565833333333,
            "lon": 94.98838333333333
        },
        {
            "name": "JAVEP",
            "lat": 44.43342221666666,
            "lon": 94.87610833333333
        },
        {
            "name": "JOVIR",
            "lat": 44.507705566666665,
            "lon": 95.28118333333333
        },
        {
            "name": "KUKGE",
            "lat": 44.427825,
            "lon": 94.97504166666667
        },
        {
            "name": "LETPY",
            "lat": 44.36753611666666,
            "lon": 94.94727778333333
        },
        {
            "name": "MABGY",
            "lat": 44.543830566666664,
            "lon": 95.08380833333334
        },
        {
            "name": "MKT",
            "lat": 44.21990556666667,
            "lon": 93.91235556666666
        },
        {
            "name": "MOLOW",
            "lat": 44.548113883333336,
            "lon": 95.43472778333333
        },
        {
            "name": "OSHOF",
            "lat": 44.497205566666665,
            "lon": 94.80031666666666
        },
        {
            "name": "PI001",
            "lat": 44.41245618333333,
            "lon": 95.15616083333333
        },
        {
            "name": "PI002",
            "lat": 44.3474963,
            "lon": 95.11380723333333
        },
        {
            "name": "PI003",
            "lat": 44.31063183333333,
            "lon": 95.20789271666666
        },
        {
            "name": "RWF",
            "lat": 44.467275,
            "lon": 95.12823056666667
        },
        {
            "name": "ZELET",
            "lat": 44.37498333333333,
            "lon": 94.77107221666667
        },
        {
            "name": "ZUMIV",
            "lat": 44.57700833333333,
            "lon": 95.13581388333333
        }
    ],
    "rnws": [
        "RNW 05",
        "RNW 12",
        "RNW 23",
        "RNW 30"
    ],
    "sids": [],
    "stars": [],
    "approaches": [
        {
            "name": "RNAV30",
            "fixes": {
                "JAVEP": "JAVEP AT OR ABOVE 3500",
                "IJIVI": "IJIVI 2600",
                "CIPOS": "CIPOS AT OR ABOVE 1540 RNW 30",
                "ZUMIV": "ZUMIV",
                "MOLOW": "OVERFLY MOLOW AT OR ABOVE 3800 HOLD AT MOLOW LEFT TURN INBOUNDCOURSE 106 LEGDIST 6 FAF IJIVI MAP RNW 30"
            },
            "transitions": [
                {
                    "name": "COMOS",
                    "fixes": {
                        "COMOS": "COMOS",
                        "OSHOF": "OSHOF AT OR ABOVE 3500"
                    }
                },
                {
                    "name": "JAVEP",
                    "fixes": {
                        "JAVEP": "JAVEP RIGHT TURN INBOUNDCOURSE 304 ALT 3500 LEGDIST 6"
                    }
                },
                {
                    "name": "MKT",
                    "fixes": {
                        "MKT": "MKT",
                        "ZELET": "ZELET AT OR ABOVE 3500"
                    }
                },
                {
                    "name": "RWF",
                    "fixes": {
                        "RWF": "RWF",
                        "LETPY": "LETPY AT OR ABOVE 3500"
                    }
                }
            ]
        },
        {
            "name": "VORA05",
            "fixes": {
                "DMGEZ": "DMGEZ AT OR ABOVE 2600",
                "RWF": "RWF 2600 RWF AT OR ABOVE 2600 HOLD AT RWF RIGHT TURN INBOUNDCOURSE 016 LEGTIME 1 FAF RWF MAP MABGY",
                "MABGY": "MABGY 1700 RNW 05 TRK 016 UNTIL 2000 TURN LEFT DIRECT"
            },
            "transitions": [
                {
                    "name": "JOVIR",
                    "fixes": {
                        "JOVIR": "JOVIR"
                    }
                },
                {
                    "name": "KUKGE",
                    "fixes": {
                        "KUKGE": "KUKGE"
                    }
                },
                {
                    "name": "RWF",
                    "fixes": {
                        "PI001": "PI001 AT OR ABOVE 2700 SPEED 210",
                        "PI002": "OVERFLY PI002 AT OR ABOVE 2700 SPEED 210",
                        "PI003": "PI003 AT OR ABOVE 2700 SPEED 210"
                    }
                }
            ]
        },
        {
            "name": "VORA12",
            "fixes": {
                "DMGEZ": "DMGEZ AT OR ABOVE 2600",
                "RWF": "RWF 2600 RWF AT OR ABOVE 2600 HOLD AT RWF RIGHT TURN INBOUNDCOURSE 016 LEGTIME 1 FAF RWF MAP MABGY",
                "MABGY": "MABGY 1700 RNW 12 TRK 016 UNTIL 2000 TURN LEFT DIRECT"
            },
            "transitions": [
                {
                    "name": "JOVIR",
                    "fixes": {
                        "JOVIR": "JOVIR"
                    }
                },
                {
                    "name": "KUKGE",
                    "fixes": {
                        "KUKGE": "KUKGE"
                    }
                },
                {
                    "name": "RWF",
                    "fixes": {
                        "PI001": "PI001 AT OR ABOVE 2700 SPEED 210",
                        "PI002": "OVERFLY PI002 AT OR ABOVE 2700 SPEED 210",
                        "PI003": "PI003 AT OR ABOVE 2700 SPEED 210"
                    }
                }
            ]
        },
        {
            "name": "VORA23",
            "fixes": {
                "DMGEZ": "DMGEZ AT OR ABOVE 2600",
                "RWF": "RWF 2600 RWF AT OR ABOVE 2600 HOLD AT RWF RIGHT TURN INBOUNDCOURSE 016 LEGTIME 1 FAF RWF MAP MABGY",
                "MABGY": "MABGY 1700 RNW 23 TRK 016 UNTIL 2000 TURN LEFT DIRECT"
            },
            "transitions": [
                {
                    "name": "JOVIR",
                    "fixes": {
                        "JOVIR": "JOVIR"
                    }
                },
                {
                    "name": "KUKGE",
                    "fixes": {
                        "KUKGE": "KUKGE"
                    }
                },
                {
                    "name": "RWF",
                    "fixes": {
                        "PI001": "PI001 AT OR ABOVE 2700 SPEED 210",
                        "PI002": "OVERFLY PI002 AT OR ABOVE 2700 SPEED 210",
                        "PI003": "PI003 AT OR ABOVE 2700 SPEED 210"
                    }
                }
            ]
        },
        {
            "name": "VORA30",
            "fixes": {
                "DMGEZ": "DMGEZ AT OR ABOVE 2600",
                "RWF": "RWF 2600 RWF AT OR ABOVE 2600 HOLD AT RWF RIGHT TURN INBOUNDCOURSE 016 LEGTIME 1 FAF RWF MAP MABGY",
                "MABGY": "MABGY 1700 RNW 30 TRK 016 UNTIL 2000 TURN LEFT DIRECT"
            },
            "transitions": [
                {
                    "name": "JOVIR",
                    "fixes": {
                        "JOVIR": "JOVIR"
                    }
                },
                {
                    "name": "KUKGE",
                    "fixes": {
                        "KUKGE": "KUKGE"
                    }
                },
                {
                    "name": "RWF",
                    "fixes": {
                        "PI001": "PI001 AT OR ABOVE 2700 SPEED 210",
                        "PI002": "OVERFLY PI002 AT OR ABOVE 2700 SPEED 210",
                        "PI003": "PI003 AT OR ABOVE 2700 SPEED 210"
                    }
                }
            ]
        }
    ]
}