{
    "fixes": [
        {
            "name": "BOSSY",
            "lat": 40.646594433333334,
            "lon": 87.35665833333333
        },
        {
            "name": "BVT",
            "lat": 40.55617221666667,
            "lon": 87.069375
        },
        {
            "name": "CETEM",
            "lat": 40.914088883333335,
            "lon": 87.18131111666666
        },
        {
            "name": "CUJBA",
            "lat": 40.9801,
            "lon": 87.18162778333334
        },
        {
            "name": "JITVI",
            "lat": 41.148863883333334,
            "lon": 87.18244721666667
        },
        {
            "name": "LUCIT",
            "lat": 41.23234166666667,
            "lon": 87.42372221666666
        },
        {
            "name": "MAPPS",
            "lat": 41.18165,
            "lon": 86.94239721666666
        },
        {
            "name": "WIRAG",
            "lat": 41.04043888333333,
            "lon": 87.18192221666666
        },
        {
            "name": "WUPAL",
            "lat": 40.712130566666666,
            "lon": 87.18033888333333
        },
        {
            "name": "ZOMDO",
            "lat": 40.85416943333333,
            "lon": 87.18102221666666
        }
    ],
    "rnws": [
        "RNW 09",
        "RNW 18",
        "RNW 27",
        "RNW 36"
    ],
    "sids": [],
    "stars": [],
    "approaches": [
        {
            "name": "RNAV18",
            "fixes": {
                "JITVI": "JITVI AT OR ABOVE 2600",
                "WIRAG": "WIRAG 2400",
                "CUJBA": "CUJBA AT OR ABOVE 1240 RNW 18 TRK 182 UNTIL 948",
                "WUPAL": "OVERFLY WUPAL AT OR ABOVE 2600 HOLD AT WUPAL RIGHT TURN INBOUNDCOURSE 002 LEGDIST 4 FAF WIRAG MAP RNW 18"
            },
            "transitions": [
                {
                    "name": "JITVI",
                    "fixes": {
                        "JITVI": "JITVI RIGHT TURN INBOUNDCOURSE 182 ALT 2600 LEGDIST 4"
                    }
                },
                {
                    "name": "LUCIT",
                    "fixes": {
                        "LUCIT": "LUCIT"
                    }
                },
                {
                    "name": "MAPPS",
                    "fixes": {
                        "MAPPS": "MAPPS"
                    }
                }
            ]
        },
        {
            "name": "RNAV36",
            "fixes": {
                "WUPAL": "WUPAL AT OR ABOVE 2600",
                "ZOMDO": "ZOMDO 2400",
                "CETEM": "CETEM AT OR ABOVE 1240 RNW 36 TRK 002 UNTIL 924",
                "JITVI": "OVERFLY JITVI AT OR ABOVE 2600 HOLD AT JITVI RIGHT TURN INBOUNDCOURSE 182 LEGDIST 4 FAF ZOMDO MAP RNW 36"
            },
            "transitions": [
                {
                    "name": "BOSSY",
                    "fixes": {
                        "BOSSY": "BOSSY"
                    }
                },
                {
                    "name": "BVT",
                    "fixes": {
                        "BVT": "BVT"
                    }
                },
                {
                    "name": "WUPAL",
                    "fixes": {
                        "WUPAL": "WUPAL RIGHT TURN INBOUNDCOURSE 002 ALT 2600 LEGDIST 4"
                    }
                }
            ]
        }
    ]
}