{
    "fixes": [
        {
            "name": "DRACK",
            "lat": 44.114641666666664,
            "lon": 121.43313056666666
        },
        {
            "name": "DSD",
            "lat": 44.25276111666667,
            "lon": 121.30355278333333
        },
        {
            "name": "GAPEY",
            "lat": 43.92521111666667,
            "lon": 121.43376666666667
        },
        {
            "name": "HESKI",
            "lat": 43.96013611666667,
            "lon": 121.419975
        },
        {
            "name": "OCTAD",
            "lat": 44.00553333333333,
            "lon": 121.35503056666667
        },
        {
            "name": "SSTRS",
            "lat": 43.676797216666664,
            "lon": 121.57979721666666
        },
        {
            "name": "TUPSE",
            "lat": 44.12130833333333,
            "lon": 121.35610278333333
        },
        {
            "name": "URBIA",
            "lat": 44.015697216666666,
            "lon": 121.19335833333334
        }
    ],
    "rnws": [
        "RNW 18",
        "RNW 36"
    ],
    "sids": [],
    "stars": [],
    "approaches": [
        {
            "name": "RNAV18",
            "fixes": {
                "TUPSE": "TUPSE AT OR ABOVE 7000",
                "HESKI": "HESKI 6000",
                "GAPEY": "GAPEY AT OR ABOVE 5180 RNW 18 TRK 178 UNTIL 6000",
                "SSTRS": "OVERFLY SSTRS AT OR ABOVE 9400 HOLD AT SSTRS LEFT TURN INBOUNDCOURSE 189 ALT 9400 LEGDIST 7 FAF HESKI MAP RNW 18"
            },
            "transitions": [
                {
                    "name": "DRACK",
                    "fixes": {
                        "DRACK": "DRACK",
                        "TUPSE": "OVERFLY TUPSE AT OR ABOVE 7000 HOLD AT TUPSE LEFT TURN INBOUNDCOURSE 178 ALT 7000 LEGDIST 7"
                    }
                },
                {
                    "name": "DSD",
                    "fixes": {
                        "DSD": "DSD"
                    }
                },
                {
                    "name": "OCTAD",
                    "fixes": {
                        "OCTAD": "OCTAD",
                        "TUPSE": "OVERFLY TUPSE AT OR ABOVE 7000 HOLD AT TUPSE LEFT TURN INBOUNDCOURSE 178 ALT 7000 LEGDIST 7"
                    }
                },
                {
                    "name": "URBIA",
                    "fixes": {
                        "URBIA": "URBIA",
                        "TUPSE": "OVERFLY TUPSE AT OR ABOVE 7000 HOLD AT TUPSE LEFT TURN INBOUNDCOURSE 178 ALT 7000 LEGDIST 7"
                    }
                }
            ]
        }
    ]
}