{
    "fixes": [
        {
            "name": "COVBO",
            "lat": 44.85264443333333,
            "lon": 120.60678056666667
        },
        {
            "name": "CUYAD",
            "lat": 44.554808333333334,
            "lon": 121.15341388333333
        },
        {
            "name": "DSD",
            "lat": 44.25276111666667,
            "lon": 121.30355278333333
        },
        {
            "name": "FEPOS",
            "lat": 44.727361116666664,
            "lon": 121.15337221666667
        },
        {
            "name": "GASHE",
            "lat": 44.984022216666666,
            "lon": 121.20341666666667
        },
        {
            "name": "HETIM",
            "lat": 44.85734166666667,
            "lon": 121.15333888333333
        },
        {
            "name": "HUKRI",
            "lat": 44.54903611666667,
            "lon": 121.15341666666667
        },
        {
            "name": "JOREM",
            "lat": 44.5488,
            "lon": 120.94831943333334
        },
        {
            "name": "JUVET",
            "lat": 44.585075,
            "lon": 121.15340833333333
        },
        {
            "name": "KIKCE",
            "lat": 44.753363883333336,
            "lon": 121.15336666666667
        },
        {
            "name": "SUPOC",
            "lat": 44.90165,
            "lon": 120.98145833333334
        },
        {
            "name": "TIWEP",
            "lat": 44.794013883333335,
            "lon": 121.15335556666666
        },
        {
            "name": "TUDTO",
            "lat": 44.701736116666666,
            "lon": 121.15337778333334
        },
        {
            "name": "WUREX",
            "lat": 44.501475,
            "lon": 121.15342778333333
        },
        {
            "name": "YUDUB",
            "lat": 44.45147778333333,
            "lon": 121.15343888333334
        },
        {
            "name": "ZEMAB",
            "lat": 44.71488333333333,
            "lon": 120.56909443333333
        }
    ],
    "rnws": [
        "RNW 04",
        "RNW 16",
        "RNW 22",
        "RNW 34"
    ],
    "sids": [],
    "stars": [],
    "approaches": [
        {
            "name": "RNAV16",
            "fixes": {
                "HETIM": "HETIM AT OR ABOVE 5500",
                "TIWEP": "TIWEP AT OR ABOVE 4600",
                "KIKCE": "KIKCE 4000",
                "FEPOS": "FEPOS AT OR ABOVE 3500 RNW 16 TRK 164 UNTIL 2783",
                "HUKRI": "HUKRI",
                "JOREM": "JOREM",
                "ZEMAB": "OVERFLY ZEMAB AT OR ABOVE 7000 HOLD AT ZEMAB RIGHT TURN INBOUNDCOURSE 212 LEGDIST 7 FAF KIKCE MAP RNW 16"
            },
            "transitions": [
                {
                    "name": "COVBO",
                    "fixes": {
                        "COVBO": "COVBO",
                        "SUPOC": "SUPOC AT OR ABOVE 7000"
                    }
                },
                {
                    "name": "ZEMAB",
                    "fixes": {
                        "ZEMAB": "ZEMAB",
                        "SUPOC": "SUPOC AT OR ABOVE 7000"
                    }
                }
            ]
        },
        {
            "name": "RNAV34",
            "fixes": {
                "YUDUB": "YUDUB AT OR ABOVE 5800",
                "WUREX": "WUREX AT OR ABOVE 5400",
                "CUYAD": "CUYAD 4500",
                "JUVET": "JUVET AT OR ABOVE 3920 RNW 34 TRK 344 UNTIL 2688",
                "TUDTO": "TUDTO",
                "GASHE": "OVERFLY GASHE AT OR ABOVE 7000 HOLD AT GASHE RIGHT TURN INBOUNDCOURSE 337 ALT 7000 LEGDIST 7 FAF CUYAD MAP RNW 34"
            },
            "transitions": [
                {
                    "name": "DSD",
                    "fixes": {
                        "DSD": "DSD"
                    }
                }
            ]
        }
    ]
}