{
    "fixes": [
        {
            "name": "ALB",
            "lat": 42.74728056666667,
            "lon": 73.80318333333334
        },
        {
            "name": "BUMPS",
            "lat": 42.71856388333333,
            "lon": 74.018625
        },
        {
            "name": "CAM",
            "lat": 42.99428888333333,
            "lon": 73.34401943333333
        },
        {
            "name": "CEDOR",
            "lat": 42.746155566666665,
            "lon": 74.30837221666667
        },
        {
            "name": "CFBMK",
            "lat": 42.68860278333333,
            "lon": 74.038375
        },
        {
            "name": "CURUR",
            "lat": 42.770344433333335,
            "lon": 73.98444721666667
        },
        {
            "name": "FF22",
            "lat": 42.95357778333333,
            "lon": 73.85215278333334
        },
        {
            "name": "FOSRA",
            "lat": 42.60678611666667,
            "lon": 74.09219443333333
        },
        {
            "name": "HANLY",
            "lat": 42.77108056666667,
            "lon": 73.98395833333333
        },
        {
            "name": "HEUNB",
            "lat": 42.854177783333334,
            "lon": 73.93348888333334
        },
        {
            "name": "MULXI",
            "lat": 43.038811116666665,
            "lon": 73.80618888333333
        },
        {
            "name": "NOCDI",
            "lat": 42.85195278333333,
            "lon": 73.80691943333333
        },
        {
            "name": "OKBEW",
            "lat": 42.84551666666667,
            "lon": 74.04641388333333
        },
        {
            "name": "PI001",
            "lat": 42.71864563333333,
            "lon": 74.01876418333333
        },
        {
            "name": "PI002",
            "lat": 42.69527626666667,
            "lon": 74.11096131666666
        },
        {
            "name": "PI003",
            "lat": 42.6212386,
            "lon": 74.08324783333333
        },
        {
            "name": "PI004",
            "lat": 42.90417188333333,
            "lon": 73.89247296666667
        },
        {
            "name": "PI005",
            "lat": 42.97370731666667,
            "lon": 73.91616918333334
        },
        {
            "name": "PI006",
            "lat": 42.99697915,
            "lon": 73.81612378333334
        },
        {
            "name": "SUNOY",
            "lat": 42.844461116666665,
            "lon": 74.08396666666667
        },
        {
            "name": "UNMIP",
            "lat": 42.840411116666665,
            "lon": 74.22434721666667
        },
        {
            "name": "VEYCU",
            "lat": 42.85565833333333,
            "lon": 73.65977221666667
        },
        {
            "name": "ZILVO",
            "lat": 42.94752221666667,
            "lon": 73.867
        }
    ],
    "rnws": [
        "RNW 04",
        "RNW 10",
        "RNW 22",
        "RNW 28"
    ],
    "sids": [],
    "stars": [],
    "approaches": [
        {
            "name": "ILS04",
            "fixes": {
                "CFBMK": "CFBMK AT OR ABOVE 3600",
                "BUMPS": "BUMPS 3100 RNW 04 TRK 040 INTERCEPT RADIAL 045 TO",
                "HEUNB": "HEUNB TRK 045 UNTIL 1500 TURN RIGHT DIRECT HEUNB AT OR ABOVE 3700 HOLD AT HEUNB RIGHT TURN INBOUNDCOURSE 225 ALT 3700 LEGTIME 1 FAF BUMPS MAP RNW 04"
            },
            "transitions": [
                {
                    "name": "ALB",
                    "fixes": {
                        "ALB": "ALB",
                        "HANLY": "HANLY AT OR ABOVE 3600",
                        "PI001": "PI001 AT OR ABOVE 3600 SPEED 210",
                        "PI002": "OVERFLY PI002 AT OR ABOVE 3600 SPEED 210",
                        "PI003": "PI003 AT OR ABOVE 3600 SPEED 210"
                    }
                }
            ]
        },
        {
            "name": "LOC04",
            "fixes": {
                "CFBMK": "CFBMK AT OR ABOVE 3600",
                "HANLY": "HANLY 2000 RNW 04 TRK 040 INTERCEPT RADIAL 045 TO",
                "HEUNB": "HEUNB TRK 045 UNTIL 1500 TURN RIGHT DIRECT HEUNB AT OR ABOVE 3700 HOLD AT HEUNB RIGHT TURN INBOUNDCOURSE 225 ALT 3700 LEGTIME 1 FAF HANLY MAP RNW 04"
            },
            "transitions": [
                {
                    "name": "ALB",
                    "fixes": {
                        "ALB": "ALB",
                        "HANLY": "HANLY AT OR ABOVE 3600",
                        "PI001": "PI001 AT OR ABOVE 3600 SPEED 210",
                        "PI002": "OVERFLY PI002 AT OR ABOVE 3600 SPEED 210",
                        "PI003": "PI003 AT OR ABOVE 3600 SPEED 210"
                    }
                }
            ]
        },
        {
            "name": "NDB22",
            "fixes": {
                "FF22": "FF22 2400 RNW 22",
                "HEUNB": "HEUNB HOLD AT HEUNB RIGHT TURN INBOUNDCOURSE 225 ALT 3100 LEGTIME 1 FAF FF22 MAP RNW 22"
            },
            "transitions": [
                {
                    "name": "ALB",
                    "fixes": {
                        "ALB": "ALB",
                        "HEUNB": "HEUNB AT OR BELOW 6000 AT OR ABOVE 3000",
                        "PI004": "PI004 AT OR ABOVE 2400 SPEED 210",
                        "PI005": "OVERFLY PI005 AT OR ABOVE 2400 SPEED 210",
                        "PI006": "PI006 AT OR ABOVE 2400 SPEED 210"
                    }
                }
            ]
        },
        {
            "name": "RNAV04",
            "fixes": {
                "FOSRA": "FOSRA AT OR ABOVE 3700",
                "BUMPS": "BUMPS AT OR ABOVE 3000",
                "CURUR": "CURUR 2000 RNW 04 TRK 040 UNTIL 588",
                "MULXI": "OVERFLY MULXI AT OR ABOVE 3000 HOLD AT MULXI RIGHT TURN INBOUNDCOURSE 220 LEGDIST 4 FAF CURUR MAP RNW 04"
            },
            "transitions": [
                {
                    "name": "ALB",
                    "fixes": {
                        "ALB": "ALB",
                        "FOSRA": "OVERFLY FOSRA AT OR ABOVE 3800 HOLD AT FOSRA RIGHT TURN INBOUNDCOURSE 040 ALT 3700 LEGDIST 4"
                    }
                }
            ]
        },
        {
            "name": "RNAV10",
            "fixes": {
                "UNMIP": "UNMIP AT OR ABOVE 3000",
                "SUNOY": "SUNOY 2400",
                "OKBEW": "OKBEW AT OR ABOVE 1860 RNW 10 TRK 102 UNTIL 778",
                "VEYCU": "OVERFLY VEYCU AT OR ABOVE 3000 HOLD AT VEYCU RIGHT TURN INBOUNDCOURSE 282 LEGDIST 4 FAF SUNOY MAP RNW 10"
            },
            "transitions": [
                {
                    "name": "CEDOR",
                    "fixes": {
                        "CEDOR": "CEDOR"
                    }
                },
                {
                    "name": "UNMIP",
                    "fixes": {
                        "UNMIP": "UNMIP RIGHT TURN INBOUNDCOURSE 102 ALT 3000 LEGDIST 4"
                    }
                }
            ]
        },
        {
            "name": "RNAV22",
            "fixes": {
                "MULXI": "MULXI AT OR ABOVE 3000",
                "ZILVO": "ZILVO 2200 RNW 22 TRK 220 UNTIL 628",
                "FOSRA": "OVERFLY FOSRA AT OR ABOVE 3700 HOLD AT FOSRA RIGHT TURN INBOUNDCOURSE 040 LEGDIST 4 FAF ZILVO MAP RNW 22"
            },
            "transitions": [
                {
                    "name": "CAM",
                    "fixes": {
                        "CAM": "CAM"
                    }
                },
                {
                    "name": "MULXI",
                    "fixes": {
                        "MULXI": "MULXI RIGHT TURN INBOUNDCOURSE 220 ALT 3000 LEGDIST 4"
                    }
                }
            ]
        },
        {
            "name": "RNAV28",
            "fixes": {
                "VEYCU": "VEYCU AT OR ABOVE 2500",
                "NOCDI": "NOCDI 2000 RNW 28 TRK 282 UNTIL 615",
                "UNMIP": "OVERFLY UNMIP AT OR ABOVE 3000 HOLD AT UNMIP RIGHT TURN INBOUNDCOURSE 102 LEGDIST 4 FAF NOCDI MAP RNW 28"
            },
            "transitions": [
                {
                    "name": "ALB",
                    "fixes": {
                        "ALB": "ALB",
                        "VEYCU": "OVERFLY VEYCU AT OR ABOVE 2500 HOLD AT VEYCU RIGHT TURN INBOUNDCOURSE 282 ALT 2500 LEGDIST 4"
                    }
                }
            ]
        }
    ]
}