{
    "fixes": [
        {
            "name": "ALTAM",
            "lat": 37.81217221666667,
            "lon": 121.74709443333333
        },
        {
            "name": "AXING",
            "lat": 37.87275556666667,
            "lon": 120.93383056666667
        },
        {
            "name": "DIJER",
            "lat": 37.67675833333333,
            "lon": 120.88316388333334
        },
        {
            "name": "FASIT",
            "lat": 37.666825,
            "lon": 121.13439721666667
        },
        {
            "name": "GIKTE",
            "lat": 37.9557,
            "lon": 121.33852778333333
        },
        {
            "name": "HAXEK",
            "lat": 38.01663056666667,
            "lon": 121.43889443333333
        },
        {
            "name": "HONEZ",
            "lat": 37.788463883333336,
            "lon": 120.71351943333333
        },
        {
            "name": "IPDEW",
            "lat": 37.83140556666667,
            "lon": 121.13473333333333
        },
        {
            "name": "LIN",
            "lat": 38.07458056666667,
            "lon": 121.00385833333333
        },
        {
            "name": "LITPE",
            "lat": 37.91397778333334,
            "lon": 121.59431388333333
        },
        {
            "name": "MOD",
            "lat": 37.627375,
            "lon": 120.95786943333333
        },
        {
            "name": "OAKEY",
            "lat": 38.05661943333333,
            "lon": 121.67183056666667
        },
        {
            "name": "ORANG",
            "lat": 37.983452783333334,
            "lon": 121.26415278333333
        },
        {
            "name": "OXJEF",
            "lat": 37.76983333333333,
            "lon": 121.03425278333333
        },
        {
            "name": "SIMMS",
            "lat": 37.76026388333333,
            "lon": 121.01881111666667
        },
        {
            "name": "VISTO",
            "lat": 38.19408333333333,
            "lon": 121.62931666666667
        },
        {
            "name": "WIGBI",
            "lat": 37.87234721666667,
            "lon": 121.201725
        }
    ],
    "rnws": [
        "RNW 11L",
        "RNW 11R",
        "RNW 29L",
        "RNW 29R"
    ],
    "sids": [],
    "stars": [],
    "approaches": [
        {
            "name": "ILS29R",
            "fixes": {
                "SIMMS": "SIMMS AT OR ABOVE 2900",
                "IPDEW": "IPDEW 1800 RNW 29R TRK 294 UNTIL 500 HDG 010 INTERCEPT RADIAL 309 TO",
                "ORANG": "ORANG ORANG AT OR ABOVE 2000 HOLD AT ORANG LEFT TURN INBOUNDCOURSE 129 LEGTIME 1 FAF IPDEW MAP RNW 29R"
            },
            "transitions": [
                {
                    "name": "HONEZ",
                    "fixes": {
                        "HONEZ": "HONEZ",
                        "DIJER": "DIJER AT OR ABOVE 2900"
                    }
                },
                {
                    "name": "LIN",
                    "fixes": {
                        "LIN": "LIN",
                        "IPDEW": "IPDEW AT OR ABOVE 2600 HOLD AT IPDEW RIGHT TURN INBOUNDCOURSE 294 ALT 1800 LEGTIME 1"
                    }
                },
                {
                    "name": "MOD",
                    "fixes": {
                        "MOD": "MOD"
                    }
                }
            ]
        },
        {
            "name": "RNAV11L",
            "fixes": {
                "HAXEK": "HAXEK AT OR ABOVE 2700",
                "GIKTE": "GIKTE 1800 RNW 11L TRK 114 UNTIL 229",
                "OXJEF": "OVERFLY OXJEF AT OR ABOVE 2000 HOLD AT OXJEF RIGHT TURN INBOUNDCOURSE 294 LEGDIST 4 FAF GIKTE MAP RNW 11L"
            },
            "transitions": [
                {
                    "name": "ALTAM",
                    "fixes": {
                        "ALTAM": "ALTAM",
                        "LITPE": "LITPE AT OR ABOVE 5000"
                    }
                },
                {
                    "name": "LIN",
                    "fixes": {
                        "LIN": "LIN",
                        "HAXEK": "OVERFLY HAXEK AT OR ABOVE 2700 HOLD AT HAXEK RIGHT TURN INBOUNDCOURSE 113 ALT 2700 LEGDIST 4"
                    }
                },
                {
                    "name": "OAKEY",
                    "fixes": {
                        "OAKEY": "OAKEY"
                    }
                },
                {
                    "name": "VISTO",
                    "fixes": {
                        "VISTO": "VISTO"
                    }
                }
            ]
        },
        {
            "name": "RNAV29R",
            "fixes": {
                "OXJEF": "OXJEF AT OR ABOVE 2000",
                "IPDEW": "IPDEW 1800",
                "WIGBI": "WIGBI AT OR ABOVE 520 RNW 29R TRK 294 UNTIL 232",
                "HAXEK": "OVERFLY HAXEK AT OR ABOVE 2700 HOLD AT HAXEK RIGHT TURN INBOUNDCOURSE 113 LEGDIST 4 FAF IPDEW MAP RNW 29R"
            },
            "transitions": [
                {
                    "name": "AXING",
                    "fixes": {
                        "AXING": "AXING"
                    }
                },
                {
                    "name": "FASIT",
                    "fixes": {
                        "FASIT": "FASIT"
                    }
                },
                {
                    "name": "OXJEF",
                    "fixes": {
                        "OXJEF": "OXJEF RIGHT TURN INBOUNDCOURSE 294 ALT 2000 LEGDIST 4"
                    }
                }
            ]
        }
    ]
}