{
    "fixes": [
        {
            "name": "COOKC",
            "lat": 37.82591111666667,
            "lon": 82.57968333333334
        },
        {
            "name": "GENCE",
            "lat": 37.91157221666667,
            "lon": 82.51431666666667
        },
        {
            "name": "KAPLE",
            "lat": 37.57478056666667,
            "lon": 82.77027221666667
        },
        {
            "name": "LORIC",
            "lat": 37.66055278333333,
            "lon": 82.70535278333334
        },
        {
            "name": "SUYKO",
            "lat": 37.705136116666665,
            "lon": 82.67153611666667
        },
        {
            "name": "UBHES",
            "lat": 37.501775,
            "lon": 82.71955556666667
        },
        {
            "name": "WEVID",
            "lat": 37.90979166666666,
            "lon": 82.40904166666667
        },
        {
            "name": "ZOBDU",
            "lat": 37.576236116666664,
            "lon": 82.87508333333334
        },
        {
            "name": "ZUSRI",
            "lat": 37.984661116666665,
            "lon": 82.56511943333334
        }
    ],
    "rnws": [
        "RNW 03",
        "RNW 21"
    ],
    "sids": [],
    "stars": [],
    "approaches": [
        {
            "name": "RNAV03",
            "fixes": {
                "KAPLE": "KAPLE AT OR ABOVE 4300",
                "LORIC": "LORIC 3100",
                "SUYKO": "SUYKO AT OR ABOVE 2100 RNW 03 TRK 036 UNTIL 1621",
                "GENCE": "OVERFLY GENCE AT OR ABOVE 4100 HOLD AT GENCE RIGHT TURN INBOUNDCOURSE 216 LEGDIST 5 FAF LORIC MAP RNW 03"
            },
            "transitions": [
                {
                    "name": "KAPLE",
                    "fixes": {
                        "KAPLE": "KAPLE RIGHT TURN INBOUNDCOURSE 036 ALT 4300 LEGDIST 5"
                    }
                },
                {
                    "name": "UBHES",
                    "fixes": {
                        "UBHES": "UBHES AT OR ABOVE 4300"
                    }
                },
                {
                    "name": "ZOBDU",
                    "fixes": {
                        "ZOBDU": "ZOBDU AT OR ABOVE 4300"
                    }
                }
            ]
        },
        {
            "name": "RNAV21",
            "fixes": {
                "GENCE": "GENCE AT OR ABOVE 4100",
                "COOKC": "COOKC 2800 RNW 21 TRK 216 UNTIL 1471",
                "KAPLE": "OVERFLY KAPLE AT OR ABOVE 4300 HOLD AT KAPLE RIGHT TURN INBOUNDCOURSE 036 LEGDIST 5 FAF COOKC MAP RNW 21"
            },
            "transitions": [
                {
                    "name": "GENCE",
                    "fixes": {
                        "GENCE": "GENCE RIGHT TURN INBOUNDCOURSE 216 ALT 4100 LEGDIST 5"
                    }
                },
                {
                    "name": "WEVID",
                    "fixes": {
                        "WEVID": "WEVID AT OR ABOVE 4100"
                    }
                },
                {
                    "name": "ZUSRI",
                    "fixes": {
                        "ZUSRI": "ZUSRI AT OR ABOVE 4100"
                    }
                }
            ]
        }
    ]
}