{
    "fixes": [
        {
            "name": "BTV",
            "lat": 44.39710556666667,
            "lon": 73.18263611666667
        },
        {
            "name": "BUGSY",
            "lat": 44.72265278333333,
            "lon": 74.14141111666666
        },
        {
            "name": "CHANY",
            "lat": 44.250247216666665,
            "lon": 74.59815
        },
        {
            "name": "CHHAD",
            "lat": 44.370097216666665,
            "lon": 74.28914443333333
        },
        {
            "name": "ELLAA",
            "lat": 44.32551111666667,
            "lon": 74.26639721666666
        },
        {
            "name": "GNVEV",
            "lat": 44.07590278333333,
            "lon": 74.24899166666667
        },
        {
            "name": "HNDRK",
            "lat": 44.437361116666665,
            "lon": 74.15763611666667
        },
        {
            "name": "INGRD",
            "lat": 44.29326388333333,
            "lon": 74.29766111666666
        },
        {
            "name": "JFFFF",
            "lat": 44.43969443333334,
            "lon": 74.53404721666666
        },
        {
            "name": "JMMIE",
            "lat": 44.36243888333333,
            "lon": 74.34431388333333
        },
        {
            "name": "JNFER",
            "lat": 44.661211116666664,
            "lon": 74.20914166666667
        },
        {
            "name": "JOESS",
            "lat": 44.24866111666667,
            "lon": 74.50791111666666
        },
        {
            "name": "JONNN",
            "lat": 44.570475,
            "lon": 74.02748888333333
        },
        {
            "name": "KIMIE",
            "lat": 44.516055566666665,
            "lon": 73.81958611666667
        },
        {
            "name": "LIZZZ",
            "lat": 44.54333056666667,
            "lon": 73.89284166666667
        },
        {
            "name": "MREEE",
            "lat": 44.196877783333335,
            "lon": 74.39084721666667
        },
        {
            "name": "MUNZA",
            "lat": 44.52923333333333,
            "lon": 74.34481111666666
        },
        {
            "name": "RIIKE",
            "lat": 44.478555566666664,
            "lon": 74.11744443333333
        },
        {
            "name": "RNNDY",
            "lat": 44.343325,
            "lon": 74.48111666666667
        },
        {
            "name": "SMAIR",
            "lat": 44.05901943333333,
            "lon": 74.43916388333334
        }
    ],
    "rnws": [
        "RNW 05",
        "RNW 09",
        "RNW 23",
        "RNW 27"
    ],
    "sids": [],
    "stars": [],
    "approaches": [
        {
            "name": "ILS23",
            "fixes": {
                "JONNN": "JONNN AT OR ABOVE 5400 JONNN AT OR ABOVE 5400 HOLD AT JONNN RIGHT TURN INBOUNDCOURSE 229 LEGTIME 1 FAF RIIKE MAP RNW 23",
                "RIIKE": "RIIKE 3800 RNW 23 TRK 229 UNTIL 3500 TURN RIGHT DIRECT"
            },
            "transitions": [
                {
                    "name": "BTV",
                    "fixes": {
                        "BTV": "BTV",
                        "LIZZZ": "LIZZZ AT OR ABOVE 5400"
                    }
                },
                {
                    "name": "JNFER",
                    "fixes": {
                        "JNFER": "JNFER 6000"
                    }
                },
                {
                    "name": "JONNN",
                    "fixes": {
                        "JONNN": "JONNN RIGHT TURN INBOUNDCOURSE 229 ALT 5400 LEGTIME 1"
                    }
                }
            ]
        },
        {
            "name": "RNAV05",
            "fixes": {
                "MREEE": "MREEE AT OR ABOVE 5400",
                "INGRD": "INGRD 3700",
                "ELLAA": "ELLAA AT OR ABOVE 2940 RNW 05 TRK 049 UNTIL 2063 TURN LEFT DIRECT",
                "MUNZA": "OVERFLY MUNZA AT OR ABOVE 6000 HOLD AT MUNZA LEFT TURN INBOUNDCOURSE 339 ALT 6000 LEGDIST 5 FAF INGRD MAP RNW 05"
            },
            "transitions": [
                {
                    "name": "CHANY",
                    "fixes": {
                        "CHANY": "CHANY"
                    }
                },
                {
                    "name": "GNVEV",
                    "fixes": {
                        "GNVEV": "GNVEV"
                    }
                },
                {
                    "name": "MREEE",
                    "fixes": {
                        "MREEE": "MREEE RIGHT TURN INBOUNDCOURSE 049 ALT 5400 LEGDIST 5"
                    }
                }
            ]
        },
        {
            "name": "RNAV09",
            "fixes": {
                "RNNDY": "RNNDY AT OR ABOVE 4900",
                "JMMIE": "JMMIE 3500",
                "CHHAD": "CHHAD AT OR ABOVE 2720 RNW 09 TRK 093 UNTIL 2063 TURN LEFT DIRECT",
                "MUNZA": "OVERFLY MUNZA AT OR ABOVE 6000 HOLD AT MUNZA LEFT TURN INBOUNDCOURSE 339 ALT 6000 LEGDIST 5 FAF JMMIE MAP RNW 09"
            },
            "transitions": [
                {
                    "name": "JFFFF",
                    "fixes": {
                        "JFFFF": "JFFFF"
                    }
                },
                {
                    "name": "JOESS",
                    "fixes": {
                        "JOESS": "JOESS"
                    }
                },
                {
                    "name": "RNNDY",
                    "fixes": {
                        "RNNDY": "RNNDY RIGHT TURN INBOUNDCOURSE 093 ALT 4900 LEGDIST 5"
                    }
                },
                {
                    "name": "SMAIR",
                    "fixes": {
                        "SMAIR": "SMAIR"
                    }
                }
            ]
        },
        {
            "name": "RNAV23",
            "fixes": {
                "JONNN": "JONNN AT OR ABOVE 5500 OVERFLY JONNN AT OR ABOVE 5500 HOLD AT JONNN RIGHT TURN INBOUNDCOURSE 229 LEGDIST 5 FAF RIIKE MAP RNW 23",
                "RIIKE": "RIIKE 3800",
                "HNDRK": "HNDRK AT OR ABOVE 2760 RNW 23 TRK 229 UNTIL 3500 TURN RIGHT DIRECT"
            },
            "transitions": [
                {
                    "name": "BUGSY",
                    "fixes": {
                        "BUGSY": "BUGSY"
                    }
                },
                {
                    "name": "JONNN",
                    "fixes": {
                        "JONNN": "JONNN RIGHT TURN INBOUNDCOURSE 229 ALT 5500 LEGDIST 5"
                    }
                },
                {
                    "name": "KIMIE",
                    "fixes": {
                        "KIMIE": "KIMIE"
                    }
                }
            ]
        }
    ]
}