{
    "fixes": [
        {
            "name": "ACEBE",
            "lat": 44.66469721666667,
            "lon": 89.26375833333333
        },
        {
            "name": "BLUNN",
            "lat": 44.33439443333334,
            "lon": 89.56477221666667
        },
        {
            "name": "CLIDE",
            "lat": 44.77049443333333,
            "lon": 89.52355833333333
        },
        {
            "name": "CODKI",
            "lat": 44.71110278333333,
            "lon": 89.70415
        },
        {
            "name": "DOLDY",
            "lat": 44.41659166666667,
            "lon": 89.76691943333333
        },
        {
            "name": "EMIBY",
            "lat": 44.56605,
            "lon": 89.81909443333333
        },
        {
            "name": "ESCAF",
            "lat": 44.46399721666667,
            "lon": 89.59573333333333
        },
        {
            "name": "FAYYE",
            "lat": 44.375538883333334,
            "lon": 89.665775
        },
        {
            "name": "HIRDA",
            "lat": 44.56573611666666,
            "lon": 89.58191943333334
        },
        {
            "name": "ILICA",
            "lat": 44.63859166666667,
            "lon": 89.76169443333333
        },
        {
            "name": "JIBSU",
            "lat": 44.52534166666667,
            "lon": 89.48272221666667
        },
        {
            "name": "JUVOP",
            "lat": 44.717669433333334,
            "lon": 89.39353888333333
        },
        {
            "name": "ODUYA",
            "lat": 44.627658333333336,
            "lon": 89.46551388333333
        },
        {
            "name": "REKTE",
            "lat": 44.52178056666666,
            "lon": 89.23945278333333
        },
        {
            "name": "SAJSI",
            "lat": 44.449497216666664,
            "lon": 89.29737221666667
        },
        {
            "name": "TIVDE",
            "lat": 44.377183333333335,
            "lon": 89.35515
        },
        {
            "name": "WEDNE",
            "lat": 44.49948611666667,
            "lon": 89.4194
        },
        {
            "name": "WLCHS",
            "lat": 44.588988883333336,
            "lon": 89.63917221666667
        }
    ],
    "rnws": [
        "RNW 03",
        "RNW 12",
        "RNW 21",
        "RNW 30"
    ],
    "sids": [],
    "stars": [],
    "approaches": [
        {
            "name": "ILS21",
            "fixes": {
                "JUVOP": "JUVOP AT OR ABOVE 2900",
                "ODUYA": "ODUYA 2800 RNW 21 TRK 211 UNTIL 1510",
                "FAYYE": "FAYYE AT OR ABOVE 2800 HOLD AT FAYYE RIGHT TURN INBOUNDCOURSE 031 LEGDIST 4 FAF ODUYA MAP RNW 21"
            },
            "transitions": [
                {
                    "name": "ACEBE",
                    "fixes": {
                        "ACEBE": "ACEBE"
                    }
                },
                {
                    "name": "CLIDE",
                    "fixes": {
                        "CLIDE": "CLIDE"
                    }
                },
                {
                    "name": "JUVOP",
                    "fixes": {
                        "JUVOP": "JUVOP RIGHT TURN INBOUNDCOURSE 211 ALT 2900 LEGTIME 1"
                    }
                }
            ]
        },
        {
            "name": "RNAV03",
            "fixes": {
                "FAYYE": "FAYYE AT OR ABOVE 2800",
                "ESCAF": "ESCAF 2800 RNW 03 TRK 031 UNTIL 1409",
                "JUVOP": "OVERFLY JUVOP AT OR ABOVE 2900 HOLD AT JUVOP RIGHT TURN INBOUNDCOURSE 211 LEGDIST 4 FAF ESCAF MAP RNW 03"
            },
            "transitions": [
                {
                    "name": "BLUNN",
                    "fixes": {
                        "BLUNN": "BLUNN"
                    }
                },
                {
                    "name": "DOLDY",
                    "fixes": {
                        "DOLDY": "DOLDY"
                    }
                },
                {
                    "name": "FAYYE",
                    "fixes": {
                        "FAYYE": "FAYYE RIGHT TURN INBOUNDCOURSE 031 ALT 2800 LEGDIST 4"
                    }
                }
            ]
        },
        {
            "name": "RNAV12",
            "fixes": {
                "ILICA": "ILICA AT OR ABOVE 3000",
                "WLCHS": "WLCHS 2800",
                "HIRDA": "HIRDA AT OR ABOVE 1880 RNW 12",
                "SAJSI": "OVERFLY SAJSI AT OR ABOVE 3000 HOLD AT SAJSI RIGHT TURN INBOUNDCOURSE 301 LEGDIST 4 FAF WLCHS MAP RNW 12"
            },
            "transitions": [
                {
                    "name": "CODKI",
                    "fixes": {
                        "CODKI": "CODKI AT OR ABOVE 3000"
                    }
                },
                {
                    "name": "EMIBY",
                    "fixes": {
                        "EMIBY": "EMIBY AT OR ABOVE 3000"
                    }
                },
                {
                    "name": "ILICA",
                    "fixes": {
                        "ILICA": "ILICA RIGHT TURN INBOUNDCOURSE 121 ALT 3000 LEGDIST 4"
                    }
                }
            ]
        },
        {
            "name": "RNAV21",
            "fixes": {
                "JUVOP": "JUVOP AT OR ABOVE 2900",
                "ODUYA": "ODUYA 2800 RNW 21 TRK 211 UNTIL 1360",
                "FAYYE": "OVERFLY FAYYE AT OR ABOVE 2800 HOLD AT FAYYE RIGHT TURN INBOUNDCOURSE 031 LEGDIST 4 FAF ODUYA MAP RNW 21"
            },
            "transitions": [
                {
                    "name": "ACEBE",
                    "fixes": {
                        "ACEBE": "ACEBE"
                    }
                },
                {
                    "name": "CLIDE",
                    "fixes": {
                        "CLIDE": "CLIDE"
                    }
                },
                {
                    "name": "JUVOP",
                    "fixes": {
                        "JUVOP": "JUVOP RIGHT TURN INBOUNDCOURSE 211 ALT 2900 LEGDIST 4"
                    }
                }
            ]
        },
        {
            "name": "RNAV30",
            "fixes": {
                "SAJSI": "SAJSI AT OR ABOVE 3000 OVERFLY SAJSI AT OR ABOVE 3000 HOLD AT SAJSI RIGHT TURN INBOUNDCOURSE 301 LEGDIST 4 FAF WEDNE MAP RNW 30",
                "WEDNE": "WEDNE 2800",
                "JIBSU": "JIBSU AT OR ABOVE 1780 RNW 30 TRK 301 UNTIL 1510 TURN LEFT DIRECT"
            },
            "transitions": [
                {
                    "name": "REKTE",
                    "fixes": {
                        "REKTE": "REKTE AT OR ABOVE 3000"
                    }
                },
                {
                    "name": "SAJSI",
                    "fixes": {
                        "SAJSI": "SAJSI RIGHT TURN INBOUNDCOURSE 301 ALT 3000 LEGDIST 4"
                    }
                },
                {
                    "name": "TIVDE",
                    "fixes": {
                        "TIVDE": "TIVDE AT OR ABOVE 3000"
                    }
                }
            ]
        }
    ]
}