{
    "fixes": [
        {
            "name": "BARUM",
            "lat": 46.528452783333336,
            "lon": 92.25135278333333
        },
        {
            "name": "BNATT",
            "lat": 46.522813883333335,
            "lon": 91.90140833333334
        },
        {
            "name": "CEKDA",
            "lat": 46.41761666666667,
            "lon": 91.26898888333334
        },
        {
            "name": "CUROR",
            "lat": 46.65854721666667,
            "lon": 92.06528611666667
        },
        {
            "name": "DLH",
            "lat": 46.802163883333336,
            "lon": 92.20286943333333
        },
        {
            "name": "DUYAR",
            "lat": 46.66248888333333,
            "lon": 92.12932221666667
        },
        {
            "name": "FOSUP",
            "lat": 47.044786116666664,
            "lon": 92.11554721666667
        },
        {
            "name": "HIB",
            "lat": 47.30153056666666,
            "lon": 92.70404443333334
        },
        {
            "name": "HUROX",
            "lat": 46.61043611666667,
            "lon": 92.185875
        },
        {
            "name": "HUVES",
            "lat": 46.779436116666666,
            "lon": 92.00175556666667
        },
        {
            "name": "JIBEG",
            "lat": 46.839616666666664,
            "lon": 92.28558888333333
        },
        {
            "name": "KINGZ",
            "lat": 46.21745833333333,
            "lon": 92.30585
        },
        {
            "name": "NETIE",
            "lat": 46.860163883333335,
            "lon": 91.91328056666667
        },
        {
            "name": "NISIC",
            "lat": 46.603377783333336,
            "lon": 91.99854443333334
        },
        {
            "name": "NOYIC",
            "lat": 46.6863,
            "lon": 91.27283333333334
        },
        {
            "name": "PROCT",
            "lat": 46.76302221666667,
            "lon": 92.19215833333334
        },
        {
            "name": "WEMAN",
            "lat": 47.17581943333333,
            "lon": 91.517325
        },
        {
            "name": "ZINUP",
            "lat": 46.733466666666665,
            "lon": 92.15620278333333
        }
    ],
    "rnws": [
        "RNW 04",
        "RNW 14",
        "RNW 22",
        "RNW 32"
    ],
    "sids": [],
    "stars": [],
    "approaches": [
        {
            "name": "RNAV04",
            "fixes": {
                "BARUM": "BARUM AT OR ABOVE 4000 OVERFLY BARUM AT OR ABOVE 4000 HOLD AT BARUM RIGHT TURN INBOUNDCOURSE 030 ALT 4000 LEGDIST 4 FAF HUROX MAP RNW 04",
                "HUROX": "HUROX 2600",
                "DUYAR": "DUYAR AT OR ABOVE 1340 RNW 04 TRK 038 UNTIL 1500 TURN RIGHT DIRECT"
            },
            "transitions": [
                {
                    "name": "DLH",
                    "fixes": {
                        "DLH": "DLH",
                        "BARUM": "OVERFLY BARUM AT OR ABOVE 4000 HOLD AT BARUM RIGHT TURN INBOUNDCOURSE 030 ALT 4000 LEGDIST 4"
                    }
                }
            ]
        },
        {
            "name": "RNAV14",
            "fixes": {
                "JIBEG": "JIBEG AT OR ABOVE 3100",
                "PROCT": "PROCT 2600",
                "ZINUP": "ZINUP AT OR ABOVE 1860 RNW 14 TRK 141 UNTIL 1000",
                "BNATT": "OVERFLY BNATT AT OR ABOVE 3000 HOLD AT BNATT RIGHT TURN INBOUNDCOURSE 321 LEGDIST 4 FAF PROCT MAP RNW 14"
            },
            "transitions": [
                {
                    "name": "BARUM",
                    "fixes": {
                        "BARUM": "BARUM",
                        "JIBEG": "OVERFLY JIBEG AT OR ABOVE 3100 HOLD AT JIBEG RIGHT TURN INBOUNDCOURSE 141 ALT 3100 LEGDIST 4"
                    }
                },
                {
                    "name": "FOSUP",
                    "fixes": {
                        "FOSUP": "FOSUP"
                    }
                },
                {
                    "name": "HIB",
                    "fixes": {
                        "HIB": "HIB"
                    }
                }
            ]
        },
        {
            "name": "RNAV22",
            "fixes": {
                "NETIE": "NETIE AT OR ABOVE 3100",
                "HUVES": "HUVES 2600 RNW 22 TRK 218 UNTIL 1060",
                "DUYAR": "DUYAR",
                "BARUM": "OVERFLY BARUM AT OR ABOVE 4000 HOLD AT BARUM RIGHT TURN INBOUNDCOURSE 030 LEGDIST 4 FAF HUVES MAP RNW 22"
            },
            "transitions": [
                {
                    "name": "DLH",
                    "fixes": {
                        "DLH": "DLH",
                        "NETIE": "OVERFLY NETIE AT OR ABOVE 3100 HOLD AT NETIE RIGHT TURN INBOUNDCOURSE 218 ALT 3100 LEGDIST 4"
                    }
                },
                {
                    "name": "NOYIC",
                    "fixes": {
                        "NOYIC": "NOYIC"
                    }
                },
                {
                    "name": "WEMAN",
                    "fixes": {
                        "WEMAN": "WEMAN"
                    }
                }
            ]
        },
        {
            "name": "RNAV32",
            "fixes": {
                "BNATT": "BNATT AT OR ABOVE 3000",
                "NISIC": "NISIC 2600",
                "CUROR": "CUROR AT OR ABOVE 1220 RNW 32 TRK 321 UNTIL 1000",
                "JIBEG": "OVERFLY JIBEG AT OR ABOVE 3100 HOLD AT JIBEG RIGHT TURN INBOUNDCOURSE 141 LEGDIST 4 FAF NISIC MAP RNW 32"
            },
            "transitions": [
                {
                    "name": "CEKDA",
                    "fixes": {
                        "CEKDA": "CEKDA"
                    }
                },
                {
                    "name": "DLH",
                    "fixes": {
                        "DLH": "DLH",
                        "BNATT": "OVERFLY BNATT AT OR ABOVE 3000 HOLD AT BNATT RIGHT TURN INBOUNDCOURSE 321 ALT 3000 LEGDIST 4"
                    }
                },
                {
                    "name": "KINGZ",
                    "fixes": {
                        "KINGZ": "KINGZ"
                    }
                }
            ]
        }
    ]
}