{
    "fixes": [
        {
            "name": "AJADI",
            "lat": 40.683175,
            "lon": 97.0858
        },
        {
            "name": "APIKY",
            "lat": 41.034425,
            "lon": 97.13075278333334
        },
        {
            "name": "AYEGI",
            "lat": 40.691158333333334,
            "lon": 96.97675833333334
        },
        {
            "name": "CETRI",
            "lat": 40.89915,
            "lon": 97.11338333333333
        },
        {
            "name": "COKET",
            "lat": 40.76776388333333,
            "lon": 97.09658056666666
        },
        {
            "name": "DWELL",
            "lat": 41.089786116666666,
            "lon": 96.92949721666666
        },
        {
            "name": "ECEYO",
            "lat": 40.67508888333333,
            "lon": 97.19481388333334
        },
        {
            "name": "ECHER",
            "lat": 40.949744433333336,
            "lon": 97.11987221666666
        },
        {
            "name": "ITBEW",
            "lat": 41.04661943333333,
            "lon": 97.53074721666667
        },
        {
            "name": "IXISE",
            "lat": 40.829580566666664,
            "lon": 97.10447778333334
        },
        {
            "name": "LNK",
            "lat": 40.923794433333335,
            "lon": 96.74200833333333
        },
        {
            "name": "SORGE",
            "lat": 41.026294433333334,
            "lon": 97.24033888333334
        },
        {
            "name": "TEVUW",
            "lat": 40.66800833333333,
            "lon": 97.44586388333333
        },
        {
            "name": "VOSTE",
            "lat": 41.04245278333333,
            "lon": 97.02113888333334
        }
    ],
    "rnws": [
        "RNW 04",
        "RNW 16",
        "RNW 22",
        "RNW 34"
    ],
    "sids": [],
    "stars": [],
    "approaches": [
        {
            "name": "RNAV16",
            "fixes": {
                "APIKY": "APIKY AT OR ABOVE 3300",
                "ECHER": "ECHER 3100",
                "CETRI": "CETRI AT OR ABOVE 2100 RNW 16",
                "AJADI": "OVERFLY AJADI AT OR ABOVE 3300 HOLD AT AJADI RIGHT TURN INBOUNDCOURSE 348 LEGDIST 4 FAF ECHER MAP RNW 16"
            },
            "transitions": [
                {
                    "name": "APIKY",
                    "fixes": {
                        "APIKY": "APIKY RIGHT TURN INBOUNDCOURSE 168 ALT 3300 LEGDIST 4"
                    }
                },
                {
                    "name": "DWELL",
                    "fixes": {
                        "DWELL": "DWELL",
                        "VOSTE": "VOSTE AT OR ABOVE 3300"
                    }
                },
                {
                    "name": "ITBEW",
                    "fixes": {
                        "ITBEW": "ITBEW",
                        "SORGE": "SORGE AT OR ABOVE 3300"
                    }
                }
            ]
        },
        {
            "name": "RNAV34",
            "fixes": {
                "AJADI": "AJADI AT OR ABOVE 3300",
                "COKET": "COKET 3300",
                "IXISE": "IXISE AT OR ABOVE 2080 RNW 34",
                "APIKY": "OVERFLY APIKY AT OR ABOVE 3300 HOLD AT APIKY RIGHT TURN INBOUNDCOURSE 168 LEGDIST 4 FAF COKET MAP RNW 34"
            },
            "transitions": [
                {
                    "name": "AJADI",
                    "fixes": {
                        "AJADI": "AJADI RIGHT TURN INBOUNDCOURSE 348 ALT 3300 LEGDIST 4"
                    }
                },
                {
                    "name": "LNK",
                    "fixes": {
                        "LNK": "LNK",
                        "AYEGI": "AYEGI AT OR ABOVE 3600"
                    }
                },
                {
                    "name": "TEVUW",
                    "fixes": {
                        "TEVUW": "TEVUW",
                        "ECEYO": "ECEYO AT OR ABOVE 4000"
                    }
                }
            ]
        }
    ]
}