{
    "fixes": [
        {
            "name": "ALICE",
            "lat": 32.98443056666667,
            "lon": 87.93668333333333
        },
        {
            "name": "ARDIN",
            "lat": 33.15289166666667,
            "lon": 87.71566388333333
        },
        {
            "name": "BBAMA",
            "lat": 33.07106388333333,
            "lon": 87.76275556666667
        },
        {
            "name": "BESOM",
            "lat": 33.58631388333333,
            "lon": 87.656525
        },
        {
            "name": "CAYAP",
            "lat": 33.32416943333333,
            "lon": 87.65231943333333
        },
        {
            "name": "DICAV",
            "lat": 33.14223056666667,
            "lon": 87.40923333333333
        },
        {
            "name": "FEBOG",
            "lat": 33.187775,
            "lon": 87.51738888333334
        },
        {
            "name": "GUBRE",
            "lat": 33.26591666666667,
            "lon": 87.70374721666667
        },
        {
            "name": "HOLTY",
            "lat": 33.31998333333333,
            "lon": 87.41823611666666
        },
        {
            "name": "IROSY",
            "lat": 33.418244433333335,
            "lon": 87.53528333333334
        },
        {
            "name": "JEMUR",
            "lat": 33.20037778333333,
            "lon": 87.547375
        },
        {
            "name": "LDK",
            "lat": 33.25887221666667,
            "lon": 87.53688611666666
        },
        {
            "name": "MOVIL",
            "lat": 33.023586116666664,
            "lon": 87.55276666666667
        },
        {
            "name": "NENMY",
            "lat": 33.36338333333333,
            "lon": 87.46025833333333
        },
        {
            "name": "NORLK",
            "lat": 33.26141388333333,
            "lon": 87.56609443333333
        },
        {
            "name": "OKW",
            "lat": 33.23786388333333,
            "lon": 87.24986666666666
        },
        {
            "name": "PI001",
            "lat": 33.12196576666667,
            "lon": 87.77473126666666
        },
        {
            "name": "PI002",
            "lat": 33.052134433333336,
            "lon": 87.7939653
        },
        {
            "name": "PI003",
            "lat": 33.064458116666664,
            "lon": 87.88431746666667
        },
        {
            "name": "PISIE",
            "lat": 33.310991666666666,
            "lon": 87.81171388333334
        },
        {
            "name": "REDSS",
            "lat": 33.29380556666667,
            "lon": 87.46910278333333
        },
        {
            "name": "ROBND",
            "lat": 33.13163611666667,
            "lon": 87.70032221666666
        },
        {
            "name": "ROMLE",
            "lat": 33.191858333333336,
            "lon": 87.52709166666666
        },
        {
            "name": "ROWLL",
            "lat": 33.13886943333333,
            "lon": 87.85571666666667
        },
        {
            "name": "SABNN",
            "lat": 33.27981666666667,
            "lon": 87.33578611666667
        },
        {
            "name": "SITES",
            "lat": 33.407808333333335,
            "lon": 87.30752778333333
        },
        {
            "name": "TIEDD",
            "lat": 33.00318888333333,
            "lon": 87.66993888333333
        },
        {
            "name": "TUSKE",
            "lat": 33.13913611666667,
            "lon": 87.69255
        },
        {
            "name": "UMABE",
            "lat": 33.28510833333333,
            "lon": 87.54153333333333
        },
        {
            "name": "ZIVMU",
            "lat": 33.24961388333333,
            "lon": 87.39820278333333
        }
    ],
    "rnws": [
        "RNW 04",
        "RNW 12",
        "RNW 22",
        "RNW 30"
    ],
    "sids": [],
    "stars": [],
    "approaches": [
        {
            "name": "ILS04",
            "fixes": {
                "BBAMA": "BBAMA AT OR ABOVE 2400",
                "TUSKE": "TUSKE 2000 RNW 04 TRK 041 UNTIL 1200",
                "OKW": "OKW AT OR ABOVE 2500 HOLD AT OKW RIGHT TURN INBOUNDCOURSE 095 LEGTIME 1 FAF TUSKE MAP RNW 04"
            },
            "transitions": [
                {
                    "name": "ALICE",
                    "fixes": {
                        "ALICE": "ALICE"
                    }
                },
                {
                    "name": "OKW",
                    "fixes": {
                        "OKW": "OKW",
                        "BBAMA": "BBAMA AT OR ABOVE 2400 HOLD AT BBAMA RIGHT TURN INBOUNDCOURSE 041 ALT 2400 LEGTIME 1"
                    }
                },
                {
                    "name": "ROWLL",
                    "fixes": {
                        "ROWLL": "ROWLL"
                    }
                },
                {
                    "name": "TIEDD",
                    "fixes": {
                        "TIEDD": "TIEDD"
                    }
                }
            ]
        },
        {
            "name": "RNAV04",
            "fixes": {
                "BBAMA": "BBAMA AT OR ABOVE 2400",
                "TUSKE": "TUSKE 2000 RNW 04 TRK 041 UNTIL 360",
                "NENMY": "NENMY",
                "OKW": "OVERFLY OKW AT OR ABOVE 2500 HOLD AT OKW RIGHT TURN INBOUNDCOURSE 095 LEGDIST 4 FAF TUSKE MAP RNW 04"
            },
            "transitions": [
                {
                    "name": "ALICE",
                    "fixes": {
                        "ALICE": "ALICE"
                    }
                },
                {
                    "name": "BBAMA",
                    "fixes": {
                        "BBAMA": "BBAMA RIGHT TURN INBOUNDCOURSE 041 ALT 2400 LEGDIST 4"
                    }
                },
                {
                    "name": "MOVIL",
                    "fixes": {
                        "MOVIL": "MOVIL",
                        "TIEDD": "TIEDD AT OR ABOVE 2400"
                    }
                },
                {
                    "name": "ROWLL",
                    "fixes": {
                        "ROWLL": "ROWLL"
                    }
                }
            ]
        },
        {
            "name": "RNAV12",
            "fixes": {
                "PISIE": "PISIE AT OR ABOVE 2500",
                "GUBRE": "GUBRE 1800 RNW 12 TRK 116 UNTIL 570",
                "ROMLE": "ROMLE",
                "OKW": "OVERFLY OKW AT OR ABOVE 2500 HOLD AT OKW RIGHT TURN INBOUNDCOURSE 095 LEGDIST 4 FAF GUBRE MAP RNW 12"
            },
            "transitions": [
                {
                    "name": "ALICE",
                    "fixes": {
                        "ALICE": "ALICE",
                        "PISIE": "OVERFLY PISIE AT OR ABOVE 2500 HOLD AT PISIE RIGHT TURN INBOUNDCOURSE 116 ALT 2500 LEGDIST 4"
                    }
                }
            ]
        },
        {
            "name": "RNAV22",
            "fixes": {
                "NENMY": "NENMY AT OR ABOVE 2300",
                "UMABE": "UMABE 1800",
                "NORLK": "NORLK AT OR ABOVE 1160 RNW 22",
                "ROBND": "ROBND TURN LEFT DIRECT",
                "MOVIL": "MOVIL",
                "OKW": "OVERFLY OKW AT OR ABOVE 2500 HOLD AT OKW RIGHT TURN INBOUNDCOURSE 095 LEGDIST 4 FAF UMABE MAP RNW 22"
            },
            "transitions": [
                {
                    "name": "BESOM",
                    "fixes": {
                        "BESOM": "BESOM",
                        "IROSY": "IROSY AT OR ABOVE 2600"
                    }
                },
                {
                    "name": "OKW",
                    "fixes": {
                        "OKW": "OKW"
                    }
                },
                {
                    "name": "SITES",
                    "fixes": {
                        "SITES": "SITES"
                    }
                }
            ]
        },
        {
            "name": "RNAV30",
            "fixes": {
                "DICAV": "DICAV AT OR ABOVE 2500",
                "FEBOG": "FEBOG 1800",
                "JEMUR": "JEMUR AT OR ABOVE 1240 RNW 30 TRK 297 UNTIL 570 TURN LEFT DIRECT",
                "MOVIL": "OVERFLY MOVIL AT OR ABOVE 3000 HOLD AT MOVIL RIGHT TURN INBOUNDCOURSE 050 LEGDIST 4 FAF FEBOG MAP RNW 30"
            },
            "transitions": [
                {
                    "name": "MOVIL",
                    "fixes": {
                        "MOVIL": "MOVIL",
                        "DICAV": "OVERFLY DICAV AT OR ABOVE 2500 HOLD AT DICAV RIGHT TURN INBOUNDCOURSE 297 ALT 2500 LEGDIST 4"
                    }
                },
                {
                    "name": "OKW",
                    "fixes": {
                        "OKW": "OKW"
                    }
                }
            ]
        },
        {
            "name": "VOR04",
            "fixes": {
                "ARDIN": "ARDIN 2100 RNW 04",
                "LDK": "LDK",
                "ZIVMU": "ZIVMU AT OR ABOVE 2300 HOLD AT ZIVMU RIGHT TURN INBOUNDCOURSE 278 LEGTIME 1 FAF ARDIN MAP RNW 04"
            },
            "transitions": [
                {
                    "name": "LDK",
                    "fixes": {
                        "LDK": "LDK",
                        "ARDIN": "ARDIN AT OR ABOVE 2200",
                        "PI001": "PI001 AT OR ABOVE 2200 SPEED 210",
                        "PI002": "OVERFLY PI002 AT OR ABOVE 2200 SPEED 210",
                        "PI003": "PI003 AT OR ABOVE 2200 SPEED 210"
                    }
                }
            ]
        },
        {
            "name": "VOR22",
            "fixes": {
                "HOLTY": "HOLTY AT OR ABOVE 2200",
                "REDSS": "REDSS AT OR ABOVE 1900",
                "LDK": "LDK 1500 RNW 22 TRK 241 UNTIL 570 TURN LEFT HDG 060 INTERCEPT RADIAL 098 TO",
                "ZIVMU": "ZIVMU ZIVMU AT OR ABOVE 2300 HOLD AT ZIVMU RIGHT TURN INBOUNDCOURSE 278 LEGTIME 1 FAF LDK MAP RNW 22"
            },
            "transitions": [
                {
                    "name": "CAYAP",
                    "fixes": {
                        "CAYAP": "CAYAP"
                    }
                },
                {
                    "name": "OKW",
                    "fixes": {
                        "OKW": "OKW",
                        "SABNN": "SABNN AT OR ABOVE 2300"
                    }
                },
                {
                    "name": "ZIVMU",
                    "fixes": {
                        "ZIVMU": "ZIVMU"
                    }
                }
            ]
        }
    ]
}