{
    "fixes": [
        {
            "name": "ALTAM",
            "lat": 37.81217221666667,
            "lon": 121.74709443333333
        },
        {
            "name": "ETACU",
            "lat": 37.61944166666667,
            "lon": 121.34438333333334
        },
        {
            "name": "HAIRE",
            "lat": 37.90713611666666,
            "lon": 121.48037778333334
        },
        {
            "name": "HELVA",
            "lat": 37.589855566666664,
            "lon": 121.30251388333333
        },
        {
            "name": "ICUKO",
            "lat": 37.65351943333334,
            "lon": 121.39268333333334
        },
        {
            "name": "IVABE",
            "lat": 37.69115278333334,
            "lon": 121.31854721666667
        },
        {
            "name": "JENEG",
            "lat": 37.752916666666664,
            "lon": 121.533975
        },
        {
            "name": "LIN",
            "lat": 38.07458056666667,
            "lon": 121.00385833333333
        },
        {
            "name": "MOD",
            "lat": 37.627375,
            "lon": 120.95786943333333
        },
        {
            "name": "NAPYI",
            "lat": 37.523319433333334,
            "lon": 121.20854166666666
        },
        {
            "name": "OMWAP",
            "lat": 37.69166943333333,
            "lon": 121.19073056666667
        },
        {
            "name": "OYOSO",
            "lat": 37.82585556666667,
            "lon": 121.63804721666666
        },
        {
            "name": "PATYY",
            "lat": 37.49155556666667,
            "lon": 121.04998056666666
        },
        {
            "name": "SIGBY",
            "lat": 37.674511116666665,
            "lon": 121.31361388333333
        },
        {
            "name": "SUNOL",
            "lat": 37.605530566666665,
            "lon": 121.81028056666666
        },
        {
            "name": "UCSIJ",
            "lat": 37.69062778333333,
            "lon": 121.42254166666666
        },
        {
            "name": "WIBAG",
            "lat": 37.657944433333334,
            "lon": 121.18759721666666
        },
        {
            "name": "ZADBA",
            "lat": 37.68779721666667,
            "lon": 121.41544166666667
        },
        {
            "name": "ZOTPI",
            "lat": 37.71195278333333,
            "lon": 121.47566666666667
        }
    ],
    "rnws": [
        "RNW 08",
        "RNW 12",
        "RNW 26",
        "RNW 30"
    ],
    "sids": [
        {
            "name": "TRACY1",
            "rnw": "23L",
            "fixes": {},
            "sub_fixes": [
                {
                    "rwy": "RNW 08",
                    "fixes": {
                        "RNW 08": "RNW 08 HDG 075 UNTIL 600 HDG 075 VECTORS"
                    }
                },
                {
                    "rwy": "RNW 12",
                    "fixes": {
                        "RNW 12": "RNW 12 HDG 117 UNTIL 600 HDG 100 VECTORS"
                    }
                },
                {
                    "rwy": "RNW 26",
                    "fixes": {
                        "RNW 26": "RNW 26 HDG 255 UNTIL 600 HDG 300 VECTORS"
                    }
                },
                {
                    "rwy": "RNW 30",
                    "fixes": {
                        "RNW 30": "RNW 30 HDG 297 UNTIL 600 HDG 295 VECTORS"
                    }
                }
            ],
            "transitions": []
        }
    ],
    "stars": [],
    "approaches": [
        {
            "name": "VORD26",
            "fixes": {
                "WIBAG": "WIBAG AT OR ABOVE 3000",
                "SIGBY": "SIGBY 2100",
                "ZADBA": "ZADBA 545 RNW 26 TRK 263 UNTIL 600 TURN RIGHT DIRECT",
                "LIN": "LIN AT OR ABOVE 3000 HOLD AT LIN LEFT TURN INBOUNDCOURSE 284 LEGTIME 1 FAF SIGBY MAP ZADBA"
            },
            "transitions": [
                {
                    "name": "MOD",
                    "fixes": {
                        "MOD": "MOD"
                    }
                }
            ]
        },
        {
            "name": "RNAV12",
            "fixes": {
                "OYOSO": "OYOSO AT OR ABOVE 3100",
                "JENEG": "JENEG 2000",
                "ZOTPI": "ZOTPI AT OR ABOVE 820 RNW 12 TRK 116 UNTIL 700 TURN LEFT DIRECT",
                "HAIRE": "OVERFLY HAIRE AT OR ABOVE 3200 HOLD AT HAIRE RIGHT TURN INBOUNDCOURSE 231 LEGDIST 4 FAF JENEG MAP RNW 12"
            },
            "transitions": [
                {
                    "name": "ALTAM",
                    "fixes": {
                        "ALTAM": "ALTAM"
                    }
                },
                {
                    "name": "HAIRE",
                    "fixes": {
                        "HAIRE": "HAIRE",
                        "OYOSO": "OVERFLY OYOSO AT OR ABOVE 3100 HOLD AT OYOSO LEFT TURN INBOUNDCOURSE 116 ALT 3100 LEGDIST 4"
                    }
                },
                {
                    "name": "SUNOL",
                    "fixes": {
                        "SUNOL": "SUNOL",
                        "OYOSO": "OVERFLY OYOSO AT OR ABOVE 4000 HOLD AT OYOSO LEFT TURN INBOUNDCOURSE 116 ALT 3100 LEGDIST 4"
                    }
                }
            ]
        },
        {
            "name": "RNAV26",
            "fixes": {
                "OMWAP": "OMWAP AT OR ABOVE 3000 OVERFLY OMWAP AT OR ABOVE 3000 SPEED 210 HOLD AT OMWAP RIGHT TURN INBOUNDCOURSE 255 LEGDIST 4 FAF IVABE MAP UCSIJ",
                "IVABE": "IVABE 2000",
                "UCSIJ": "OVERFLY UCSIJ 424 RNW 26 TRK 255 UNTIL 640 TURN RIGHT DIRECT"
            },
            "transitions": [
                {
                    "name": "ALTAM",
                    "fixes": {
                        "ALTAM": "ALTAM",
                        "OMWAP": "OVERFLY OMWAP AT OR ABOVE 4000 HOLD AT OMWAP RIGHT TURN INBOUNDCOURSE 255 ALT 3000 LEGDIST 4"
                    }
                },
                {
                    "name": "PATYY",
                    "fixes": {
                        "PATYY": "PATYY"
                    }
                }
            ]
        },
        {
            "name": "RNAV30",
            "fixes": {
                "NAPYI": "NAPYI AT OR ABOVE 3400",
                "HELVA": "HELVA AT OR ABOVE 2500",
                "ETACU": "ETACU 2100",
                "ICUKO": "ICUKO AT OR ABOVE 1120 RNW 30 TRK 297 UNTIL 700",
                "HAIRE": "OVERFLY HAIRE AT OR ABOVE 3200 HOLD AT HAIRE RIGHT TURN INBOUNDCOURSE 231 LEGDIST 4 FAF ETACU MAP RNW 30"
            },
            "transitions": [
                {
                    "name": "HAIRE",
                    "fixes": {
                        "HAIRE": "HAIRE",
                        "NAPYI": "OVERFLY NAPYI AT OR ABOVE 3400 HOLD AT NAPYI RIGHT TURN INBOUNDCOURSE 297 ALT 3400 LEGDIST 4"
                    }
                },
                {
                    "name": "PATYY",
                    "fixes": {
                        "PATYY": "PATYY"
                    }
                }
            ]
        }
    ]
}