{
    "fixes": [
        {
            "name": "AMNIP",
            "lat": 41.943863883333336,
            "lon": 100.28983888333333
        },
        {
            "name": "CEVUX",
            "lat": 42.129761116666664,
            "lon": 100.75009443333333
        },
        {
            "name": "CILBI",
            "lat": 41.91924721666667,
            "lon": 100.46288333333334
        },
        {
            "name": "CULAN",
            "lat": 41.94116111666666,
            "lon": 100.43145556666667
        },
        {
            "name": "EBZUV",
            "lat": 41.982897216666665,
            "lon": 100.85602778333333
        },
        {
            "name": "EGEYE",
            "lat": 41.79742778333333,
            "lon": 100.396525
        },
        {
            "name": "FETSU",
            "lat": 41.98539443333333,
            "lon": 100.62655
        },
        {
            "name": "LBF",
            "lat": 41.04870556666667,
            "lon": 100.74709721666666
        },
        {
            "name": "MARSS",
            "lat": 42.46358888333334,
            "lon": 100.60425556666667
        },
        {
            "name": "NUXRO",
            "lat": 41.87065833333333,
            "lon": 100.34324166666667
        },
        {
            "name": "PI001",
            "lat": 41.931005766666665,
            "lon": 100.35423648333334
        },
        {
            "name": "PI002",
            "lat": 41.972085033333336,
            "lon": 100.27527453333333
        },
        {
            "name": "PI003",
            "lat": 41.912008633333336,
            "lon": 100.21089513333334
        },
        {
            "name": "PI004",
            "lat": 41.98975611666667,
            "lon": 100.79675216666666
        },
        {
            "name": "PI005",
            "lat": 41.946600333333336,
            "lon": 100.87370563333333
        },
        {
            "name": "PI006",
            "lat": 42.0046454,
            "lon": 100.94113931666666
        },
        {
            "name": "PUCIG",
            "lat": 41.97138056666667,
            "lon": 100.62823333333333
        },
        {
            "name": "TDD",
            "lat": 41.98166388333333,
            "lon": 100.71903333333333
        },
        {
            "name": "UFVOD",
            "lat": 42.05634166666667,
            "lon": 100.80312221666667
        },
        {
            "name": "VEYNE",
            "lat": 42.00810833333333,
            "lon": 100.68296666666667
        }
    ],
    "rnws": [
        "RNW 11",
        "RNW 29"
    ],
    "sids": [],
    "stars": [],
    "approaches": [
        {
            "name": "VORD29",
            "fixes": {
                "CULAN": "CULAN 4900 RNW 29 TURN LEFT HDG 049 INTERCEPT RADIAL 092 TO CULAN CULAN AT OR ABOVE 4900 HOLD AT CULAN RIGHT TURN INBOUNDCOURSE 272 LEGTIME 1 FAF CULAN MAP RNW 29"
            },
            "transitions": [
                {
                    "name": "LBF",
                    "fixes": {
                        "LBF": "LBF",
                        "TDD": "TDD AT OR ABOVE 5100",
                        "CULAN": "CULAN AT OR ABOVE 5100",
                        "PI001": "PI001 AT OR ABOVE 4900 SPEED 210",
                        "PI002": "OVERFLY PI002 AT OR ABOVE 4900 SPEED 210",
                        "PI003": "PI003 AT OR ABOVE 4900 SPEED 210"
                    }
                },
                {
                    "name": "MARSS",
                    "fixes": {
                        "MARSS": "MARSS",
                        "TDD": "TDD AT OR ABOVE 5200",
                        "CULAN": "CULAN AT OR ABOVE 5100",
                        "PI001": "PI001 AT OR ABOVE 4900 SPEED 210",
                        "PI002": "OVERFLY PI002 AT OR ABOVE 4900 SPEED 210",
                        "PI003": "PI003 AT OR ABOVE 4900 SPEED 210"
                    }
                }
            ]
        },
        {
            "name": "RNAV11",
            "fixes": {
                "UFVOD": "UFVOD AT OR ABOVE 5000",
                "VEYNE": "VEYNE 4700",
                "FETSU": "FETSU AT OR ABOVE 3760 RNW 11",
                "NUXRO": "OVERFLY NUXRO AT OR ABOVE 5000 HOLD AT NUXRO RIGHT TURN INBOUNDCOURSE 291 LEGDIST 5 FAF VEYNE MAP RNW 11"
            },
            "transitions": [
                {
                    "name": "CEVUX",
                    "fixes": {
                        "CEVUX": "CEVUX AT OR ABOVE 5000"
                    }
                },
                {
                    "name": "EBZUV",
                    "fixes": {
                        "EBZUV": "EBZUV AT OR ABOVE 5000"
                    }
                },
                {
                    "name": "UFVOD",
                    "fixes": {
                        "UFVOD": "UFVOD RIGHT TURN INBOUNDCOURSE 110 ALT 5000 LEGDIST 5"
                    }
                }
            ]
        },
        {
            "name": "RNAV29",
            "fixes": {
                "NUXRO": "NUXRO AT OR ABOVE 5000",
                "CILBI": "CILBI 4600 RNW 29",
                "UFVOD": "OVERFLY UFVOD AT OR ABOVE 5000 HOLD AT UFVOD RIGHT TURN INBOUNDCOURSE 110 LEGDIST 5 FAF CILBI MAP RNW 29"
            },
            "transitions": [
                {
                    "name": "AMNIP",
                    "fixes": {
                        "AMNIP": "AMNIP AT OR ABOVE 5000"
                    }
                },
                {
                    "name": "EGEYE",
                    "fixes": {
                        "EGEYE": "EGEYE AT OR ABOVE 5000"
                    }
                },
                {
                    "name": "NUXRO",
                    "fixes": {
                        "NUXRO": "NUXRO RIGHT TURN INBOUNDCOURSE 291 ALT 5000 LEGDIST 5"
                    }
                }
            ]
        },
        {
            "name": "VOR11",
            "fixes": {
                "TDD": "TDD 5100 TDD AT OR ABOVE 5100 HOLD AT TDD RIGHT TURN INBOUNDCOURSE 090 LEGTIME 1 FAF TDD MAP RNW 11",
                "PUCIG": "PUCIG AT OR ABOVE 3640 RNW 11 TRK 090 UNTIL 4000 TURN RIGHT DIRECT"
            },
            "transitions": [
                {
                    "name": "LBF",
                    "fixes": {
                        "LBF": "LBF",
                        "TDD": "TDD AT OR ABOVE 5100",
                        "PI004": "PI004 AT OR ABOVE 5100 SPEED 210",
                        "PI005": "OVERFLY PI005 AT OR ABOVE 5100 SPEED 210",
                        "PI006": "PI006 AT OR ABOVE 5100 SPEED 210"
                    }
                },
                {
                    "name": "MARSS",
                    "fixes": {
                        "MARSS": "MARSS",
                        "TDD": "TDD AT OR ABOVE 5200",
                        "PI004": "PI004 AT OR ABOVE 5100 SPEED 210",
                        "PI005": "OVERFLY PI005 AT OR ABOVE 5100 SPEED 210",
                        "PI006": "PI006 AT OR ABOVE 5100 SPEED 210"
                    }
                }
            ]
        }
    ]
}