{
    "fixes": [
        {
            "name": "ADDAX",
            "lat": 29.981116666666665,
            "lon": 83.99830833333333
        },
        {
            "name": "ATYIP",
            "lat": 30.211641666666665,
            "lon": 84.478075
        },
        {
            "name": "BUPYA",
            "lat": 30.314616666666666,
            "lon": 84.35796111666667
        },
        {
            "name": "CEVIR",
            "lat": 30.213547216666665,
            "lon": 84.23571666666666
        },
        {
            "name": "CIGAY",
            "lat": 30.612608333333334,
            "lon": 84.36108333333334
        },
        {
            "name": "CODYS",
            "lat": 30.308316666666666,
            "lon": 84.02638888333334
        },
        {
            "name": "CONPA",
            "lat": 30.501269433333334,
            "lon": 84.57575
        },
        {
            "name": "CTY",
            "lat": 29.599,
            "lon": 83.04879166666667
        },
        {
            "name": "CUSTI",
            "lat": 30.613508333333332,
            "lon": 84.23940833333333
        },
        {
            "name": "DACAR",
            "lat": 30.314775,
            "lon": 84.35150278333333
        },
        {
            "name": "FEBKA",
            "lat": 30.056658333333335,
            "lon": 84.32763611666667
        },
        {
            "name": "FEKAD",
            "lat": 30.393061116666665,
            "lon": 84.11118611666667
        },
        {
            "name": "GACED",
            "lat": 30.392277783333334,
            "lon": 84.22873333333334
        },
        {
            "name": "HAKUT",
            "lat": 30.206533333333333,
            "lon": 84.34149721666667
        },
        {
            "name": "HEGET",
            "lat": 30.390438883333335,
            "lon": 84.45827778333333
        },
        {
            "name": "HEMUX",
            "lat": 30.21265,
            "lon": 84.35689721666667
        },
        {
            "name": "JAKAV",
            "lat": 30.611594433333334,
            "lon": 84.48275556666667
        },
        {
            "name": "JAPMA",
            "lat": 30.510158333333333,
            "lon": 84.36000833333334
        },
        {
            "name": "JERIX",
            "lat": 30.09136111666667,
            "lon": 84.15805278333333
        },
        {
            "name": "JESMA",
            "lat": 30.504986116666668,
            "lon": 84.11211111666667
        },
        {
            "name": "MOGPE",
            "lat": 30.277425,
            "lon": 84.57281943333334
        },
        {
            "name": "OLUGY",
            "lat": 30.392847216666667,
            "lon": 84.14455556666667
        },
        {
            "name": "QUILL",
            "lat": 30.622477783333334,
            "lon": 84.58835556666666
        },
        {
            "name": "RAGKO",
            "lat": 30.389347216666668,
            "lon": 84.57428333333333
        },
        {
            "name": "SANDA",
            "lat": 30.121872216666667,
            "lon": 84.08569443333333
        },
        {
            "name": "SOTOY",
            "lat": 30.281133333333333,
            "lon": 84.11012778333334
        },
        {
            "name": "SPADD",
            "lat": 30.39183888333333,
            "lon": 84.28877778333333
        },
        {
            "name": "SZW",
            "lat": 30.556227783333334,
            "lon": 84.37394166666667
        },
        {
            "name": "VANNS",
            "lat": 30.122508333333332,
            "lon": 84.35595278333334
        },
        {
            "name": "WAPIM",
            "lat": 30.446416666666668,
            "lon": 84.36252221666666
        },
        {
            "name": "XBEGN",
            "lat": 30.359736116666667,
            "lon": 84.355675
        },
        {
            "name": "XEGXY",
            "lat": 30.454247216666666,
            "lon": 84.35942221666667
        },
        {
            "name": "XIGIQ",
            "lat": 30.351472216666668,
            "lon": 84.35834721666667
        },
        {
            "name": "XOTNE",
            "lat": 30.390955566666666,
            "lon": 84.39893611666666
        }
    ],
    "rnws": [
        "RNW 09",
        "RNW 18",
        "RNW 27",
        "RNW 36"
    ],
    "sids": [],
    "stars": [],
    "approaches": [
        {
            "name": "VORD36",
            "fixes": {
                "HAKUT": "HAKUT AT OR ABOVE 3000",
                "DACAR": "DACAR 1600",
                "XBEGN": "XBEGN AT OR ABOVE 740 RNW 36 TRK 353 UNTIL 490",
                "SZW": "SZW AT OR ABOVE 4000",
                "QUILL": "QUILL HOLD AT QUILL RIGHT TURN INBOUNDCOURSE 108 LEGTIME 1 FAF DACAR MAP RNW 36"
            },
            "transitions": [
                {
                    "name": "SZW",
                    "fixes": {
                        "SZW": "SZW",
                        "HAKUT": "HAKUT AT OR ABOVE 3000 HOLD AT HAKUT RIGHT TURN INBOUNDCOURSE 353 ALT 3000 LEGTIME 1"
                    }
                }
            ]
        },
        {
            "name": "ILS27",
            "fixes": {
                "OLUGY": "OLUGY AT OR ABOVE 2600",
                "GACED": "GACED 1800 RNW 27 TRK 274 UNTIL 2000 TURN RIGHT HDG 092 INTERCEPT RADIAL 140 TO GACED GACED AT OR ABOVE 4000 HOLD AT GACED LEFT TURN INBOUNDCOURSE 274 LEGTIME 1 FAF GACED MAP RNW 27"
            },
            "transitions": [
                {
                    "name": "CODYS",
                    "fixes": {
                        "CODYS": "CODYS"
                    }
                },
                {
                    "name": "SZW",
                    "fixes": {
                        "SZW": "SZW",
                        "GACED": "GACED AT OR ABOVE 1900 HOLD AT GACED LEFT TURN INBOUNDCOURSE 274 ALT 1800 LEGTIME 1"
                    }
                }
            ]
        },
        {
            "name": "ILS36",
            "fixes": {
                "VANNS": "VANNS AT OR ABOVE 5000",
                "BUPYA": "BUPYA 1600 RNW 36 TRK 004 UNTIL 490",
                "SZW": "SZW AT OR ABOVE 4000 HOLD AT SZW RIGHT TURN INBOUNDCOURSE 182 LEGTIME 1 FAF BUPYA MAP RNW 36"
            },
            "transitions": [
                {
                    "name": "CTY",
                    "fixes": {
                        "CTY": "CTY",
                        "ADDAX": "ADDAX AT OR ABOVE 5000"
                    }
                },
                {
                    "name": "SZW",
                    "fixes": {
                        "SZW": "SZW",
                        "BUPYA": "BUPYA AT OR ABOVE 1800 HOLD AT BUPYA RIGHT TURN INBOUNDCOURSE 004 ALT 1600 LEGTIME 1"
                    }
                }
            ]
        },
        {
            "name": "RNAV09",
            "fixes": {
                "RAGKO": "RAGKO AT OR ABOVE 3000",
                "HEGET": "HEGET 1800",
                "XOTNE": "XOTNE AT OR ABOVE 800 RNW 09 TRK 094 UNTIL 401",
                "FEKAD": "OVERFLY FEKAD AT OR ABOVE 3000 HOLD AT FEKAD RIGHT TURN INBOUNDCOURSE 275 LEGDIST 4 FAF HEGET MAP RNW 09"
            },
            "transitions": [
                {
                    "name": "CONPA",
                    "fixes": {
                        "CONPA": "CONPA"
                    }
                },
                {
                    "name": "MOGPE",
                    "fixes": {
                        "MOGPE": "MOGPE"
                    }
                },
                {
                    "name": "RAGKO",
                    "fixes": {
                        "RAGKO": "RAGKO RIGHT TURN INBOUNDCOURSE 094 ALT 3000 LEGDIST 4"
                    }
                }
            ]
        },
        {
            "name": "RNAV18",
            "fixes": {
                "CIGAY": "CIGAY AT OR ABOVE 3000",
                "JAPMA": "JAPMA 2000",
                "XEGXY": "XEGXY AT OR ABOVE 920 RNW 18 TRK 184 UNTIL 333",
                "HEMUX": "OVERFLY HEMUX AT OR ABOVE 3000 HOLD AT HEMUX RIGHT TURN INBOUNDCOURSE 004 LEGDIST 4 FAF JAPMA MAP RNW 18"
            },
            "transitions": [
                {
                    "name": "CIGAY",
                    "fixes": {
                        "CIGAY": "CIGAY RIGHT TURN INBOUNDCOURSE 184 ALT 3000 LEGDIST 4"
                    }
                },
                {
                    "name": "CUSTI",
                    "fixes": {
                        "CUSTI": "CUSTI"
                    }
                },
                {
                    "name": "JAKAV",
                    "fixes": {
                        "JAKAV": "JAKAV"
                    }
                }
            ]
        },
        {
            "name": "RNAV27",
            "fixes": {
                "FEKAD": "FEKAD AT OR ABOVE 3000",
                "GACED": "GACED 1800",
                "SPADD": "SPADD AT OR ABOVE 800 RNW 27 TRK 275 UNTIL 258",
                "RAGKO": "OVERFLY RAGKO AT OR ABOVE 3000 HOLD AT RAGKO RIGHT TURN INBOUNDCOURSE 094 LEGDIST 4 FAF GACED MAP RNW 27"
            },
            "transitions": [
                {
                    "name": "FEKAD",
                    "fixes": {
                        "FEKAD": "FEKAD RIGHT TURN INBOUNDCOURSE 275 ALT 3000 LEGDIST 4"
                    }
                },
                {
                    "name": "JESMA",
                    "fixes": {
                        "JESMA": "JESMA"
                    }
                },
                {
                    "name": "SOTOY",
                    "fixes": {
                        "SOTOY": "SOTOY"
                    }
                }
            ]
        },
        {
            "name": "RNAV36",
            "fixes": {
                "HEMUX": "HEMUX AT OR ABOVE 3000",
                "BUPYA": "BUPYA 1600",
                "XIGIQ": "XIGIQ AT OR ABOVE 880 RNW 36 TRK 004 UNTIL 262",
                "CIGAY": "OVERFLY CIGAY AT OR ABOVE 3000 HOLD AT CIGAY RIGHT TURN INBOUNDCOURSE 184 LEGDIST 4 FAF BUPYA MAP RNW 36"
            },
            "transitions": [
                {
                    "name": "ATYIP",
                    "fixes": {
                        "ATYIP": "ATYIP"
                    }
                },
                {
                    "name": "CEVIR",
                    "fixes": {
                        "CEVIR": "CEVIR"
                    }
                },
                {
                    "name": "HEMUX",
                    "fixes": {
                        "HEMUX": "HEMUX RIGHT TURN INBOUNDCOURSE 004 ALT 3000 LEGDIST 4"
                    }
                }
            ]
        },
        {
            "name": "VOR18",
            "fixes": {
                "SZW": "SZW 3000 SZW AT OR ABOVE 3000 HOLD AT SZW RIGHT TURN INBOUNDCOURSE 173 LEGTIME 1 FAF SZW MAP RNW 18",
                "WAPIM": "WAPIM AT OR ABOVE 780 RNW 18 TRK 173 UNTIL 1500 TURN RIGHT DIRECT"
            },
            "transitions": [
                {
                    "name": "SZW",
                    "fixes": {
                        "SZW": "SZW RIGHT TURN INBOUNDCOURSE 173 ALT 3000 LEGTIME 1"
                    }
                }
            ]
        },
        {
            "name": "VOR36",
            "fixes": {
                "HAKUT": "HAKUT AT OR ABOVE 3000",
                "DACAR": "DACAR 1600",
                "XBEGN": "XBEGN AT OR ABOVE 740 RNW 36 TRK 353 UNTIL 490",
                "SZW": "SZW AT OR ABOVE 4000",
                "QUILL": "QUILL HOLD AT QUILL RIGHT TURN INBOUNDCOURSE 108 SPEED 265 LEGDIST 5 FAF DACAR MAP RNW 36"
            },
            "transitions": [
                {
                    "name": "SANDA",
                    "fixes": {
                        "SANDA": "SANDA AT OR ABOVE 17000",
                        "JERIX": "JERIX AT OR ABOVE 14000",
                        "FEBKA": "FEBKA AT OR ABOVE 4900"
                    }
                }
            ]
        },
        {
            "name": "VOR36",
            "fixes": {
                "HAKUT": "HAKUT AT OR ABOVE 3000",
                "DACAR": "DACAR 1600",
                "XBEGN": "XBEGN AT OR ABOVE 740 RNW 36 TRK 353 UNTIL 490",
                "SZW": "SZW AT OR ABOVE 4000",
                "QUILL": "QUILL HOLD AT QUILL RIGHT TURN INBOUNDCOURSE 108 SPEED 265 LEGDIST 5 FAF DACAR MAP RNW 36"
            },
            "transitions": [
                {
                    "name": "SANDA",
                    "fixes": {
                        "SANDA": "SANDA AT OR ABOVE 17000",
                        "JERIX": "JERIX AT OR ABOVE 14000",
                        "FEBKA": "FEBKA AT OR ABOVE 4900"
                    }
                }
            ]
        }
    ]
}