{
    "fixes": [
        {
            "name": "AF001",
            "lat": 39.11316071666667,
            "lon": 95.27158368333333
        },
        {
            "name": "AF002",
            "lat": 39.0504023,
            "lon": 95.29331241666667
        },
        {
            "name": "AF003",
            "lat": 38.995455766666666,
            "lon": 95.3379755
        },
        {
            "name": "AF004",
            "lat": 39.25444845,
            "lon": 95.34021381666666
        },
        {
            "name": "AF005",
            "lat": 39.308435616666664,
            "lon": 95.41604128333333
        },
        {
            "name": "AF006",
            "lat": 39.335125866666665,
            "lon": 95.51318198333334
        },
        {
            "name": "AF007",
            "lat": 39.330243833333334,
            "lon": 95.61609036666667
        },
        {
            "name": "AF008",
            "lat": 39.2945719,
            "lon": 95.70827548333334
        },
        {
            "name": "BECME",
            "lat": 39.20076111666667,
            "lon": 95.79292778333334
        },
        {
            "name": "BILOY",
            "lat": 39.120425,
            "lon": 95.68703333333333
        },
        {
            "name": "CEBAP",
            "lat": 39.178136116666664,
            "lon": 95.27538056666667
        },
        {
            "name": "CENIB",
            "lat": 39.12535833333333,
            "lon": 95.693525
        },
        {
            "name": "CFTXL",
            "lat": 39.057275,
            "lon": 95.60411111666667
        },
        {
            "name": "D143M",
            "lat": 38.953066666666665,
            "lon": 95.40198333333333
        },
        {
            "name": "D294L",
            "lat": 39.233944433333335,
            "lon": 95.77424166666667
        },
        {
            "name": "DIETS",
            "lat": 38.88964166666667,
            "lon": 96.01678888333333
        },
        {
            "name": "GUKEC",
            "lat": 39.26893333333334,
            "lon": 95.61688611666666
        },
        {
            "name": "HUNON",
            "lat": 39.16697778333333,
            "lon": 95.62071666666667
        },
        {
            "name": "ILEMY",
            "lat": 38.828944433333334,
            "lon": 95.30574166666666
        },
        {
            "name": "JHAWK",
            "lat": 38.80551388333333,
            "lon": 95.42093888333333
        },
        {
            "name": "KENEC",
            "lat": 39.230027783333334,
            "lon": 95.83159721666667
        },
        {
            "name": "LOCER",
            "lat": 39.038183333333336,
            "lon": 95.57901111666666
        },
        {
            "name": "OYUPU",
            "lat": 39.0266,
            "lon": 95.62596943333334
        },
        {
            "name": "PI001",
            "lat": 39.160934233333336,
            "lon": 95.74115098333333
        },
        {
            "name": "PI002",
            "lat": 39.232589966666666,
            "lon": 95.74276571666667
        },
        {
            "name": "PI003",
            "lat": 39.23609913333333,
            "lon": 95.84182068333334
        },
        {
            "name": "POACH",
            "lat": 39.01835,
            "lon": 95.55299166666667
        },
        {
            "name": "ROGGO",
            "lat": 39.003827783333335,
            "lon": 95.534
        },
        {
            "name": "ROVVO",
            "lat": 39.183425,
            "lon": 95.29895556666666
        },
        {
            "name": "RUGBB",
            "lat": 39.00686666666667,
            "lon": 95.13581943333334
        },
        {
            "name": "TICOS",
            "lat": 39.11185556666667,
            "lon": 95.62291111666667
        },
        {
            "name": "TOP",
            "lat": 39.13707778333333,
            "lon": 95.54916943333333
        },
        {
            "name": "TUCJA",
            "lat": 38.878575,
            "lon": 95.80224443333333
        },
        {
            "name": "UJASA",
            "lat": 38.935927783333334,
            "lon": 95.44523056666667
        },
        {
            "name": "VECUL",
            "lat": 38.97353056666667,
            "lon": 95.62795
        },
        {
            "name": "WOSMO",
            "lat": 38.87481388333333,
            "lon": 95.63163056666667
        },
        {
            "name": "YAVUP",
            "lat": 38.934705566666665,
            "lon": 95.44364166666666
        },
        {
            "name": "YERUV",
            "lat": 39.272708333333334,
            "lon": 95.78850556666667
        },
        {
            "name": "ZESIR",
            "lat": 39.26490833333333,
            "lon": 95.44528333333334
        },
        {
            "name": "ZOBOS",
            "lat": 39.10043056666667,
            "lon": 95.66073333333334
        },
        {
            "name": "ZUDKI",
            "lat": 38.870797216666666,
            "lon": 95.460925
        }
    ],
    "rnws": [
        "RNW 13",
        "RNW 18",
        "RNW 31",
        "RNW 36"
    ],
    "sids": [],
    "stars": [],
    "approaches": [
        {
            "name": "LOCB31",
            "fixes": {
                "UJASA": "UJASA AT OR ABOVE 4000",
                "POACH": "POACH 2200",
                "CFTXL": "CFTXL 1136 RNW 31 TRK 309 UNTIL 1290 TURN RIGHT DIRECT",
                "TOP": "TOP AT OR ABOVE 2800 HOLD AT TOP LEFT TURN INBOUNDCOURSE 205 LEGTIME 1 FAF POACH MAP CFTXL"
            },
            "transitions": [
                {
                    "name": "CEBAP",
                    "fixes": {
                        "CEBAP": "CEBAP",
                        "AF001": "AF001",
                        "AF002": "AF002",
                        "AF003": "AF003",
                        "D143M": "D143M AT OR ABOVE 4000"
                    }
                },
                {
                    "name": "ILEMY",
                    "fixes": {
                        "ILEMY": "ILEMY"
                    }
                }
            ]
        },
        {
            "name": "ILS13",
            "fixes": {
                "BECME": "BECME AT OR ABOVE 2800",
                "BILOY": "BILOY 2180 RNW 13 TRK 129 UNTIL 1600 TURN LEFT DIRECT",
                "TOP": "TOP AT OR ABOVE 2800 HOLD AT TOP LEFT TURN INBOUNDCOURSE 205 LEGTIME 1 FAF BILOY MAP RNW 13"
            },
            "transitions": [
                {
                    "name": "DIETS",
                    "fixes": {
                        "DIETS": "DIETS",
                        "BILOY": "BILOY AT OR BELOW 6000 AT OR ABOVE 3600",
                        "PI001": "PI001 AT OR ABOVE 2800 SPEED 210",
                        "PI002": "OVERFLY PI002 AT OR ABOVE 2800 SPEED 210",
                        "PI003": "PI003 AT OR ABOVE 2800 SPEED 210"
                    }
                },
                {
                    "name": "ROVVO",
                    "fixes": {
                        "ROVVO": "ROVVO",
                        "AF004": "AF004",
                        "AF005": "AF005",
                        "AF006": "AF006",
                        "AF007": "AF007",
                        "AF008": "AF008",
                        "D294L": "D294L AT OR ABOVE 2800"
                    }
                },
                {
                    "name": "TOP",
                    "fixes": {
                        "TOP": "TOP",
                        "BILOY": "BILOY AT OR BELOW 6000 AT OR ABOVE 2800",
                        "PI001": "PI001 AT OR ABOVE 2800 SPEED 210",
                        "PI002": "OVERFLY PI002 AT OR ABOVE 2800 SPEED 210",
                        "PI003": "PI003 AT OR ABOVE 2800 SPEED 210"
                    }
                }
            ]
        },
        {
            "name": "RNAV13",
            "fixes": {
                "KENEC": "KENEC AT OR ABOVE 3600",
                "CENIB": "CENIB 2300",
                "ZOBOS": "ZOBOS AT OR ABOVE 1600 RNW 13 TRK 129 UNTIL 1091",
                "YAVUP": "OVERFLY YAVUP AT OR ABOVE 3600 HOLD AT YAVUP RIGHT TURN INBOUNDCOURSE 309 LEGDIST 4 FAF CENIB MAP RNW 13"
            },
            "transitions": [
                {
                    "name": "KENEC",
                    "fixes": {
                        "KENEC": "KENEC RIGHT TURN INBOUNDCOURSE 129 ALT 3600 LEGDIST 4"
                    }
                }
            ]
        },
        {
            "name": "RNAV18",
            "fixes": {
                "GUKEC": "GUKEC AT OR ABOVE 3600 OVERFLY GUKEC AT OR ABOVE 3600 HOLD AT GUKEC RIGHT TURN INBOUNDCOURSE 177 LEGDIST 4 FAF HUNON MAP RNW 18",
                "HUNON": "HUNON 2700",
                "TICOS": "TICOS AT OR ABOVE 1640 RNW 18 TRK 177 UNTIL 1500 TURN RIGHT DIRECT"
            },
            "transitions": [
                {
                    "name": "GUKEC",
                    "fixes": {
                        "GUKEC": "GUKEC RIGHT TURN INBOUNDCOURSE 177 ALT 3600 LEGDIST 4"
                    }
                },
                {
                    "name": "YERUV",
                    "fixes": {
                        "YERUV": "YERUV"
                    }
                },
                {
                    "name": "ZESIR",
                    "fixes": {
                        "ZESIR": "ZESIR"
                    }
                }
            ]
        },
        {
            "name": "RNAV31",
            "fixes": {
                "YAVUP": "YAVUP AT OR ABOVE 3600",
                "ROGGO": "ROGGO 2600",
                "LOCER": "LOCER AT OR ABOVE 1660 RNW 31 TRK 309 UNTIL 1281",
                "KENEC": "OVERFLY KENEC AT OR ABOVE 3600 HOLD AT KENEC RIGHT TURN INBOUNDCOURSE 129 LEGDIST 4 FAF ROGGO MAP RNW 31"
            },
            "transitions": [
                {
                    "name": "JHAWK",
                    "fixes": {
                        "JHAWK": "JHAWK"
                    }
                },
                {
                    "name": "RUGBB",
                    "fixes": {
                        "RUGBB": "RUGBB"
                    }
                },
                {
                    "name": "TOP",
                    "fixes": {
                        "TOP": "TOP",
                        "YAVUP": "OVERFLY YAVUP AT OR ABOVE 3600 HOLD AT YAVUP RIGHT TURN INBOUNDCOURSE 309 ALT 3600 LEGDIST 4"
                    }
                }
            ]
        },
        {
            "name": "RNAV36",
            "fixes": {
                "WOSMO": "WOSMO AT OR ABOVE 3600",
                "VECUL": "VECUL 2600",
                "OYUPU": "OYUPU AT OR ABOVE 1580 RNW 36 TRK 357 UNTIL 1254",
                "GUKEC": "OVERFLY GUKEC AT OR ABOVE 3600 HOLD AT GUKEC RIGHT TURN INBOUNDCOURSE 177 LEGDIST 4 FAF VECUL MAP RNW 36"
            },
            "transitions": [
                {
                    "name": "TUCJA",
                    "fixes": {
                        "TUCJA": "TUCJA"
                    }
                },
                {
                    "name": "WOSMO",
                    "fixes": {
                        "WOSMO": "WOSMO RIGHT TURN INBOUNDCOURSE 357 ALT 3600 LEGDIST 4"
                    }
                },
                {
                    "name": "ZUDKI",
                    "fixes": {
                        "ZUDKI": "ZUDKI"
                    }
                }
            ]
        }
    ]
}