{
    "fixes": [
        {
            "name": "AVANS",
            "lat": 34.93435278333333,
            "lon": 110.45860278333333
        },
        {
            "name": "BANZO",
            "lat": 34.70676388333333,
            "lon": 110.08881111666666
        },
        {
            "name": "BOLYN",
            "lat": 34.523505566666664,
            "lon": 110.03856943333334
        },
        {
            "name": "CAMBA",
            "lat": 34.58606666666667,
            "lon": 109.9743
        },
        {
            "name": "DPAUL",
            "lat": 34.483972216666665,
            "lon": 109.82110278333333
        },
        {
            "name": "HOZER",
            "lat": 34.150694433333335,
            "lon": 109.94871111666667
        },
        {
            "name": "SJN",
            "lat": 34.42404166666667,
            "lon": 109.14353056666667
        },
        {
            "name": "ZUKUV",
            "lat": 34.48210556666667,
            "lon": 110.08331943333333
        }
    ],
    "rnws": [
        "RNW 03",
        "RNW 21"
    ],
    "sids": [
        {
            "name": "CAMBA4",
            "rnw": "03",
            "fixes": {
                "CAMBA": "CAMBA AT OR ABOVE 8900"
            },
            "sub_fixes": [],
            "transitions": [
                {
                    "name": "AVANS",
                    "fixes": [
                        "AVANS"
                    ]
                },
                {
                    "name": "SJN",
                    "fixes": [
                        "SJN"
                    ]
                }
            ]
        }
    ],
    "stars": [],
    "approaches": [
        {
            "name": "RNAV21",
            "fixes": {
                "CAMBA": "CAMBA AT OR ABOVE 8000 OVERFLY CAMBA AT OR ABOVE 8000 HOLD AT CAMBA RIGHT TURN INBOUNDCOURSE 211 LEGDIST 7 FAF BOLYN MAP RNW 21",
                "BOLYN": "BOLYN 7400",
                "ZUKUV": "ZUKUV AT OR ABOVE 6340 RNW 21 TRK 213 UNTIL 6300 TURN RIGHT DIRECT"
            },
            "transitions": [
                {
                    "name": "AVANS",
                    "fixes": {
                        "AVANS": "AVANS",
                        "BANZO": "BANZO AT OR ABOVE 8400"
                    }
                },
                {
                    "name": "CAMBA",
                    "fixes": {
                        "CAMBA": "CAMBA RIGHT TURN INBOUNDCOURSE 211 ALT 8000 LEGDIST 7"
                    }
                },
                {
                    "name": "HOZER",
                    "fixes": {
                        "HOZER": "HOZER",
                        "DPAUL": "DPAUL AT OR ABOVE 9900"
                    }
                },
                {
                    "name": "SJN",
                    "fixes": {
                        "SJN": "SJN",
                        "DPAUL": "DPAUL AT OR ABOVE 9200"
                    }
                }
            ]
        }
    ]
}