{
    "fixes": [
        {
            "name": "CUDKO",
            "lat": 28.993469433333335,
            "lon": 97.09548611666666
        },
        {
            "name": "FENCE",
            "lat": 28.786972216666666,
            "lon": 96.83948888333333
        },
        {
            "name": "HEMKU",
            "lat": 28.917983333333332,
            "lon": 97.00148333333334
        },
        {
            "name": "HUSAM",
            "lat": 28.881794433333333,
            "lon": 96.95649166666666
        },
        {
            "name": "KECET",
            "lat": 28.828788883333335,
            "lon": 96.89068056666666
        },
        {
            "name": "PI001",
            "lat": 28.748692816666665,
            "lon": 96.78927463333333
        },
        {
            "name": "PI002",
            "lat": 28.677200616666667,
            "lon": 96.78357646666667
        },
        {
            "name": "PI003",
            "lat": 28.622787333333335,
            "lon": 96.62454375
        },
        {
            "name": "PI004",
            "lat": 28.939343,
            "lon": 97.02846881666666
        },
        {
            "name": "PI005",
            "lat": 28.935567533333334,
            "lon": 97.11024598333333
        },
        {
            "name": "PI006",
            "lat": 29.06743525,
            "lon": 97.19149138333333
        },
        {
            "name": "PI007",
            "lat": 28.938580216666665,
            "lon": 97.02923931666666
        },
        {
            "name": "PI008",
            "lat": 28.933556333333332,
            "lon": 97.11092763333333
        },
        {
            "name": "PI009",
            "lat": 29.064162133333333,
            "lon": 97.19479235
        },
        {
            "name": "PSX",
            "lat": 28.764419433333334,
            "lon": 96.30618056666667
        },
        {
            "name": "RADOY",
            "lat": 28.717188883333332,
            "lon": 96.75388056666667
        },
        {
            "name": "SEYOG",
            "lat": 28.716561116666668,
            "lon": 96.75168888333333
        },
        {
            "name": "TANNA",
            "lat": 28.62361943333333,
            "lon": 96.5934
        },
        {
            "name": "UCORU",
            "lat": 28.79221666666667,
            "lon": 96.84533888333333
        },
        {
            "name": "VCT",
            "lat": 28.900319433333333,
            "lon": 96.97893333333333
        },
        {
            "name": "XUWOX",
            "lat": 28.985580566666666,
            "lon": 97.08566111666667
        }
    ],
    "rnws": [
        "RNW 13",
        "RNW 18",
        "RNW 31",
        "RNW 36"
    ],
    "sids": [],
    "stars": [],
    "approaches": [
        {
            "name": "VORD31",
            "fixes": {
                "RADOY": "RADOY AT OR ABOVE 1800",
                "FENCE": "FENCE 1800 RNW 31 TRK 307 UNTIL 520",
                "VCT": "VCT AT OR ABOVE 2000 HOLD AT VCT RIGHT TURN INBOUNDCOURSE 127 LEGTIME 1 FAF FENCE MAP RNW 31"
            },
            "transitions": [
                {
                    "name": "TANNA",
                    "fixes": {
                        "TANNA": "TANNA HDG 287 INTERCEPT RADIAL 307 TO",
                        "RADOY": "RADOY"
                    }
                },
                {
                    "name": "VCT",
                    "fixes": {
                        "VCT": "VCT",
                        "FENCE": "FENCE AT OR ABOVE 2100",
                        "PI001": "PI001 AT OR ABOVE 2100 SPEED 210",
                        "PI002": "OVERFLY PI002 AT OR ABOVE 2100 SPEED 210",
                        "PI003": "PI003 AT OR ABOVE 2100 SPEED 210"
                    }
                }
            ]
        },
        {
            "name": "ILS13",
            "fixes": {
                "XUWOX": "XUWOX AT OR ABOVE 2200",
                "HEMKU": "HEMKU 1700 RNW 13 TRK 128 UNTIL 2100 TURN LEFT DIRECT",
                "VCT": "VCT HOLD AT VCT RIGHT TURN INBOUNDCOURSE 128 LEGTIME 1 FAF HEMKU MAP RNW 13"
            },
            "transitions": [
                {
                    "name": "PSX",
                    "fixes": {
                        "PSX": "PSX",
                        "VCT": "VCT AT OR ABOVE 2200",
                        "PI004": "PI004 AT OR ABOVE 2200 SPEED 210",
                        "PI005": "OVERFLY PI005 AT OR ABOVE 2200 SPEED 210",
                        "PI006": "PI006 AT OR ABOVE 2200 SPEED 210"
                    }
                }
            ]
        },
        {
            "name": "RNAV13",
            "fixes": {
                "CUDKO": "CUDKO AT OR ABOVE 2200",
                "HEMKU": "HEMKU 1700",
                "HUSAM": "HUSAM AT OR ABOVE 660 RNW 13 TRK 128 UNTIL 315",
                "SEYOG": "OVERFLY SEYOG AT OR ABOVE 2200 HOLD AT SEYOG RIGHT TURN INBOUNDCOURSE 309 LEGDIST 7 FAF HEMKU MAP RNW 13"
            },
            "transitions": [
                {
                    "name": "CUDKO",
                    "fixes": {
                        "CUDKO": "CUDKO RIGHT TURN INBOUNDCOURSE 128 ALT 2200 LEGDIST 7"
                    }
                }
            ]
        },
        {
            "name": "RNAV31",
            "fixes": {
                "SEYOG": "SEYOG AT OR ABOVE 2200",
                "UCORU": "UCORU 1700",
                "KECET": "KECET AT OR ABOVE 660 RNW 31 TRK 308 UNTIL 306",
                "CUDKO": "OVERFLY CUDKO AT OR ABOVE 2200 HOLD AT CUDKO RIGHT TURN INBOUNDCOURSE 128 LEGDIST 7 FAF UCORU MAP RNW 31"
            },
            "transitions": [
                {
                    "name": "SEYOG",
                    "fixes": {
                        "SEYOG": "SEYOG RIGHT TURN INBOUNDCOURSE 309 ALT 2200 LEGDIST 7"
                    }
                }
            ]
        },
        {
            "name": "VOR13",
            "fixes": {
                "VCT": "VCT 1300 RNW 13 TRK 127 UNTIL 515 TURN LEFT DIRECT VCT AT OR ABOVE 2200 HOLD AT VCT RIGHT TURN INBOUNDCOURSE 127 ALT 2200 LEGTIME 1 FAF VCT MAP RNW 13"
            },
            "transitions": [
                {
                    "name": "PSX",
                    "fixes": {
                        "PSX": "PSX",
                        "VCT": "VCT AT OR ABOVE 2200",
                        "PI007": "PI007 AT OR ABOVE 2200 SPEED 210",
                        "PI008": "OVERFLY PI008 AT OR ABOVE 2200 SPEED 210",
                        "PI009": "PI009 AT OR ABOVE 2200 SPEED 210"
                    }
                }
            ]
        }
    ]
}