{
    "fixes": [
        {
            "name": "AAREN",
            "lat": 36.511025,
            "lon": 78.95784721666666
        },
        {
            "name": "ALDAN",
            "lat": 36.397933333333334,
            "lon": 78.93412778333334
        },
        {
            "name": "BUSSI",
            "lat": 36.51694166666667,
            "lon": 78.83401111666667
        },
        {
            "name": "CUVAR",
            "lat": 36.52271111666666,
            "lon": 78.71015556666667
        },
        {
            "name": "DELET",
            "lat": 36.61779166666667,
            "lon": 78.84133611666667
        },
        {
            "name": "DICYE",
            "lat": 36.703158333333334,
            "lon": 78.87862778333333
        },
        {
            "name": "HARVY",
            "lat": 36.74616666666667,
            "lon": 78.47193888333334
        },
        {
            "name": "MACPO",
            "lat": 36.708786116666666,
            "lon": 78.85249721666666
        },
        {
            "name": "MOOEE",
            "lat": 36.674549999999996,
            "lon": 78.84544443333333
        },
        {
            "name": "PI001",
            "lat": 36.65796366666667,
            "lon": 79.08403811666666
        },
        {
            "name": "PI002",
            "lat": 36.59467841666667,
            "lon": 79.12594445
        },
        {
            "name": "PI003",
            "lat": 36.62614535,
            "lon": 79.2130984
        },
        {
            "name": "SBV",
            "lat": 36.675038883333336,
            "lon": 79.0145
        }
    ],
    "rnws": [
        "RNW 01",
        "RNW 06",
        "RNW 19",
        "RNW 24"
    ],
    "sids": [],
    "stars": [],
    "approaches": [
        {
            "name": "RNAV01",
            "fixes": {
                "BUSSI": "BUSSI AT OR ABOVE 2600",
                "DELET": "DELET 2100",
                "MOOEE": "MOOEE AT OR ABOVE 1000 RNW 01 TRK 005 UNTIL 660 TURN RIGHT DIRECT",
                "HARVY": "OVERFLY HARVY AT OR ABOVE 3000 HOLD AT HARVY RIGHT TURN INBOUNDCOURSE 221 LEGDIST 4 FAF DELET MAP RNW 01"
            },
            "transitions": [
                {
                    "name": "ALDAN",
                    "fixes": {
                        "ALDAN": "ALDAN"
                    }
                },
                {
                    "name": "HARVY",
                    "fixes": {
                        "HARVY": "HARVY",
                        "CUVAR": "CUVAR AT OR ABOVE 3000"
                    }
                },
                {
                    "name": "SBV",
                    "fixes": {
                        "SBV": "SBV",
                        "AAREN": "AAREN AT OR ABOVE 2600"
                    }
                }
            ]
        },
        {
            "name": "VORA01",
            "fixes": {
                "SBV": "SBV 3000 SBV AT OR ABOVE 3000 HOLD AT SBV RIGHT TURN INBOUNDCOURSE 081 LEGTIME 1 FAF SBV MAP MACPO",
                "DICYE": "DICYE AT OR ABOVE 1200",
                "MACPO": "OVERFLY MACPO 1060 RNW 01 TURN LEFT DIRECT"
            },
            "transitions": [
                {
                    "name": "SBV",
                    "fixes": {
                        "PI001": "PI001 AT OR ABOVE 3000 SPEED 210",
                        "PI002": "OVERFLY PI002 AT OR ABOVE 3000 SPEED 210",
                        "PI003": "PI003 AT OR ABOVE 3000 SPEED 210"
                    }
                }
            ]
        },
        {
            "name": "VORA06",
            "fixes": {
                "SBV": "SBV 3000 SBV AT OR ABOVE 3000 HOLD AT SBV RIGHT TURN INBOUNDCOURSE 081 LEGTIME 1 FAF SBV MAP MACPO",
                "DICYE": "DICYE AT OR ABOVE 1200",
                "MACPO": "OVERFLY MACPO 1060 RNW 06 TURN LEFT DIRECT"
            },
            "transitions": [
                {
                    "name": "SBV",
                    "fixes": {
                        "PI001": "PI001 AT OR ABOVE 3000 SPEED 210",
                        "PI002": "OVERFLY PI002 AT OR ABOVE 3000 SPEED 210",
                        "PI003": "PI003 AT OR ABOVE 3000 SPEED 210"
                    }
                }
            ]
        },
        {
            "name": "VORA19",
            "fixes": {
                "SBV": "SBV 3000 SBV AT OR ABOVE 3000 HOLD AT SBV RIGHT TURN INBOUNDCOURSE 081 LEGTIME 1 FAF SBV MAP MACPO",
                "DICYE": "DICYE AT OR ABOVE 1200",
                "MACPO": "OVERFLY MACPO 1060 RNW 19 TURN LEFT DIRECT"
            },
            "transitions": [
                {
                    "name": "SBV",
                    "fixes": {
                        "PI001": "PI001 AT OR ABOVE 3000 SPEED 210",
                        "PI002": "OVERFLY PI002 AT OR ABOVE 3000 SPEED 210",
                        "PI003": "PI003 AT OR ABOVE 3000 SPEED 210"
                    }
                }
            ]
        },
        {
            "name": "VORA24",
            "fixes": {
                "SBV": "SBV 3000 SBV AT OR ABOVE 3000 HOLD AT SBV RIGHT TURN INBOUNDCOURSE 081 LEGTIME 1 FAF SBV MAP MACPO",
                "DICYE": "DICYE AT OR ABOVE 1200",
                "MACPO": "OVERFLY MACPO 1060 RNW 24 TURN LEFT DIRECT"
            },
            "transitions": [
                {
                    "name": "SBV",
                    "fixes": {
                        "PI001": "PI001 AT OR ABOVE 3000 SPEED 210",
                        "PI002": "OVERFLY PI002 AT OR ABOVE 3000 SPEED 210",
                        "PI003": "PI003 AT OR ABOVE 3000 SPEED 210"
                    }
                }
            ]
        }
    ]
}