{
    "fixes": [
        {
            "name": "CAXOB",
            "lat": 27.293486116666667,
            "lon": 81.694875
        },
        {
            "name": "OYIVO",
            "lat": 27.219105566666666,
            "lon": 81.80309443333333
        },
        {
            "name": "ROGAN",
            "lat": 27.250794433333333,
            "lon": 81.89285833333334
        },
        {
            "name": "VUYUY",
            "lat": 27.172102783333333,
            "lon": 81.87135
        },
        {
            "name": "WOMRI",
            "lat": 27.097594433333335,
            "lon": 81.97934443333334
        },
        {
            "name": "YIDUN",
            "lat": 27.249836116666668,
            "lon": 81.75841666666666
        },
        {
            "name": "ZISMU",
            "lat": 27.141236116666665,
            "lon": 81.91612221666666
        }
    ],
    "rnws": [
        "RNW 06",
        "RNW 14",
        "RNW 24",
        "RNW 32"
    ],
    "sids": [],
    "stars": [],
    "approaches": [
        {
            "name": "RNAVA06",
            "fixes": {
                "WOMRI": "WOMRI AT OR ABOVE 2000",
                "ZISMU": "ZISMU 1700",
                "VUYUY": "VUYUY AT OR ABOVE 720 RNW 06 TRK 058 UNTIL 1400 TURN LEFT DIRECT",
                "ROGAN": "OVERFLY ROGAN AT OR ABOVE 2000 HOLD AT ROGAN RIGHT TURN INBOUNDCOURSE 139 LEGDIST 4 FAF ZISMU MAP RNW 06"
            },
            "transitions": [
                {
                    "name": "WOMRI",
                    "fixes": {
                        "WOMRI": "WOMRI LEFT TURN INBOUNDCOURSE 058 ALT 2000 LEGDIST 4"
                    }
                }
            ]
        },
        {
            "name": "RNAVB24",
            "fixes": {
                "CAXOB": "CAXOB AT OR ABOVE 2000",
                "YIDUN": "YIDUN 1700",
                "OYIVO": "OYIVO AT OR ABOVE 740 RNW 24 TRK 238 UNTIL 1400 TURN RIGHT DIRECT",
                "ROGAN": "OVERFLY ROGAN AT OR ABOVE 2000 HOLD AT ROGAN RIGHT TURN INBOUNDCOURSE 139 LEGDIST 4 FAF YIDUN MAP RNW 24"
            },
            "transitions": [
                {
                    "name": "CAXOB",
                    "fixes": {
                        "CAXOB": "CAXOB RIGHT TURN INBOUNDCOURSE 238 ALT 2000 LEGDIST 4"
                    }
                }
            ]
        }
    ]
}