{
    "fixes": [
        {
            "name": "BACUS",
            "lat": 42.956102783333336,
            "lon": 97.43101388333334
        },
        {
            "name": "HARDS",
            "lat": 42.56855556666667,
            "lon": 97.40380833333333
        },
        {
            "name": "HUGAT",
            "lat": 42.74594166666667,
            "lon": 97.1897
        },
        {
            "name": "KUYEP",
            "lat": 42.873388883333334,
            "lon": 97.33577221666667
        },
        {
            "name": "OBERT",
            "lat": 42.71268333333333,
            "lon": 97.00017221666667
        },
        {
            "name": "PUKIC",
            "lat": 43.16891388333333,
            "lon": 97.57318611666666
        },
        {
            "name": "TUYBO",
            "lat": 43.070497216666666,
            "lon": 97.56330833333334
        },
        {
            "name": "TYNDA",
            "lat": 43.011997216666664,
            "lon": 97.82712221666667
        },
        {
            "name": "WINEL",
            "lat": 42.84043056666667,
            "lon": 97.29791666666667
        },
        {
            "name": "YOTUS",
            "lat": 42.994166666666665,
            "lon": 97.47496111666666
        },
        {
            "name": "ZIMUK",
            "lat": 42.87971666666667,
            "lon": 97.34304721666666
        },
        {
            "name": "ZODAP",
            "lat": 42.99831111666667,
            "lon": 97.68245278333333
        },
        {
            "name": "ZUSBU",
            "lat": 42.820591666666665,
            "lon": 97.20141388333333
        }
    ],
    "rnws": [
        "RNW 02",
        "RNW 13",
        "RNW 20",
        "RNW 31"
    ],
    "sids": [],
    "stars": [],
    "approaches": [
        {
            "name": "ILS31",
            "fixes": {
                "HUGAT": "HUGAT AT OR ABOVE 3500",
                "WINEL": "WINEL 3100 RNW 31 TRK 317 UNTIL 1710",
                "YOTUS": "YOTUS AT OR ABOVE 3500 HOLD AT YOTUS RIGHT TURN INBOUNDCOURSE 137 ALT 3500 LEGDIST 4 FAF WINEL MAP RNW 31"
            },
            "transitions": [
                {
                    "name": "HUGAT",
                    "fixes": {
                        "HUGAT": "HUGAT RIGHT TURN INBOUNDCOURSE 317 ALT 3500 LEGTIME 1"
                    }
                }
            ]
        },
        {
            "name": "RNAV13",
            "fixes": {
                "TUYBO": "TUYBO AT OR ABOVE 4000",
                "YOTUS": "YOTUS 3100",
                "BACUS": "BACUS AT OR ABOVE 2140 RNW 13 TRK 137 UNTIL 1556",
                "KUYEP": "KUYEP",
                "ZUSBU": "OVERFLY ZUSBU AT OR ABOVE 4000 HOLD AT ZUSBU RIGHT TURN INBOUNDCOURSE 123 ALT 4000 LEGDIST 4 FAF YOTUS MAP RNW 13"
            },
            "transitions": [
                {
                    "name": "PUKIC",
                    "fixes": {
                        "PUKIC": "PUKIC"
                    }
                },
                {
                    "name": "TUYBO",
                    "fixes": {
                        "TUYBO": "TUYBO LEFT TURN INBOUNDCOURSE 137 ALT 4000 LEGDIST 4"
                    }
                },
                {
                    "name": "TYNDA",
                    "fixes": {
                        "TYNDA": "TYNDA",
                        "ZODAP": "ZODAP AT OR ABOVE 4000"
                    }
                }
            ]
        },
        {
            "name": "RNAV31",
            "fixes": {
                "HUGAT": "HUGAT AT OR ABOVE 3500",
                "WINEL": "WINEL 3100",
                "ZIMUK": "ZIMUK AT OR ABOVE 2100 RNW 31 TRK 317 UNTIL 1485",
                "YOTUS": "OVERFLY YOTUS AT OR ABOVE 3500 HOLD AT YOTUS RIGHT TURN INBOUNDCOURSE 137 ALT 3500 LEGDIST 4 FAF WINEL MAP RNW 31"
            },
            "transitions": [
                {
                    "name": "HARDS",
                    "fixes": {
                        "HARDS": "HARDS"
                    }
                },
                {
                    "name": "HUGAT",
                    "fixes": {
                        "HUGAT": "HUGAT RIGHT TURN INBOUNDCOURSE 317 ALT 3500 LEGDIST 4"
                    }
                },
                {
                    "name": "OBERT",
                    "fixes": {
                        "OBERT": "OBERT"
                    }
                }
            ]
        }
    ]
}