{
    "fixes": [
        {
            "name": "25DME",
            "lat": 44.06544443333333,
            "lon": 15.404527783333334
        },
        {
            "name": "25NDB",
            "lat": 44.065416666666664,
            "lon": 15.404472216666667
        },
        {
            "name": "40DME",
            "lat": 44.14302778333333,
            "lon": 15.299527783333334
        },
        {
            "name": "40VOR",
            "lat": 44.14305556666667,
            "lon": 15.299555566666667
        },
        {
            "name": "AF001",
            "lat": 44.20488926666667,
            "lon": 15.250380366666667
        },
        {
            "name": "AF002",
            "lat": 44.17683208333333,
            "lon": 15.211376866666667
        },
        {
            "name": "AF003",
            "lat": 44.14192536666667,
            "lon": 15.185267733333333
        },
        {
            "name": "AF004",
            "lat": 44.103111266666666,
            "lon": 15.174229516666667
        },
        {
            "name": "AF005",
            "lat": 44.0636553,
            "lon": 15.179161133333333
        },
        {
            "name": "AF006",
            "lat": 43.97193971666667,
            "lon": 15.445981466666666
        },
        {
            "name": "AF007",
            "lat": 43.959671916666665,
            "lon": 15.387365866666666
        },
        {
            "name": "AF008",
            "lat": 43.96139291666667,
            "lon": 15.326374716666667
        },
        {
            "name": "ANAKO",
            "lat": 43.858277783333335,
            "lon": 15.458388883333333
        },
        {
            "name": "BEPTU",
            "lat": 44.020833333333336,
            "lon": 15.690194433333334
        },
        {
            "name": "BO",
            "lat": 44.16924721666667,
            "lon": 15.264002783333334
        },
        {
            "name": "CD04",
            "lat": 44.00027778333333,
            "lon": 15.234527783333334
        },
        {
            "name": "CF13",
            "lat": 44.21446388333333,
            "lon": 15.202416666666666
        },
        {
            "name": "CI13",
            "lat": 44.214563883333334,
            "lon": 15.202336116666666
        },
        {
            "name": "D117F",
            "lat": 44.045116666666665,
            "lon": 15.479897216666666
        },
        {
            "name": "D127C",
            "lat": 44.06251388333333,
            "lon": 15.416572216666667
        },
        {
            "name": "D137H",
            "lat": 43.9949,
            "lon": 15.476780566666667
        },
        {
            "name": "D206H",
            "lat": 43.97691666666667,
            "lon": 15.269591666666667
        },
        {
            "name": "D219J",
            "lat": 43.973694433333335,
            "lon": 15.206222216666667
        },
        {
            "name": "D221E",
            "lat": 44.03636111666667,
            "lon": 15.282538883333334
        },
        {
            "name": "D221H",
            "lat": 43.99859721666667,
            "lon": 15.230344433333332
        },
        {
            "name": "D236H",
            "lat": 44.026863883333334,
            "lon": 15.200175
        },
        {
            "name": "D317V",
            "lat": 44.37983333333333,
            "lon": 15.042475
        },
        {
            "name": "D336J",
            "lat": 44.251583333333336,
            "lon": 15.283527783333334
        },
        {
            "name": "D336X",
            "lat": 44.47022221666667,
            "lon": 15.169833333333333
        },
        {
            "name": "DINKO",
            "lat": 44.02608333333333,
            "lon": 15.275555566666666
        },
        {
            "name": "EDADI",
            "lat": 43.91669443333333,
            "lon": 15.382722216666666
        },
        {
            "name": "ELGUS",
            "lat": 43.54777778333333,
            "lon": 14.966666666666667
        },
        {
            "name": "FD04",
            "lat": 44.03,
            "lon": 15.275
        },
        {
            "name": "FF13",
            "lat": 44.190722216666664,
            "lon": 15.234861116666666
        },
        {
            "name": "FI13",
            "lat": 44.190694433333334,
            "lon": 15.234805566666667
        },
        {
            "name": "KUDUL",
            "lat": 44.66972221666666,
            "lon": 15.065277783333332
        },
        {
            "name": "LEBDI",
            "lat": 44.217722216666665,
            "lon": 15.198027783333334
        },
        {
            "name": "LEVPA",
            "lat": 43.99941666666667,
            "lon": 15.493722216666667
        },
        {
            "name": "LOSNB",
            "lat": 44.52709721666667,
            "lon": 14.472847216666667
        },
        {
            "name": "LUKAV",
            "lat": 44.35730556666667,
            "lon": 15.007416666666666
        },
        {
            "name": "MD04",
            "lat": 44.071583333333336,
            "lon": 15.33175
        },
        {
            "name": "MD13",
            "lat": 44.119194433333334,
            "lon": 15.331888883333333
        },
        {
            "name": "MINTU",
            "lat": 44.34,
            "lon": 14.695555566666666
        },
        {
            "name": "MQ13Z",
            "lat": 44.119138883333335,
            "lon": 15.331833333333334
        },
        {
            "name": "NEDID",
            "lat": 44.43894443333333,
            "lon": 15.123722216666666
        },
        {
            "name": "NOBRU",
            "lat": 44.275666666666666,
            "lon": 14.891361116666667
        },
        {
            "name": "OSTAK",
            "lat": 44.05861111666667,
            "lon": 15.099388883333333
        },
        {
            "name": "PALEZ",
            "lat": 44.575,
            "lon": 15.533055566666667
        },
        {
            "name": "RAVNA",
            "lat": 44.53027778333333,
            "lon": 14.858333333333333
        },
        {
            "name": "RIMUG",
            "lat": 43.903666666666666,
            "lon": 15.341055566666666
        },
        {
            "name": "RODGO",
            "lat": 43.93961111666667,
            "lon": 15.574138883333333
        },
        {
            "name": "SALNB",
            "lat": 43.93786111666667,
            "lon": 15.168111116666667
        },
        {
            "name": "SOGRA",
            "lat": 43.89727778333334,
            "lon": 15.117388883333334
        },
        {
            "name": "SPL",
            "lat": 43.496580566666665,
            "lon": 16.304722216666665
        },
        {
            "name": "SPL30",
            "lat": 43.82666666666667,
            "lon": 15.774444433333333
        },
        {
            "name": "ZD401",
            "lat": 43.981194433333336,
            "lon": 15.220388883333333
        },
        {
            "name": "ZD502",
            "lat": 44.19294443333333,
            "lon": 15.005388883333334
        },
        {
            "name": "ZD503",
            "lat": 44.27466666666667,
            "lon": 15.120416666666667
        },
        {
            "name": "ZD504",
            "lat": 44.0595,
            "lon": 15.412666666666667
        },
        {
            "name": "ZD702",
            "lat": 43.974638883333334,
            "lon": 14.996527783333333
        },
        {
            "name": "ZD704",
            "lat": 43.819916666666664,
            "lon": 15.238111116666667
        },
        {
            "name": "ZD707",
            "lat": 43.76380556666667,
            "lon": 15.675833333333333
        },
        {
            "name": "ZD708",
            "lat": 44.267861116666666,
            "lon": 15.357472216666666
        },
        {
            "name": "ZD734",
            "lat": 44.53758333333333,
            "lon": 14.966583333333332
        },
        {
            "name": "ZD735",
            "lat": 44.43986111666667,
            "lon": 14.894027783333334
        },
        {
            "name": "ZD736",
            "lat": 43.737861116666664,
            "lon": 15.624194433333333
        },
        {
            "name": "ZD767",
            "lat": 43.587,
            "lon": 16.15713888333333
        },
        {
            "name": "ZD768",
            "lat": 44.17475,
            "lon": 15.483
        },
        {
            "name": "ZD807",
            "lat": 43.937111116666664,
            "lon": 15.422388883333333
        },
        {
            "name": "ZD808",
            "lat": 43.95244443333333,
            "lon": 15.5915
        },
        {
            "name": "ZD850",
            "lat": 44.07983333333333,
            "lon": 15.148444433333333
        },
        {
            "name": "ZD851",
            "lat": 44.15825,
            "lon": 15.473194433333333
        },
        {
            "name": "ZD852",
            "lat": 44.28180556666667,
            "lon": 15.304416666666667
        },
        {
            "name": "ZD908",
            "lat": 44.004666666666665,
            "lon": 15.062944433333334
        },
        {
            "name": "ZD909",
            "lat": 44.09011111666667,
            "lon": 15.029944433333334
        },
        {
            "name": "ZD910",
            "lat": 43.870972216666665,
            "lon": 15.273027783333333
        },
        {
            "name": "ZD911",
            "lat": 43.83175,
            "lon": 15.382972216666667
        },
        {
            "name": "ZD950",
            "lat": 44.02625,
            "lon": 15.087138883333333
        },
        {
            "name": "ZD951",
            "lat": 44.322277783333334,
            "lon": 15.092833333333333
        },
        {
            "name": "ZDA",
            "lat": 44.095322216666666,
            "lon": 15.364227783333334
        },
        {
            "name": "ZK",
            "lat": 44.094569433333334,
            "lon": 15.365072216666666
        },
        {
            "name": "ZRANB",
            "lat": 43.99715556666666,
            "lon": 15.496475
        }
    ],
    "rnws": [
        "RNW 04",
        "RNW 13",
        "RNW 22",
        "RNW 31"
    ],
    "sids": [
        {
            "name": "PALE1B",
            "rnw": "13",
            "fixes": {
                "D127C": "OVERFLY D127C TURN RIGHT DIRECT",
                "ZDA": "ZDA AT OR ABOVE 6000",
                "PALEZ": "PALEZ AT OR ABOVE 8000"
            },
            "sub_fixes": [],
            "transitions": []
        },
        {
            "name": "PALE1C",
            "rnw": "22",
            "fixes": {
                "D221E": "OVERFLY D221E TURN RIGHT DIRECT",
                "BO": "BO AT OR ABOVE 6000 SPEED 250",
                "PALEZ": "PALEZ AT OR ABOVE 8000"
            },
            "sub_fixes": [],
            "transitions": []
        },
        {
            "name": "PALE1D",
            "rnw": "31",
            "fixes": {
                "ZDA": "ZDA AT OR ABOVE 6000 TURN LEFT HDG 340 INTERCEPT RADIAL 010 TO",
                "PALEZ": "PALEZ AT OR ABOVE 8000"
            },
            "sub_fixes": [],
            "transitions": []
        },
        {
            "name": "PALE1V",
            "rnw": "13",
            "fixes": {
                "ZD850": "OVERFLY ZD850 AT OR ABOVE 8000",
                "PALEZ": "PALEZ"
            },
            "sub_fixes": [],
            "transitions": []
        },
        {
            "name": "PALE1X",
            "rnw": "13",
            "fixes": {
                "ZRANB": "OVERFLY ZRANB SPEED 250 TURN LEFT DIRECT",
                "ZD851": "ZD851 AT OR BELOW 9000 AT OR ABOVE 7800",
                "ZD852": "ZD852",
                "PALEZ": "PALEZ"
            },
            "sub_fixes": [],
            "transitions": []
        },
        {
            "name": "PALE2A",
            "rnw": "04",
            "fixes": {
                "ZDA": "ZDA AT OR ABOVE 6000 HDG 040 INTERCEPT RADIAL 010 TO",
                "PALEZ": "PALEZ AT OR ABOVE 8000"
            },
            "sub_fixes": [],
            "transitions": []
        },
        {
            "name": "PALE2T",
            "rnw": "31",
            "fixes": {
                "BO": "OVERFLY BO SPEED 230",
                "ZD951": "ZD951",
                "PALEZ": "PALEZ AT OR ABOVE 8000"
            },
            "sub_fixes": [],
            "transitions": []
        },
        {
            "name": "PALE2U",
            "rnw": "22",
            "fixes": {
                "SALNB": "SALNB AT OR ABOVE 3000 SPEED 230",
                "ZD908": "ZD908 SPEED 250",
                "ZD909": "ZD909",
                "PALEZ": "PALEZ AT OR ABOVE 8000"
            },
            "sub_fixes": [],
            "transitions": []
        },
        {
            "name": "PALE2W",
            "rnw": "04",
            "fixes": {
                "ZD807": "OVERFLY ZD807 AT OR BELOW 8000 AT OR ABOVE 3000 SPEED 250 TURN RIGHT DIRECT",
                "BO": "BO AT OR ABOVE 7000",
                "PALEZ": "PALEZ"
            },
            "sub_fixes": [],
            "transitions": []
        },
        {
            "name": "RAVN1B",
            "rnw": "13",
            "fixes": {
                "D127C": "OVERFLY D127C TURN RIGHT DIRECT",
                "ZDA": "ZDA AT OR ABOVE 6000",
                "RAVNA": "RAVNA AT OR ABOVE 8000"
            },
            "sub_fixes": [],
            "transitions": []
        },
        {
            "name": "RAVN1C",
            "rnw": "22",
            "fixes": {
                "D221E": "OVERFLY D221E TURN RIGHT TRK 006 INTERCEPT RADIAL 316 TO",
                "RAVNA": "RAVNA AT OR ABOVE 8000"
            },
            "sub_fixes": [],
            "transitions": []
        },
        {
            "name": "RAVN1D",
            "rnw": "31",
            "fixes": {
                "ZDA": "ZDA",
                "RAVNA": "RAVNA AT OR ABOVE 8000"
            },
            "sub_fixes": [],
            "transitions": []
        },
        {
            "name": "RAVN1T",
            "rnw": "31",
            "fixes": {
                "BO": "OVERFLY BO",
                "RAVNA": "RAVNA"
            },
            "sub_fixes": [],
            "transitions": []
        },
        {
            "name": "RAVN1U",
            "rnw": "22",
            "fixes": {
                "SALNB": "SALNB AT OR ABOVE 3000 SPEED 230",
                "ZD908": "ZD908 SPEED 250",
                "ZD909": "ZD909",
                "RAVNA": "RAVNA"
            },
            "sub_fixes": [],
            "transitions": []
        },
        {
            "name": "RAVN1V",
            "rnw": "13",
            "fixes": {
                "ZD850": "OVERFLY ZD850 AT OR ABOVE 8000",
                "RAVNA": "RAVNA"
            },
            "sub_fixes": [],
            "transitions": []
        },
        {
            "name": "RAVN1X",
            "rnw": "13",
            "fixes": {
                "ZRANB": "OVERFLY ZRANB SPEED 250 TURN LEFT DIRECT",
                "ZD851": "ZD851 AT OR BELOW 9000 AT OR ABOVE 7800",
                "ZD852": "ZD852",
                "RAVNA": "RAVNA"
            },
            "sub_fixes": [],
            "transitions": []
        },
        {
            "name": "RAVN2A",
            "rnw": "04",
            "fixes": {
                "ZDA": "ZDA AT OR ABOVE 6000",
                "RAVNA": "RAVNA AT OR ABOVE 8000"
            },
            "sub_fixes": [],
            "transitions": []
        },
        {
            "name": "RAVN2W",
            "rnw": "04",
            "fixes": {
                "ZD807": "OVERFLY ZD807 AT OR BELOW 8000 AT OR ABOVE 3000 SPEED 250 TURN RIGHT DIRECT",
                "BO": "BO AT OR ABOVE 7000",
                "RAVNA": "RAVNA"
            },
            "sub_fixes": [],
            "transitions": []
        },
        {
            "name": "SAL1T",
            "rnw": "31",
            "fixes": {
                "BO": "OVERFLY BO SPEED 230 TURN LEFT DIRECT",
                "ZD950": "ZD950 SPEED 260",
                "SALNB": "SALNB"
            },
            "sub_fixes": [],
            "transitions": []
        },
        {
            "name": "SAL1U",
            "rnw": "22",
            "fixes": {
                "SALNB": "SALNB AT OR ABOVE 3000"
            },
            "sub_fixes": [],
            "transitions": []
        },
        {
            "name": "SAL1V",
            "rnw": "13",
            "fixes": {
                "SALNB": "SALNB"
            },
            "sub_fixes": [],
            "transitions": []
        },
        {
            "name": "SAL2L",
            "rnw": "04",
            "fixes": {
                "SALNB": "SALNB"
            },
            "sub_fixes": [],
            "transitions": []
        },
        {
            "name": "SAL2W",
            "rnw": "04",
            "fixes": {
                "SALNB": "SALNB"
            },
            "sub_fixes": [],
            "transitions": []
        },
        {
            "name": "SAL3E",
            "rnw": "31",
            "fixes": {
                "BO": "OVERFLY BO TURN LEFT DIRECT",
                "SALNB": "SALNB"
            },
            "sub_fixes": [],
            "transitions": []
        },
        {
            "name": "SAL3M",
            "rnw": "22",
            "fixes": {
                "SALNB": "SALNB"
            },
            "sub_fixes": [],
            "transitions": []
        },
        {
            "name": "SAL4D",
            "rnw": "13",
            "fixes": {
                "D127C": "OVERFLY D127C TURN RIGHT DIRECT",
                "SALNB": "SALNB"
            },
            "sub_fixes": [],
            "transitions": []
        },
        {
            "name": "SPL1T",
            "rnw": "31",
            "fixes": {
                "BO": "OVERFLY BO SPEED 230 TURN LEFT DIRECT",
                "ZD950": "ZD950 SPEED 260",
                "SALNB": "SALNB",
                "SPL": "SPL"
            },
            "sub_fixes": [],
            "transitions": []
        },
        {
            "name": "SPL1U",
            "rnw": "22",
            "fixes": {
                "SALNB": "SALNB AT OR ABOVE 3000 SPEED 230",
                "ZD910": "ZD910 SPEED 250",
                "ZD911": "ZD911",
                "SPL": "SPL"
            },
            "sub_fixes": [],
            "transitions": []
        },
        {
            "name": "SPL1V",
            "rnw": "13",
            "fixes": {
                "ZRANB": "OVERFLY ZRANB",
                "SPL": "SPL"
            },
            "sub_fixes": [],
            "transitions": []
        },
        {
            "name": "SPL3G",
            "rnw": "22",
            "fixes": {
                "D221E": "OVERFLY D221E TURN LEFT DIRECT",
                "D137H": "OVERFLY D137H",
                "SPL": "SPL"
            },
            "sub_fixes": [],
            "transitions": []
        },
        {
            "name": "SPL3W",
            "rnw": "04",
            "fixes": {
                "ZD808": "OVERFLY ZD808 AT OR ABOVE 4000",
                "SPL": "SPL"
            },
            "sub_fixes": [],
            "transitions": []
        },
        {
            "name": "SPL4D",
            "rnw": "13",
            "fixes": {
                "SPL": "SPL"
            },
            "sub_fixes": [],
            "transitions": []
        },
        {
            "name": "SPL5E",
            "rnw": "31",
            "fixes": {
                "BO": "OVERFLY BO TURN LEFT DIRECT",
                "ZRANB": "OVERFLY ZRANB",
                "SPL": "SPL"
            },
            "sub_fixes": [],
            "transitions": []
        },
        {
            "name": "SPL5F",
            "rnw": "04",
            "fixes": {
                "D117F": "OVERFLY D117F",
                "SPL": "SPL"
            },
            "sub_fixes": [],
            "transitions": []
        }
    ],
    "stars": [
        {
            "name": "ELGU1X",
            "runway": "RNW 31",
            "fixes": {
                "ELGUS": "ELGUS",
                "ANAKO": "ANAKO AT OR ABOVE 5000",
                "RODGO": "RODGO AT OR ABOVE 4000"
            }
        },
        {
            "name": "ELGU1Y",
            "runway": "RNW 13",
            "fixes": {
                "ELGUS": "ELGUS",
                "EDADI": "EDADI AT OR ABOVE 4000"
            }
        },
        {
            "name": "ELGU1Z",
            "runway": "RNW 04",
            "fixes": {
                "ELGUS": "ELGUS",
                "SOGRA": "SOGRA AT OR ABOVE 3000"
            }
        },
        {
            "name": "KUDU1A",
            "runway": "RNW 04 RNW 13 RNW 22 RNW 31",
            "fixes": {
                "KUDUL": "KUDUL",
                "D336X": "D336X",
                "D317V": "D317V",
                "LUKAV": "LUKAV"
            }
        },
        {
            "name": "KUDU1B",
            "runway": "RNW 04 RNW 13 RNW 22 RNW 31",
            "fixes": {
                "KUDUL": "KUDUL",
                "D336X": "D336X",
                "D336J": "D336J",
                "ZDA": "ZDA",
                "ZRANB": "ZRANB"
            }
        },
        {
            "name": "KUDU1X",
            "runway": "RNW 31",
            "fixes": {
                "KUDUL": "KUDUL AT OR ABOVE 9000",
                "ZD768": "ZD768 AT OR ABOVE 8000",
                "BEPTU": "BEPTU AT OR ABOVE 6000",
                "RODGO": "RODGO AT OR ABOVE 4000"
            }
        },
        {
            "name": "KUDU1Y",
            "runway": "RNW 13",
            "fixes": {
                "KUDUL": "KUDUL AT OR ABOVE 9000",
                "ZD734": "ZD734 AT OR ABOVE 8000",
                "ZD735": "ZD735 AT OR ABOVE 6000",
                "LUKAV": "LUKAV AT OR ABOVE 6000"
            }
        },
        {
            "name": "KUDU1Z",
            "runway": "RNW 04",
            "fixes": {
                "KUDUL": "KUDUL AT OR ABOVE 9000",
                "ZD708": "ZD708 AT OR ABOVE 9000",
                "OSTAK": "OSTAK AT OR ABOVE 4000",
                "ZD702": "ZD702 AT OR ABOVE 4000",
                "SOGRA": "SOGRA AT OR ABOVE 3000"
            }
        },
        {
            "name": "LOS2X",
            "runway": "RNW 31",
            "fixes": {
                "LOSNB": "LOSNB",
                "MINTU": "MINTU AT OR ABOVE 6000",
                "ANAKO": "ANAKO AT OR ABOVE 5000",
                "RODGO": "RODGO AT OR ABOVE 4000"
            }
        },
        {
            "name": "LOS2Y",
            "runway": "RNW 13",
            "fixes": {
                "LOSNB": "LOSNB",
                "MINTU": "MINTU AT OR ABOVE 6000",
                "NOBRU": "NOBRU AT OR ABOVE 6000",
                "LUKAV": "LUKAV AT OR ABOVE 6000"
            }
        },
        {
            "name": "LOS2Z",
            "runway": "RNW 04",
            "fixes": {
                "LOSNB": "LOSNB",
                "MINTU": "MINTU AT OR ABOVE 6000",
                "OSTAK": "OSTAK AT OR ABOVE 4000",
                "ZD702": "ZD702 AT OR ABOVE 4000",
                "SOGRA": "SOGRA AT OR ABOVE 3000"
            }
        },
        {
            "name": "LOS6A",
            "runway": "RNW 04 RNW 13 RNW 22 RNW 31",
            "fixes": {
                "LOSNB": "LOSNB",
                "LUKAV": "LUKAV"
            }
        },
        {
            "name": "MINT3E",
            "runway": "RNW 04 RNW 13 RNW 22 RNW 31",
            "fixes": {
                "MINTU": "MINTU",
                "SALNB": "SALNB"
            }
        },
        {
            "name": "SPL2X",
            "runway": "RNW 31",
            "fixes": {
                "SPL": "SPL",
                "ZD767": "ZD767 AT OR ABOVE 4300",
                "RODGO": "RODGO AT OR ABOVE 4000"
            }
        },
        {
            "name": "SPL2Y",
            "runway": "RNW 13",
            "fixes": {
                "SPL": "SPL",
                "ZD736": "ZD736 AT OR ABOVE 5000",
                "EDADI": "EDADI AT OR ABOVE 4000"
            }
        },
        {
            "name": "SPL2Z",
            "runway": "RNW 04",
            "fixes": {
                "SPL": "SPL",
                "ZD707": "ZD707 AT OR ABOVE 5000",
                "RIMUG": "RIMUG AT OR ABOVE 4000",
                "ZD704": "ZD704 AT OR ABOVE 4000",
                "SOGRA": "SOGRA AT OR ABOVE 3000"
            }
        },
        {
            "name": "SPL6B",
            "runway": "RNW 04 RNW 13 RNW 22 RNW 31",
            "fixes": {
                "SPL": "SPL",
                "SPL30": "SPL30",
                "ZRANB": "ZRANB"
            }
        }
    ],
    "approaches": [
        {
            "name": "VORD04",
            "fixes": {
                "CD04": "CD04 AT OR ABOVE 1700",
                "FD04": "FD04 1700",
                "MD04": "MD04 544 RNW 04",
                "ZDA": "OVERFLY ZDA TURN RIGHT DIRECT",
                "ZRANB": "ZRANB 3000 HOLD AT ZRANB LEFT TURN INBOUNDCOURSE 312 ALT 3000 LEGTIME 1 FAF FD04 MAP MD04"
            },
            "transitions": [
                {
                    "name": "D336J",
                    "fixes": {
                        "D336J": "D336J",
                        "AF001": "AF001",
                        "AF002": "AF002",
                        "AF003": "AF003",
                        "AF004": "AF004",
                        "AF005": "AF005",
                        "D236H": "D236H AT OR ABOVE 2000",
                        "D221H": "D221H AT OR ABOVE 1700"
                    }
                },
                {
                    "name": "SAL",
                    "fixes": {
                        "SALNB": "SALNB",
                        "D219J": "D219J AT OR ABOVE 2200"
                    }
                },
                {
                    "name": "ZRA",
                    "fixes": {
                        "ZRANB": "ZRANB",
                        "AF006": "AF006",
                        "AF007": "AF007",
                        "AF008": "AF008",
                        "D206H": "D206H AT OR ABOVE 2000",
                        "D221H": "D221H AT OR ABOVE 1700"
                    }
                }
            ]
        },
        {
            "name": "VORD13",
            "fixes": {
                "CF13": "CF13 AT OR ABOVE 2300",
                "FF13": "FF13 2300",
                "BO": "BO AT OR ABOVE 1710",
                "40VOR": "40VOR AT OR ABOVE 1010",
                "MD13": "MD13 373 RNW 13",
                "ZRANB": "ZRANB 3000 HOLD AT ZRANB LEFT TURN INBOUNDCOURSE 312 ALT 3000 LEGTIME 1 FAF FF13 MAP MD13"
            },
            "transitions": [
                {
                    "name": "D336X",
                    "fixes": {
                        "D336X": "D336X",
                        "D317V": "D317V AT OR ABOVE 6100",
                        "LUKAV": "LUKAV AT OR ABOVE 6000"
                    }
                },
                {
                    "name": "LUKAV",
                    "fixes": {
                        "LUKAV": "LUKAV AT OR ABOVE 6000"
                    }
                },
                {
                    "name": "ZDA",
                    "fixes": {
                        "ZDA": "ZDA AT OR ABOVE 3000",
                        "FF13": "FF13 AT OR ABOVE 2300 TRK 267 UNTIL 4.3 FROM FF13"
                    }
                },
                {
                    "name": "ZRA",
                    "fixes": {
                        "ZRANB": "ZRANB",
                        "ZDA": "ZDA AT OR ABOVE 3000",
                        "FF13": "FF13 AT OR ABOVE 2300 TRK 267 UNTIL 4.3 FROM FF13"
                    }
                }
            ]
        },
        {
            "name": "ILS13",
            "fixes": {
                "CI13": "CI13 AT OR ABOVE 2300",
                "FI13": "FI13 2300 RNW 13",
                "ZRANB": "ZRANB 3000 HOLD AT ZRANB LEFT TURN INBOUNDCOURSE 312 ALT 3000 LEGTIME 1 FAF FI13 MAP RNW 13"
            },
            "transitions": [
                {
                    "name": "D336X",
                    "fixes": {
                        "D336X": "D336X",
                        "D317V": "D317V AT OR ABOVE 6100",
                        "LUKAV": "LUKAV AT OR ABOVE 6000"
                    }
                },
                {
                    "name": "LUKAV",
                    "fixes": {
                        "LUKAV": "LUKAV AT OR ABOVE 6000"
                    }
                },
                {
                    "name": "ZDA",
                    "fixes": {
                        "ZDA": "ZDA AT OR ABOVE 3000",
                        "FI13": "FI13 AT OR ABOVE 2300 TRK 267 UNTIL 4.3 FROM FI13"
                    }
                },
                {
                    "name": "ZRA",
                    "fixes": {
                        "ZRANB": "ZRANB AT OR ABOVE 3000",
                        "ZDA": "ZDA AT OR ABOVE 3000",
                        "FI13": "FI13 AT OR ABOVE 2300 TRK 267 UNTIL 4.3 FROM FI13"
                    }
                }
            ]
        },
        {
            "name": "NDBY13",
            "fixes": {
                "BO": "BO 1710 RNW 13",
                "ZK": "OVERFLY ZK",
                "ZRANB": "ZRANB 3000 HOLD AT ZRANB LEFT TURN INBOUNDCOURSE 312 ALT 3000 LEGTIME 1 FAF BO MAP RNW 13"
            },
            "transitions": [
                {
                    "name": "ZRA",
                    "fixes": {
                        "ZRANB": "ZRANB",
                        "ZK": "ZK AT OR ABOVE 3000",
                        "BO": "BO AT OR ABOVE 2300 TRK 267 UNTIL 4.3 FROM BO"
                    }
                }
            ]
        },
        {
            "name": "NDB31",
            "fixes": {
                "ZRANB": "ZRANB 3000 ZRANB 3000 HOLD AT ZRANB LEFT TURN INBOUNDCOURSE 312 ALT 3000 LEGTIME 1 FAF ZRANB MAP ZK",
                "25NDB": "25NDB AT OR ABOVE 1220",
                "ZK": "ZK 458 RNW 31 TRK 312 UNTIL 2500 TURN LEFT DIRECT"
            },
            "transitions": [
                {
                    "name": "ZRA",
                    "fixes": {
                        "ZRANB": "ZRANB LEFT TURN INBOUNDCOURSE 312 ALT 3000 LEGTIME 1"
                    }
                }
            ]
        },
        {
            "name": "NDBDZ13",
            "fixes": {
                "CF13": "CF13 AT OR ABOVE 2300",
                "FF13": "FF13 2300",
                "BO": "BO AT OR ABOVE 1710",
                "40DME": "40DME AT OR ABOVE 1010",
                "MQ13Z": "MQ13Z 371 RNW 13",
                "ZRANB": "ZRANB 3000 HOLD AT ZRANB LEFT TURN INBOUNDCOURSE 312 ALT 3000 LEGTIME 1 FAF FF13 MAP MQ13Z"
            },
            "transitions": [
                {
                    "name": "D336X",
                    "fixes": {
                        "D336X": "D336X",
                        "D317V": "D317V AT OR ABOVE 6100",
                        "LUKAV": "LUKAV AT OR ABOVE 6000"
                    }
                },
                {
                    "name": "LUKAV",
                    "fixes": {
                        "LUKAV": "LUKAV AT OR ABOVE 6000"
                    }
                },
                {
                    "name": "ZDA",
                    "fixes": {
                        "ZDA": "ZDA AT OR ABOVE 3000",
                        "FF13": "FF13 AT OR ABOVE 2300 TRK 267 UNTIL 4.3 FROM FF13"
                    }
                },
                {
                    "name": "ZRA",
                    "fixes": {
                        "ZRANB": "ZRANB",
                        "ZDA": "ZDA AT OR ABOVE 3000",
                        "FF13": "FF13 AT OR ABOVE 2300 TRK 267 UNTIL 4.3 FROM FF13"
                    }
                }
            ]
        },
        {
            "name": "RNAV04",
            "fixes": {
                "ZD401": "ZD401 AT OR ABOVE 2200 SPEED 185",
                "DINKO": "DINKO 1700 RNW 04 TRK 038 UNTIL 1000 TURN RIGHT DIRECT",
                "ZRANB": "ZRANB SPEED 185",
                "RODGO": "RODGO 4000 HOLD AT RODGO RIGHT TURN INBOUNDCOURSE 312 ALT 4000 SPEED 210 LEGTIME 1 FAF DINKO MAP RNW 04"
            },
            "transitions": [
                {
                    "name": "OSTAK",
                    "fixes": {
                        "OSTAK": "OSTAK AT OR ABOVE 4000"
                    }
                },
                {
                    "name": "RIMUG",
                    "fixes": {
                        "RIMUG": "RIMUG AT OR ABOVE 4000"
                    }
                },
                {
                    "name": "SOGRA",
                    "fixes": {
                        "SOGRA": "SOGRA AT OR ABOVE 3000"
                    }
                }
            ]
        },
        {
            "name": "RNAVY13",
            "fixes": {
                "ZD503": "ZD503 AT OR ABOVE 3000",
                "LEBDI": "LEBDI 3000 RNW 13",
                "ZD504": "OVERFLY ZD504 AT OR ABOVE 1100 TURN RIGHT DIRECT",
                "SALNB": "SALNB",
                "SOGRA": "SOGRA 3000 SPEED 210 HOLD AT SOGRA RIGHT TURN INBOUNDCOURSE 037 ALT 3000 SPEED 210 LEGTIME 1 FAF LEBDI MAP RNW 13"
            },
            "transitions": [
                {
                    "name": "EDADI",
                    "fixes": {
                        "EDADI": "EDADI AT OR ABOVE 4000",
                        "ZD502": "ZD502"
                    }
                }
            ]
        },
        {
            "name": "RNAVZ13",
            "fixes": {
                "LUKAV": "LUKAV AT OR ABOVE 6000",
                "LEBDI": "LEBDI 3000 RNW 13",
                "ZD504": "OVERFLY ZD504 AT OR ABOVE 1100 TURN RIGHT DIRECT",
                "SALNB": "SALNB",
                "SOGRA": "SOGRA 3000 SPEED 210 HOLD AT SOGRA RIGHT TURN INBOUNDCOURSE 037 ALT 3000 SPEED 210 LEGTIME 1 FAF LEBDI MAP RNW 13"
            },
            "transitions": [
                {
                    "name": "NEDID",
                    "fixes": {
                        "NEDID": "NEDID AT OR ABOVE 8000"
                    }
                },
                {
                    "name": "NOBRU",
                    "fixes": {
                        "NOBRU": "NOBRU AT OR ABOVE 6000"
                    }
                }
            ]
        },
        {
            "name": "RNAV31",
            "fixes": {
                "RODGO": "RODGO AT OR ABOVE 4000",
                "LEVPA": "LEVPA 3000 RNW 31",
                "BO": "OVERFLY BO AT OR ABOVE 1300 TURN LEFT DIRECT",
                "SALNB": "SALNB SPEED 210",
                "SOGRA": "SOGRA 3000 HOLD AT SOGRA RIGHT TURN INBOUNDCOURSE 037 ALT 3000 SPEED 210 LEGTIME 1 FAF LEVPA MAP RNW 31"
            },
            "transitions": [
                {
                    "name": "ANAKO",
                    "fixes": {
                        "ANAKO": "ANAKO AT OR ABOVE 5000"
                    }
                },
                {
                    "name": "BEPTU",
                    "fixes": {
                        "BEPTU": "BEPTU AT OR ABOVE 6000"
                    }
                },
                {
                    "name": "RODGO",
                    "fixes": {
                        "RODGO": "RODGO RIGHT TURN INBOUNDCOURSE 312 ALT 4000 SPEED 210 LEGTIME 1"
                    }
                }
            ]
        },
        {
            "name": "VOR31",
            "fixes": {
                "ZRANB": "ZRANB 3000",
                "25DME": "25DME AT OR ABOVE 1220",
                "ZDA": "ZDA 440 RNW 31",
                "LUKAV": "LUKAV 6000 HOLD AT LUKAV RIGHT TURN INBOUNDCOURSE 132 ALT 6000 SPEED 250 LEGDIST 5 FAF ZRANB MAP ZDA"
            },
            "transitions": [
                {
                    "name": "ZRA",
                    "fixes": {
                        "ZRANB": "ZRANB LEFT TURN INBOUNDCOURSE 312 ALT 3000 LEGTIME 1"
                    }
                }
            ]
        }
    ]
}