{
    "fixes": [
        {
            "name": "40LOC",
            "lat": 43.53975833333333,
            "lon": 5.934194433333333
        },
        {
            "name": "40VOR",
            "lat": 43.53641666666667,
            "lon": 5.9199166666666665
        },
        {
            "name": "AF001",
            "lat": 43.67201158333334,
            "lon": 6.173764833333333
        },
        {
            "name": "AF002",
            "lat": 43.712968333333336,
            "lon": 6.0884624333333335
        },
        {
            "name": "AF003",
            "lat": 43.72308625,
            "lon": 5.986983483333333
        },
        {
            "name": "AF004",
            "lat": 43.70035358333333,
            "lon": 5.8895018666666665
        },
        {
            "name": "AF005",
            "lat": 43.64928895,
            "lon": 5.8153793333333335
        },
        {
            "name": "AF006",
            "lat": 43.449789366666664,
            "lon": 5.8312182
        },
        {
            "name": "AF007",
            "lat": 43.409847,
            "lon": 5.899375316666667
        },
        {
            "name": "AF008",
            "lat": 43.3912994,
            "lon": 5.98310935
        },
        {
            "name": "AF009",
            "lat": 43.55900668333334,
            "lon": 6.237055216666667
        },
        {
            "name": "AF010",
            "lat": 43.509508,
            "lon": 6.227422833333334
        },
        {
            "name": "AF011",
            "lat": 43.464301516666666,
            "lon": 6.19801435
        },
        {
            "name": "AF012",
            "lat": 43.39682783333333,
            "lon": 6.070307533333334
        },
        {
            "name": "AF013",
            "lat": 43.42563333333333,
            "lon": 6.1483677
        },
        {
            "name": "AF014",
            "lat": 43.5848174,
            "lon": 6.233906516666667
        },
        {
            "name": "AF015",
            "lat": 43.560703333333336,
            "lon": 6.237019133333333
        },
        {
            "name": "AF016",
            "lat": 43.56990293333333,
            "lon": 5.77775925
        },
        {
            "name": "AF017",
            "lat": 43.63253733333333,
            "lon": 5.8019088666666665
        },
        {
            "name": "AF018",
            "lat": 43.68369238333333,
            "lon": 5.857405866666666
        },
        {
            "name": "AF019",
            "lat": 43.65189908333333,
            "lon": 6.1963471
        },
        {
            "name": "AF020",
            "lat": 43.68740066666667,
            "lon": 6.150562333333333
        },
        {
            "name": "AF021",
            "lat": 43.711825383333334,
            "lon": 6.092525233333333
        },
        {
            "name": "AF022",
            "lat": 43.47104686666667,
            "lon": 5.810229333333333
        },
        {
            "name": "AF023",
            "lat": 43.44116021666667,
            "lon": 5.841964033333333
        },
        {
            "name": "AF024",
            "lat": 43.41720898333333,
            "lon": 5.882114883333333
        },
        {
            "name": "AF025",
            "lat": 43.5582795,
            "lon": 6.2370634
        },
        {
            "name": "AF026",
            "lat": 43.50811638333333,
            "lon": 6.226839816666667
        },
        {
            "name": "AF027",
            "lat": 43.46249831666667,
            "lon": 6.196322416666667
        },
        {
            "name": "AF028",
            "lat": 43.400915366666666,
            "lon": 6.087417416666667
        },
        {
            "name": "AF029",
            "lat": 43.6050806,
            "lon": 5.644981083333334
        },
        {
            "name": "AF030",
            "lat": 43.665025,
            "lon": 5.67031745
        },
        {
            "name": "AF031",
            "lat": 43.71901918333333,
            "lon": 5.7143616
        },
        {
            "name": "AF032",
            "lat": 43.7923775,
            "lon": 5.8336515166666665
        },
        {
            "name": "AF033",
            "lat": 43.81201943333333,
            "lon": 5.899040183333334
        },
        {
            "name": "AF034",
            "lat": 43.81632186666667,
            "lon": 6.093357016666666
        },
        {
            "name": "AF035",
            "lat": 43.78052511666667,
            "lon": 6.208243666666666
        },
        {
            "name": "AF036",
            "lat": 43.71901918333333,
            "lon": 6.299805066666667
        },
        {
            "name": "AF037",
            "lat": 43.3897851,
            "lon": 6.293267616666666
        },
        {
            "name": "AF038",
            "lat": 43.32952458333333,
            "lon": 6.198627216666667
        },
        {
            "name": "AF039",
            "lat": 43.29595243333333,
            "lon": 6.08169545
        },
        {
            "name": "AF040",
            "lat": 43.305878033333336,
            "lon": 5.8837558
        },
        {
            "name": "AF041",
            "lat": 43.32912176666667,
            "lon": 5.816450766666667
        },
        {
            "name": "AF042",
            "lat": 43.394963583333336,
            "lon": 5.715282983333333
        },
        {
            "name": "AF043",
            "lat": 43.432773516666664,
            "lon": 5.6818513500000005
        },
        {
            "name": "AF044",
            "lat": 43.52551575,
            "lon": 6.3723794
        },
        {
            "name": "AF045",
            "lat": 43.58280178333333,
            "lon": 6.373417016666667
        },
        {
            "name": "AF046",
            "lat": 43.29093236666667,
            "lon": 6.030512616666667
        },
        {
            "name": "AF047",
            "lat": 43.29984021666667,
            "lon": 6.10397535
        },
        {
            "name": "AF048",
            "lat": 43.357589266666665,
            "lon": 6.250905266666667
        },
        {
            "name": "AF049",
            "lat": 43.40881878333333,
            "lon": 6.312589483333333
        },
        {
            "name": "AF050",
            "lat": 43.818345216666664,
            "lon": 6.080765616666667
        },
        {
            "name": "AF051",
            "lat": 43.79014805,
            "lon": 6.186174666666667
        },
        {
            "name": "AF052",
            "lat": 43.74030501666667,
            "lon": 6.274817966666666
        },
        {
            "name": "AF053",
            "lat": 43.337282466666665,
            "lon": 5.899115883333334
        },
        {
            "name": "AF054",
            "lat": 43.357630783333335,
            "lon": 5.840201416666667
        },
        {
            "name": "AF055",
            "lat": 43.40680758333333,
            "lon": 5.761046883333333
        },
        {
            "name": "AF056",
            "lat": 43.42965626666667,
            "lon": 5.737619166666667
        },
        {
            "name": "AF057",
            "lat": 43.693082,
            "lon": 5.7451827
        },
        {
            "name": "AF058",
            "lat": 43.63837351666667,
            "lon": 5.705087633333333
        },
        {
            "name": "AF059",
            "lat": 43.577957733333335,
            "lon": 5.686344583333334
        },
        {
            "name": "AMAKA",
            "lat": 43.52883333333333,
            "lon": 5.320972216666667
        },
        {
            "name": "ASTNB",
            "lat": 43.557833333333335,
            "lon": 6.028388883333333
        },
        {
            "name": "AVNB",
            "lat": 43.53908333333333,
            "lon": 5.930527783333334
        },
        {
            "name": "BASUK",
            "lat": 43.31925,
            "lon": 6.172944433333333
        },
        {
            "name": "CD11",
            "lat": 43.628805566666664,
            "lon": 6.312861116666666
        },
        {
            "name": "CD29",
            "lat": 43.495,
            "lon": 5.746
        },
        {
            "name": "CI29Y",
            "lat": 43.495694433333334,
            "lon": 5.7495
        },
        {
            "name": "CI29Z",
            "lat": 43.49463888333333,
            "lon": 5.7451388833333334
        },
        {
            "name": "CL29Y",
            "lat": 43.49547221666667,
            "lon": 5.748611116666667
        },
        {
            "name": "CL29Z",
            "lat": 43.49475,
            "lon": 5.745583333333333
        },
        {
            "name": "D007R",
            "lat": 43.855441666666664,
            "lon": 5.9637472166666665
        },
        {
            "name": "D019J",
            "lat": 43.71556388333333,
            "lon": 5.936066666666667
        },
        {
            "name": "D029U",
            "lat": 43.8659,
            "lon": 5.779944433333333
        },
        {
            "name": "D040R",
            "lat": 43.78992778333333,
            "lon": 5.746425
        },
        {
            "name": "D083J",
            "lat": 43.580027783333335,
            "lon": 5.780016666666667
        },
        {
            "name": "D094R",
            "lat": 43.540591666666664,
            "lon": 5.595183333333333
        },
        {
            "name": "D101N",
            "lat": 43.516094433333336,
            "lon": 5.691277783333334
        },
        {
            "name": "D109U",
            "lat": 43.448141666666665,
            "lon": 5.550847216666667
        },
        {
            "name": "D117N",
            "lat": 43.45438888333333,
            "lon": 5.7191527833333335
        },
        {
            "name": "D138N",
            "lat": 43.38616666666667,
            "lon": 5.78885
        },
        {
            "name": "D138P",
            "lat": 43.361719433333334,
            "lon": 5.7577750000000005
        },
        {
            "name": "D161J",
            "lat": 43.40038611666667,
            "lon": 5.928888883333333
        },
        {
            "name": "D173R",
            "lat": 43.25990556666667,
            "lon": 5.949944433333333
        },
        {
            "name": "D184J",
            "lat": 43.39058611666667,
            "lon": 6.019044433333334
        },
        {
            "name": "D197J",
            "lat": 43.3968,
            "lon": 6.070094433333334
        },
        {
            "name": "D220J",
            "lat": 43.427416666666666,
            "lon": 6.1510194333333335
        },
        {
            "name": "D241J",
            "lat": 43.473536116666665,
            "lon": 6.205308333333333
        },
        {
            "name": "D252H",
            "lat": 43.51350278333334,
            "lon": 6.1803333333333335
        },
        {
            "name": "D252R",
            "lat": 43.45869166666667,
            "lon": 6.396544433333333
        },
        {
            "name": "D264J",
            "lat": 43.536513883333335,
            "lon": 6.234505566666667
        },
        {
            "name": "D289H",
            "lat": 43.605919433333334,
            "lon": 6.2142444333333335
        },
        {
            "name": "D289I",
            "lat": 43.6012,
            "lon": 6.1946916666666665
        },
        {
            "name": "D289K",
            "lat": 43.61550556666667,
            "lon": 6.255833333333333
        },
        {
            "name": "D296G",
            "lat": 43.60705278333333,
            "lon": 6.173922216666667
        },
        {
            "name": "D297P",
            "lat": 43.67349443333333,
            "lon": 6.3373388833333335
        },
        {
            "name": "D356J",
            "lat": 43.723108333333336,
            "lon": 6.0271138833333335
        },
        {
            "name": "D357U",
            "lat": 43.906241666666666,
            "lon": 6.040852783333333
        },
        {
            "name": "DEVAR",
            "lat": 43.944777783333336,
            "lon": 5.571611116666666
        },
        {
            "name": "DORAR",
            "lat": 43.29297221666667,
            "lon": 5.956277783333333
        },
        {
            "name": "FD11",
            "lat": 43.592027783333336,
            "lon": 6.155638883333333
        },
        {
            "name": "FD29",
            "lat": 43.52975,
            "lon": 5.8918333333333335
        },
        {
            "name": "FF29Y",
            "lat": 43.519083333333334,
            "lon": 5.847388883333333
        },
        {
            "name": "FF29Z",
            "lat": 43.52947221666667,
            "lon": 5.890944433333333
        },
        {
            "name": "FI29Y",
            "lat": 43.519972216666666,
            "lon": 5.851111116666667
        },
        {
            "name": "FI29Z",
            "lat": 43.531027783333336,
            "lon": 5.897472216666666
        },
        {
            "name": "FN11",
            "lat": 43.61666388333333,
            "lon": 6.2024333333333335
        },
        {
            "name": "KUTIX",
            "lat": 43.822305566666664,
            "lon": 5.968583333333333
        },
        {
            "name": "KUVAN",
            "lat": 43.111,
            "lon": 6.317
        },
        {
            "name": "LASIT",
            "lat": 43.764,
            "lon": 5.7755833333333335
        },
        {
            "name": "MASIP",
            "lat": 43.39233333333333,
            "lon": 6.655694433333333
        },
        {
            "name": "MAVOS",
            "lat": 44.05436111666667,
            "lon": 5.934611116666667
        },
        {
            "name": "ML29Y",
            "lat": 43.556888883333336,
            "lon": 6.006388883333333
        },
        {
            "name": "REPSO",
            "lat": 43.46963888333333,
            "lon": 6.353527783333333
        },
        {
            "name": "ROMIL",
            "lat": 43.47413888333333,
            "lon": 5.659027783333333
        },
        {
            "name": "TUXAL",
            "lat": 43.638972216666666,
            "lon": 6.356583333333333
        },
        {
            "name": "VES",
            "lat": 43.55705556666667,
            "lon": 6.007083333333333
        },
        {
            "name": "XIDRA",
            "lat": 43.5425,
            "lon": 5.641194433333333
        },
        {
            "name": "XONDA",
            "lat": 43.06183333333333,
            "lon": 5.912166666666667
        }
    ],
    "rnws": [
        "RNW 11",
        "RNW 29"
    ],
    "sids": [
        {
            "name": "AMAK2E",
            "rnw": "11",
            "fixes": {
                "VES": "VES HDG 050 INTERCEPT RADIAL 094 TO",
                "XIDRA": "XIDRA AT OR ABOVE 4700",
                "AMAKA": "AMAKA AT OR ABOVE 10000"
            },
            "sub_fixes": [],
            "transitions": []
        },
        {
            "name": "AMAK2F",
            "rnw": "29",
            "fixes": {
                "VES": "VES",
                "AF001": "AF001",
                "AF002": "AF002",
                "AF003": "AF003",
                "AF004": "AF004",
                "AF005": "AF005",
                "D083J": "D083J SPEED 240",
                "XIDRA": "XIDRA AT OR ABOVE 4700",
                "AMAKA": "AMAKA AT OR ABOVE 10000"
            },
            "sub_fixes": [],
            "transitions": []
        },
        {
            "name": "KUVA1C",
            "rnw": "11",
            "fixes": {
                "AVNB": "OVERFLY AVNB TRK 109 UNTIL 3000 TURN LEFT DIRECT",
                "ASTNB": "OVERFLY ASTNB AT OR ABOVE 4700",
                "KUVAN": "KUVAN AT OR ABOVE 10500"
            },
            "sub_fixes": [],
            "transitions": []
        },
        {
            "name": "KUVA1D",
            "rnw": "29",
            "fixes": {
                "ASTNB": "OVERFLY ASTNB AT OR ABOVE 4700",
                "KUVAN": "KUVAN AT OR ABOVE 10500"
            },
            "sub_fixes": [],
            "transitions": []
        },
        {
            "name": "KUVA2A",
            "rnw": "11",
            "fixes": {
                "VES": "VES",
                "AF006": "AF006",
                "AF007": "AF007",
                "AF008": "AF008",
                "D197J": "D197J SPEED 240",
                "BASUK": "BASUK AT OR ABOVE 8000",
                "KUVAN": "KUVAN AT OR ABOVE 10500"
            },
            "sub_fixes": [],
            "transitions": []
        },
        {
            "name": "KUVA2B",
            "rnw": "29",
            "fixes": {
                "VES": "VES",
                "AF009": "AF009",
                "AF010": "AF010",
                "AF011": "AF011",
                "D220J": "D220J SPEED 240",
                "BASUK": "BASUK AT OR ABOVE 8000",
                "KUVAN": "KUVAN AT OR ABOVE 10500"
            },
            "sub_fixes": [],
            "transitions": []
        },
        {
            "name": "MASI3E",
            "rnw": "11",
            "fixes": {
                "VES": "VES",
                "AF006": "AF006",
                "AF007": "AF007",
                "AF008": "AF008",
                "AF012": "AF012",
                "AF013": "AF013",
                "D241J": "D241J SPEED 240",
                "REPSO": "REPSO AT OR ABOVE 7000",
                "MASIP": "MASIP AT OR ABOVE 10000"
            },
            "sub_fixes": [],
            "transitions": []
        },
        {
            "name": "MASI3F",
            "rnw": "29",
            "fixes": {
                "VES": "VES",
                "AF014": "AF014",
                "AF015": "AF015",
                "D264J": "D264J SPEED 240",
                "REPSO": "REPSO AT OR ABOVE 7000",
                "MASIP": "MASIP AT OR ABOVE 10000"
            },
            "sub_fixes": [],
            "transitions": []
        },
        {
            "name": "MAVO2E",
            "rnw": "11",
            "fixes": {
                "VES": "VES",
                "AF016": "AF016",
                "AF017": "AF017",
                "AF018": "AF018",
                "D019J": "D019J SPEED 240",
                "KUTIX": "KUTIX",
                "MAVOS": "MAVOS AT OR ABOVE 10000"
            },
            "sub_fixes": [],
            "transitions": []
        },
        {
            "name": "MAVO2F",
            "rnw": "29",
            "fixes": {
                "VES": "VES",
                "AF019": "AF019",
                "AF020": "AF020",
                "AF021": "AF021",
                "D356J": "D356J SPEED 240",
                "KUTIX": "KUTIX",
                "MAVOS": "MAVOS AT OR ABOVE 10000"
            },
            "sub_fixes": [],
            "transitions": []
        },
        {
            "name": "XOND1E",
            "rnw": "11",
            "fixes": {
                "VES": "VES",
                "AF022": "AF022",
                "AF023": "AF023",
                "AF024": "AF024",
                "D161J": "D161J SPEED 240",
                "DORAR": "DORAR AT OR ABOVE 8000",
                "XONDA": "XONDA AT OR ABOVE 10500"
            },
            "sub_fixes": [],
            "transitions": []
        },
        {
            "name": "XOND1G",
            "rnw": "11",
            "fixes": {
                "AVNB": "OVERFLY AVNB TRK 109 UNTIL 3000 TURN LEFT DIRECT",
                "ASTNB": "OVERFLY ASTNB AT OR ABOVE 4700",
                "XONDA": "XONDA AT OR ABOVE 10500"
            },
            "sub_fixes": [],
            "transitions": []
        },
        {
            "name": "XOND1H",
            "rnw": "29",
            "fixes": {
                "ASTNB": "OVERFLY ASTNB AT OR ABOVE 4700",
                "XONDA": "XONDA AT OR ABOVE 10500"
            },
            "sub_fixes": [],
            "transitions": []
        },
        {
            "name": "XOND2F",
            "rnw": "29",
            "fixes": {
                "VES": "VES",
                "AF025": "AF025",
                "AF026": "AF026",
                "AF027": "AF027",
                "AF013": "AF013",
                "AF028": "AF028",
                "D184J": "D184J SPEED 240",
                "DORAR": "DORAR AT OR ABOVE 8000",
                "XONDA": "XONDA AT OR ABOVE 10500"
            },
            "sub_fixes": [],
            "transitions": []
        }
    ],
    "stars": [
        {
            "name": "AMAK2B",
            "runway": "RNW 11",
            "fixes": {
                "AMAKA": "AMAKA AT OR ABOVE 10000",
                "XIDRA": "XIDRA",
                "VES": "VES"
            }
        },
        {
            "name": "AMAK2C",
            "runway": "RNW 29",
            "fixes": {
                "AMAKA": "AMAKA AT OR ABOVE 10000",
                "D109U": "D109U",
                "ROMIL": "ROMIL"
            }
        },
        {
            "name": "AMAK2D",
            "runway": "RNW 29",
            "fixes": {
                "AMAKA": "AMAKA AT OR ABOVE 10000",
                "XIDRA": "XIDRA",
                "VES": "VES"
            }
        },
        {
            "name": "AMAK3A",
            "runway": "RNW 11",
            "fixes": {
                "AMAKA": "AMAKA AT OR ABOVE 10000",
                "D094R": "D094R",
                "XIDRA": "XIDRA",
                "AF029": "AF029",
                "AF030": "AF030",
                "AF031": "AF031",
                "LASIT": "LASIT",
                "AF032": "AF032",
                "AF033": "AF033",
                "KUTIX": "KUTIX"
            }
        },
        {
            "name": "AMAK3J",
            "runway": "RNW 11",
            "fixes": {
                "AMAKA": "AMAKA AT OR ABOVE 10000",
                "D094R": "D094R",
                "XIDRA": "XIDRA",
                "AF029": "AF029",
                "AF030": "AF030",
                "AF031": "AF031",
                "LASIT": "LASIT",
                "AF032": "AF032",
                "AF033": "AF033",
                "KUTIX": "KUTIX",
                "AF034": "AF034",
                "AF035": "AF035",
                "AF036": "AF036",
                "TUXAL": "TUXAL"
            }
        },
        {
            "name": "DEVA2C",
            "runway": "RNW 29",
            "fixes": {
                "DEVAR": "DEVAR AT OR ABOVE 11000",
                "LASIT": "LASIT"
            }
        },
        {
            "name": "DEVA2D",
            "runway": "RNW 29",
            "fixes": {
                "DEVAR": "DEVAR AT OR ABOVE 11000",
                "LASIT": "LASIT",
                "VES": "VES"
            }
        },
        {
            "name": "DEVA2L",
            "runway": "RNW 29",
            "fixes": {
                "DEVAR": "DEVAR AT OR ABOVE 11000",
                "D040R": "D040R",
                "LASIT": "LASIT",
                "AF031": "AF031",
                "AF030": "AF030",
                "AF029": "AF029",
                "XIDRA": "XIDRA",
                "ROMIL": "ROMIL"
            }
        },
        {
            "name": "DEVA3A",
            "runway": "RNW 11",
            "fixes": {
                "DEVAR": "DEVAR AT OR ABOVE 11000",
                "D040R": "D040R",
                "LASIT": "LASIT",
                "AF032": "AF032",
                "AF033": "AF033",
                "KUTIX": "KUTIX"
            }
        },
        {
            "name": "DEVA3B",
            "runway": "RNW 11",
            "fixes": {
                "DEVAR": "DEVAR AT OR ABOVE 11000",
                "LASIT": "LASIT",
                "VES": "VES"
            }
        },
        {
            "name": "DEVA3J",
            "runway": "RNW 11",
            "fixes": {
                "DEVAR": "DEVAR AT OR ABOVE 11000",
                "D040R": "D040R",
                "LASIT": "LASIT",
                "AF032": "AF032",
                "AF033": "AF033",
                "KUTIX": "KUTIX",
                "AF034": "AF034",
                "AF035": "AF035",
                "AF036": "AF036",
                "TUXAL": "TUXAL"
            }
        },
        {
            "name": "MASI2B",
            "runway": "RNW 11",
            "fixes": {
                "MASIP": "MASIP AT OR ABOVE 10000",
                "REPSO": "REPSO",
                "D252H": "D252H",
                "VES": "VES"
            }
        },
        {
            "name": "MASI2C",
            "runway": "RNW 29",
            "fixes": {
                "MASIP": "MASIP AT OR ABOVE 10000",
                "D252R": "D252R",
                "REPSO": "REPSO",
                "AF037": "AF037",
                "AF038": "AF038",
                "AF039": "AF039",
                "DORAR": "DORAR"
            }
        },
        {
            "name": "MASI2D",
            "runway": "RNW 29",
            "fixes": {
                "MASIP": "MASIP AT OR ABOVE 10000",
                "REPSO": "REPSO",
                "D252H": "D252H",
                "VES": "VES"
            }
        },
        {
            "name": "MASI2L",
            "runway": "RNW 29",
            "fixes": {
                "MASIP": "MASIP AT OR ABOVE 10000",
                "D252R": "D252R",
                "REPSO": "REPSO",
                "AF037": "AF037",
                "AF038": "AF038",
                "AF039": "AF039",
                "DORAR": "DORAR",
                "AF040": "AF040",
                "AF041": "AF041",
                "D138P": "D138P",
                "AF042": "AF042",
                "AF043": "AF043",
                "ROMIL": "ROMIL"
            }
        },
        {
            "name": "MASI4A",
            "runway": "RNW 11",
            "fixes": {
                "MASIP": "MASIP AT OR ABOVE 10000",
                "D252R": "D252R",
                "REPSO": "REPSO",
                "AF044": "AF044",
                "AF045": "AF045",
                "TUXAL": "TUXAL"
            }
        },
        {
            "name": "MAVO2C",
            "runway": "RNW 29",
            "fixes": {
                "MAVOS": "MAVOS AT OR ABOVE 10000",
                "D007R": "D007R",
                "KUTIX": "KUTIX",
                "AF033": "AF033",
                "AF032": "AF032",
                "LASIT": "LASIT"
            }
        },
        {
            "name": "MAVO2D",
            "runway": "RNW 29",
            "fixes": {
                "MAVOS": "MAVOS AT OR ABOVE 10000",
                "KUTIX": "KUTIX",
                "VES": "VES"
            }
        },
        {
            "name": "MAVO2L",
            "runway": "RNW 29",
            "fixes": {
                "MAVOS": "MAVOS AT OR ABOVE 10000",
                "D007R": "D007R",
                "KUTIX": "KUTIX",
                "AF033": "AF033",
                "AF032": "AF032",
                "LASIT": "LASIT",
                "AF031": "AF031",
                "AF030": "AF030",
                "AF029": "AF029",
                "XIDRA": "XIDRA",
                "ROMIL": "ROMIL"
            }
        },
        {
            "name": "MAVO3A",
            "runway": "RNW 11",
            "fixes": {
                "MAVOS": "MAVOS AT OR ABOVE 10000",
                "KUTIX": "KUTIX"
            }
        },
        {
            "name": "MAVO3B",
            "runway": "RNW 11",
            "fixes": {
                "MAVOS": "MAVOS AT OR ABOVE 10000",
                "KUTIX": "KUTIX",
                "VES": "VES"
            }
        },
        {
            "name": "MAVO3J",
            "runway": "RNW 11",
            "fixes": {
                "MAVOS": "MAVOS AT OR ABOVE 10000",
                "D007R": "D007R",
                "KUTIX": "KUTIX",
                "AF034": "AF034",
                "AF035": "AF035",
                "AF036": "AF036",
                "TUXAL": "TUXAL"
            }
        },
        {
            "name": "XOND1B",
            "runway": "RNW 11",
            "fixes": {
                "XONDA": "XONDA AT OR ABOVE 11000",
                "DORAR": "DORAR AT OR ABOVE 8000",
                "VES": "VES"
            }
        },
        {
            "name": "XOND1C",
            "runway": "RNW 29",
            "fixes": {
                "XONDA": "XONDA AT OR ABOVE 11000",
                "DORAR": "DORAR"
            }
        },
        {
            "name": "XOND1D",
            "runway": "RNW 29",
            "fixes": {
                "XONDA": "XONDA AT OR ABOVE 11000",
                "DORAR": "DORAR",
                "VES": "VES"
            }
        },
        {
            "name": "XOND1L",
            "runway": "RNW 29",
            "fixes": {
                "XONDA": "XONDA AT OR ABOVE 11000",
                "D173R": "D173R",
                "DORAR": "DORAR",
                "AF040": "AF040",
                "AF041": "AF041",
                "D138P": "D138P",
                "AF042": "AF042",
                "AF043": "AF043",
                "ROMIL": "ROMIL"
            }
        },
        {
            "name": "XOND3A",
            "runway": "RNW 11",
            "fixes": {
                "XONDA": "XONDA AT OR ABOVE 11000",
                "D173R": "D173R",
                "DORAR": "DORAR AT OR ABOVE 8000",
                "AF046": "AF046",
                "AF047": "AF047",
                "BASUK": "BASUK",
                "AF048": "AF048",
                "AF049": "AF049",
                "REPSO": "REPSO",
                "AF044": "AF044",
                "AF045": "AF045",
                "TUXAL": "TUXAL"
            }
        }
    ],
    "approaches": [
        {
            "name": "VORD11",
            "fixes": {
                "CD11": "CD11 AT OR ABOVE 3700",
                "FD11": "FD11 2000 RNW 11",
                "VES": "VES AT OR ABOVE 820 TURN LEFT HDG 312 INTERCEPT RADIAL 357 TO",
                "D357U": "D357U SPEED 185 OVERFLY D357U TURN RIGHT DIRECT",
                "KUTIX": "KUTIX 5000 HOLD AT KUTIX RIGHT TURN INBOUNDCOURSE 187 ALT 5000 LEGDIST 5 FAF FD11 MAP RNW 11"
            },
            "transitions": [
                {
                    "name": "KUTIX",
                    "fixes": {
                        "KUTIX": "KUTIX AT OR ABOVE 5000",
                        "AF050": "AF050",
                        "AF051": "AF051",
                        "AF052": "AF052",
                        "D297P": "D297P AT OR ABOVE 4000"
                    }
                },
                {
                    "name": "TUXAL",
                    "fixes": {
                        "TUXAL": "TUXAL AT OR ABOVE 4400"
                    }
                },
                {
                    "name": "VES1",
                    "fixes": {
                        "VES": "VES AT OR ABOVE 4000",
                        "D289I": "D289I TRK 334 UNTIL 4.4 FROM D289I"
                    }
                },
                {
                    "name": "VES2",
                    "fixes": {
                        "VES": "VES AT OR ABOVE 4000",
                        "D289K": "D289K TRK 334 UNTIL 3.0 FROM D289K"
                    }
                }
            ]
        },
        {
            "name": "VORD29",
            "fixes": {
                "CD29": "CD29 AT OR ABOVE 3700",
                "FD29": "FD29 2300",
                "40VOR": "40VOR AT OR ABOVE 1940",
                "VES": "VES 667 RNW 29 TRK 289 UNTIL 820 TURN RIGHT HDG 074 INTERCEPT RADIAL 029 TO",
                "D029U": "D029U SPEED 185 OVERFLY D029U TURN RIGHT DIRECT",
                "LASIT": "LASIT 5000 HOLD AT LASIT RIGHT TURN INBOUNDCOURSE 220 ALT 5000 LEGDIST 5 FAF FD29 MAP VES"
            },
            "transitions": [
                {
                    "name": "DORAR",
                    "fixes": {
                        "DORAR": "DORAR AT OR ABOVE 9000",
                        "AF053": "AF053",
                        "AF054": "AF054",
                        "D138N": "D138N AT OR ABOVE 7000",
                        "AF055": "AF055",
                        "AF056": "AF056",
                        "D117N": "D117N AT OR ABOVE 3700"
                    }
                },
                {
                    "name": "LASIT",
                    "fixes": {
                        "LASIT": "LASIT AT OR ABOVE 5000",
                        "AF057": "AF057",
                        "AF058": "AF058",
                        "AF059": "AF059",
                        "D101N": "D101N AT OR ABOVE 3700"
                    }
                },
                {
                    "name": "ROMIL",
                    "fixes": {
                        "ROMIL": "ROMIL AT OR ABOVE 5000"
                    }
                }
            ]
        },
        {
            "name": "ILSY29",
            "fixes": {
                "CI29Y": "CI29Y AT OR ABOVE 3400",
                "FI29Y": "FI29Y 3000 RNW 29",
                "D289H": "OVERFLY D289H TURN RIGHT DIRECT",
                "AVNB": "AVNB 4000 HOLD AT AVNB RIGHT TURN INBOUNDCOURSE 289 ALT 4000 LEGTIME 1 FAF FI29Y MAP RNW 29"
            },
            "transitions": []
        },
        {
            "name": "ILSZ29",
            "fixes": {
                "CI29Z": "CI29Z AT OR ABOVE 3700",
                "FI29Z": "FI29Z 2300 RNW 29 TRK 289 UNTIL 850 TURN RIGHT HDG 094 INTERCEPT RADIAL 029 TO",
                "D029U": "D029U SPEED 185 OVERFLY D029U TURN RIGHT DIRECT",
                "LASIT": "LASIT 5000 HOLD AT LASIT RIGHT TURN INBOUNDCOURSE 220 ALT 5000 LEGDIST 5 FAF FI29Z MAP RNW 29"
            },
            "transitions": [
                {
                    "name": "DORAR",
                    "fixes": {
                        "DORAR": "DORAR AT OR ABOVE 9000",
                        "AF053": "AF053",
                        "AF054": "AF054",
                        "D138N": "D138N AT OR ABOVE 7000",
                        "AF055": "AF055",
                        "AF056": "AF056",
                        "D117N": "D117N AT OR ABOVE 3700"
                    }
                },
                {
                    "name": "LASIT",
                    "fixes": {
                        "LASIT": "LASIT AT OR ABOVE 5000",
                        "AF057": "AF057",
                        "AF058": "AF058",
                        "AF059": "AF059",
                        "D101N": "D101N AT OR ABOVE 3700"
                    }
                },
                {
                    "name": "ROMIL",
                    "fixes": {
                        "ROMIL": "ROMIL AT OR ABOVE 5000"
                    }
                }
            ]
        },
        {
            "name": "LOCY29",
            "fixes": {
                "CL29Y": "CL29Y AT OR ABOVE 3400",
                "FF29Y": "FF29Y 3000",
                "AVNB": "AVNB AT OR ABOVE 1810 AVNB 4000 HOLD AT AVNB RIGHT TURN INBOUNDCOURSE 289 ALT 4000 LEGTIME 1 FAF FF29Y MAP ML29Y",
                "ML29Y": "ML29Y 681 RNW 29",
                "D289H": "OVERFLY D289H TURN RIGHT DIRECT"
            },
            "transitions": []
        },
        {
            "name": "LOCZ29",
            "fixes": {
                "CL29Z": "CL29Z AT OR ABOVE 3700",
                "FF29Z": "FF29Z 2300",
                "40LOC": "40LOC AT OR ABOVE 1720",
                "VES": "VES 665 RNW 29 TRK 289 UNTIL 850 TURN RIGHT HDG 094 INTERCEPT RADIAL 029 TO",
                "D029U": "D029U SPEED 185 OVERFLY D029U TURN RIGHT DIRECT",
                "LASIT": "LASIT 5000 HOLD AT LASIT RIGHT TURN INBOUNDCOURSE 220 ALT 5000 LEGDIST 5 FAF FF29Z MAP VES"
            },
            "transitions": [
                {
                    "name": "DORAR",
                    "fixes": {
                        "DORAR": "DORAR AT OR ABOVE 9000",
                        "AF053": "AF053",
                        "AF054": "AF054",
                        "D138N": "D138N AT OR ABOVE 7000",
                        "AF055": "AF055",
                        "AF056": "AF056",
                        "D117N": "D117N AT OR ABOVE 3700"
                    }
                },
                {
                    "name": "LASIT",
                    "fixes": {
                        "LASIT": "LASIT AT OR ABOVE 5000",
                        "AF057": "AF057",
                        "AF058": "AF058",
                        "AF059": "AF059",
                        "D101N": "D101N AT OR ABOVE 3700"
                    }
                },
                {
                    "name": "ROMIL",
                    "fixes": {
                        "ROMIL": "ROMIL AT OR ABOVE 5000"
                    }
                }
            ]
        },
        {
            "name": "NDB11",
            "fixes": {
                "FN11": "FN11 2800 RNW 11",
                "ASTNB": "OVERFLY ASTNB AT OR ABOVE 820 TRK 045 UNTIL 4000 TURN RIGHT DIRECT ASTNB 4000 HOLD AT ASTNB RIGHT TURN INBOUNDCOURSE 296 ALT 4000 LEGTIME 1 FAF FN11 MAP RNW 11"
            },
            "transitions": [
                {
                    "name": "AST",
                    "fixes": {
                        "ASTNB": "ASTNB AT OR ABOVE 4000",
                        "D296G": "D296G AT OR ABOVE 2800 TRK 341 UNTIL 4.3 FROM D296G"
                    }
                },
                {
                    "name": "AV",
                    "fixes": {
                        "AVNB": "AVNB AT OR ABOVE 4000",
                        "ASTNB": "ASTNB AT OR ABOVE 4000",
                        "D296G": "D296G AT OR ABOVE 2800 TRK 341 UNTIL 4.3 FROM D296G"
                    }
                }
            ]
        }
    ]
}