{
    "fixes": [
        {
            "name": "CF21",
            "lat": 47.01017778333333,
            "lon": 1.8718333333333335
        },
        {
            "name": "CTXNB",
            "lat": 46.93661111666667,
            "lon": 1.8011388833333335
        },
        {
            "name": "D212E",
            "lat": 46.80399443333334,
            "lon": 1.6745999999999999
        },
        {
            "name": "DER21",
            "lat": 46.849583333333335,
            "lon": 1.7180611166666666
        },
        {
            "name": "ETAMO",
            "lat": 46.840277783333335,
            "lon": 2.3375
        },
        {
            "name": "FF21",
            "lat": 46.98233333333334,
            "lon": 1.8450916666666668
        },
        {
            "name": "FLX03",
            "lat": 46.74347221666667,
            "lon": 1.6170555666666666
        },
        {
            "name": "FLX21",
            "lat": 46.98236111666667,
            "lon": 1.8451388833333335
        },
        {
            "name": "GUSON",
            "lat": 46.47416666666667,
            "lon": 1.4777777833333334
        },
        {
            "name": "ILX03",
            "lat": 46.687666666666665,
            "lon": 1.5641111166666666
        },
        {
            "name": "ILX21",
            "lat": 47.045,
            "lon": 1.9053611166666666
        },
        {
            "name": "LX210",
            "lat": 46.806277783333336,
            "lon": 1.6766111166666666
        },
        {
            "name": "LX212",
            "lat": 46.982083333333335,
            "lon": 1.7066388833333335
        },
        {
            "name": "LX214",
            "lat": 47.08575,
            "lon": 1.8132777833333333
        },
        {
            "name": "LX222",
            "lat": 46.744694433333336,
            "lon": 1.4643888833333334
        },
        {
            "name": "LX282",
            "lat": 46.80261111666667,
            "lon": 1.6082222166666666
        },
        {
            "name": "LX284",
            "lat": 46.73711111666667,
            "lon": 1.8011388833333335
        },
        {
            "name": "LX301",
            "lat": 46.836361116666666,
            "lon": 1.4120555666666668
        },
        {
            "name": "LX302",
            "lat": 46.875416666666666,
            "lon": 1.5974722166666666
        },
        {
            "name": "LX304",
            "lat": 46.73577778333333,
            "lon": 1.4651666666666667
        },
        {
            "name": "LX305",
            "lat": 46.62494443333333,
            "lon": 1.5047777833333333
        },
        {
            "name": "LX382",
            "lat": 46.83352778333333,
            "lon": 1.8335555666666665
        },
        {
            "name": "LX384",
            "lat": 46.962833333333336,
            "lon": 1.5889722166666667
        },
        {
            "name": "OLINO",
            "lat": 46.882388883333334,
            "lon": 1.04875
        },
        {
            "name": "ROXIL",
            "lat": 47.108875,
            "lon": 1.9671611166666667
        },
        {
            "name": "SOPIL",
            "lat": 47.02583333333333,
            "lon": 1.055
        },
        {
            "name": "VEROS",
            "lat": 47.34,
            "lon": 2.2016666666666667
        }
    ],
    "rnws": [
        "RNW 03",
        "RNW 21"
    ],
    "sids": [
        {
            "name": "ETAM8J",
            "rnw": "03",
            "fixes": {
                "CTXNB": "OVERFLY CTXNB AT OR BELOW 4000 SPEED 230",
                "ETAMO": "ETAMO"
            },
            "sub_fixes": [],
            "transitions": []
        },
        {
            "name": "ETAM8K",
            "rnw": "21",
            "fixes": {
                "DER21": "OVERFLY DER21 TRK 227 UNTIL 900",
                "LX282": "OVERFLY LX282 AT OR BELOW 4000 AT OR ABOVE 900 TURN LEFT DIRECT",
                "LX284": "LX284",
                "ETAMO": "ETAMO"
            },
            "sub_fixes": [],
            "transitions": []
        },
        {
            "name": "GUSO8J",
            "rnw": "03",
            "fixes": {
                "CTXNB": "OVERFLY CTXNB AT OR BELOW 4000 SPEED 230 TURN RIGHT DIRECT",
                "LX382": "LX382 AT OR BELOW 4000",
                "GUSON": "GUSON"
            },
            "sub_fixes": [],
            "transitions": []
        },
        {
            "name": "GUSO8K",
            "rnw": "21",
            "fixes": {
                "DER21": "OVERFLY DER21 TRK 227 UNTIL 900",
                "LX282": "OVERFLY LX282 AT OR BELOW 4000 AT OR ABOVE 900",
                "GUSON": "GUSON"
            },
            "sub_fixes": [],
            "transitions": []
        },
        {
            "name": "OLIN8J",
            "rnw": "03",
            "fixes": {
                "CTXNB": "OVERFLY CTXNB AT OR BELOW 4000 SPEED 230 TURN LEFT DIRECT",
                "LX384": "LX384 AT OR BELOW 4000",
                "OLINO": "OLINO"
            },
            "sub_fixes": [],
            "transitions": []
        },
        {
            "name": "OLIN8K",
            "rnw": "21",
            "fixes": {
                "DER21": "OVERFLY DER21 TRK 227 UNTIL 900",
                "LX282": "OVERFLY LX282 AT OR BELOW 4000 AT OR ABOVE 900",
                "OLINO": "OLINO"
            },
            "sub_fixes": [],
            "transitions": []
        },
        {
            "name": "SOPI8J",
            "rnw": "03",
            "fixes": {
                "CTXNB": "OVERFLY CTXNB AT OR BELOW 4000 SPEED 230 TURN LEFT DIRECT",
                "LX384": "LX384 AT OR BELOW 4000",
                "SOPIL": "SOPIL"
            },
            "sub_fixes": [],
            "transitions": []
        },
        {
            "name": "SOPI8K",
            "rnw": "21",
            "fixes": {
                "DER21": "OVERFLY DER21 TRK 227 UNTIL 900",
                "LX282": "OVERFLY LX282 AT OR BELOW 4000 AT OR ABOVE 900",
                "SOPIL": "SOPIL"
            },
            "sub_fixes": [],
            "transitions": []
        }
    ],
    "stars": [
        {
            "name": "GUSO5C",
            "runway": "RNW 21",
            "fixes": {
                "GUSON": "GUSON",
                "CTXNB": "CTXNB"
            }
        },
        {
            "name": "GUSO5N",
            "runway": "RNW 21",
            "fixes": {
                "GUSON": "GUSON",
                "LX222": "LX222",
                "LX302": "LX302 AT OR ABOVE 5000",
                "LX212": "LX212",
                "LX214": "LX214 3000 SPEED 185"
            }
        },
        {
            "name": "GUSO5S",
            "runway": "RNW 03",
            "fixes": {
                "GUSON": "GUSON AT OR BELOW 9000",
                "LX305": "LX305 AT OR BELOW 5000 AT OR ABOVE 3000 SPEED 220"
            }
        },
        {
            "name": "OLIN5C",
            "runway": "RNW 21",
            "fixes": {
                "OLINO": "OLINO",
                "CTXNB": "CTXNB"
            }
        },
        {
            "name": "OLIN5N",
            "runway": "RNW 21",
            "fixes": {
                "OLINO": "OLINO",
                "LX212": "LX212 SPEED 220",
                "LX214": "LX214 3000 SPEED 185"
            }
        },
        {
            "name": "OLIN5S",
            "runway": "RNW 03",
            "fixes": {
                "OLINO": "OLINO AT OR BELOW 12000",
                "LX301": "LX301 AT OR BELOW 5000 SPEED 220",
                "LX304": "LX304 3000 SPEED 185"
            }
        },
        {
            "name": "VERO5C",
            "runway": "RNW 21",
            "fixes": {
                "VEROS": "VEROS",
                "ROXIL": "ROXIL",
                "CTXNB": "CTXNB"
            }
        },
        {
            "name": "VERO5N",
            "runway": "RNW 21",
            "fixes": {
                "VEROS": "VEROS",
                "ROXIL": "ROXIL",
                "CTXNB": "CTXNB AT OR ABOVE 3000"
            }
        },
        {
            "name": "VERO5S",
            "runway": "RNW 03",
            "fixes": {
                "VEROS": "VEROS AT OR BELOW 15000",
                "CTXNB": "CTXNB AT OR BELOW 5000 SPEED 220",
                "LX302": "LX302 AT OR BELOW 5000 SPEED 220",
                "LX304": "LX304 3000 SPEED 185"
            }
        }
    ],
    "approaches": [
        {
            "name": "ILS21",
            "fixes": {
                "CF21": "CF21 AT OR ABOVE 3000",
                "FF21": "FF21 3000 RNW 21 TRK 212 UNTIL 1500",
                "D212E": "OVERFLY D212E 3000 TURN RIGHT DIRECT",
                "CTXNB": "CTXNB 4000 SPEED 210 FAF FF21 MAP RNW 21"
            },
            "transitions": [
                {
                    "name": "ROXIL",
                    "fixes": {
                        "ROXIL": "ROXIL"
                    }
                }
            ]
        },
        {
            "name": "NDB21",
            "fixes": {
                "CF21": "CF21 AT OR ABOVE 3000",
                "CTXNB": "CTXNB 1940 RNW 21 TRK 212 UNTIL 1500 TURN RIGHT DIRECT CTXNB 3000 SPEED 210 FAF CTXNB MAP RNW 21"
            },
            "transitions": [
                {
                    "name": "CTX",
                    "fixes": {
                        "CTXNB": "CTXNB RIGHT TURN INBOUNDCOURSE 212 ALT 3000 SPEED 210 LEGTIME 1"
                    }
                }
            ]
        },
        {
            "name": "RNAV03",
            "fixes": {
                "ILX03": "ILX03 3000 SPEED 185",
                "FLX03": "FLX03 3000 RNW 03",
                "CTXNB": "OVERFLY CTXNB AT OR BELOW 3000 TURN LEFT DIRECT",
                "LX302": "LX302 AT OR BELOW 5000 AT OR ABOVE 3000 SPEED 220 FAF FLX03 MAP RNW 03"
            },
            "transitions": [
                {
                    "name": "CTX",
                    "fixes": {
                        "CTXNB": "CTXNB AT OR BELOW 5000 AT OR ABOVE 3000 SPEED 220",
                        "LX302": "LX302 AT OR BELOW 5000 AT OR ABOVE 3000 SPEED 220",
                        "LX304": "LX304 3000 SPEED 185"
                    }
                },
                {
                    "name": "LX304",
                    "fixes": {
                        "LX304": "LX304 3000 SPEED 185"
                    }
                },
                {
                    "name": "LX305",
                    "fixes": {
                        "LX305": "LX305 AT OR BELOW 5000 AT OR ABOVE 3000 SPEED 220"
                    }
                }
            ]
        },
        {
            "name": "RNAV21",
            "fixes": {
                "ILX21": "ILX21 3000 SPEED 185",
                "FLX21": "FLX21 3000 RNW 21",
                "LX210": "OVERFLY LX210 SPEED 210 TURN RIGHT DIRECT",
                "LX212": "LX212 3000 SPEED 220 FAF FLX21 MAP RNW 21"
            },
            "transitions": [
                {
                    "name": "CTX",
                    "fixes": {
                        "CTXNB": "CTXNB 3000 SPEED 220",
                        "LX212": "LX212 3000 SPEED 220",
                        "LX214": "LX214 3000 SPEED 185"
                    }
                },
                {
                    "name": "LX214",
                    "fixes": {
                        "LX214": "LX214 3000 SPEED 185"
                    }
                },
                {
                    "name": "ROXIL",
                    "fixes": {
                        "ROXIL": "ROXIL AT OR BELOW 5000 AT OR ABOVE 3000"
                    }
                }
            ]
        }
    ]
}