{
    "fixes": [
        {
            "name": "21VOR",
            "lat": 43.557777783333336,
            "lon": 4.0136611166666665
        },
        {
            "name": "30VOR",
            "lat": 43.60483611666667,
            "lon": 3.916352783333333
        },
        {
            "name": "40LOC",
            "lat": 43.5363,
            "lon": 4.054555566666667
        },
        {
            "name": "72VOR",
            "lat": 43.641875,
            "lon": 3.8345694333333333
        },
        {
            "name": "ADEVA",
            "lat": 44.25,
            "lon": 3.2616666666666667
        },
        {
            "name": "AF001",
            "lat": 43.529879216666664,
            "lon": 3.7307578333333336
        },
        {
            "name": "AF002",
            "lat": 43.566890883333336,
            "lon": 3.7221702333333333
        },
        {
            "name": "AF003",
            "lat": 43.60439456666667,
            "lon": 3.7241606833333334
        },
        {
            "name": "AKUNU",
            "lat": 43.13291666666667,
            "lon": 3.373277783333333
        },
        {
            "name": "ASTEG",
            "lat": 43.41438888333333,
            "lon": 4.132111116666667
        },
        {
            "name": "BALRU",
            "lat": 43.47975,
            "lon": 3.70975
        },
        {
            "name": "BRUSC",
            "lat": 43.7475,
            "lon": 3.0233333333333334
        },
        {
            "name": "CI30R",
            "lat": 43.49636388333333,
            "lon": 4.133572216666667
        },
        {
            "name": "D117N",
            "lat": 43.46894721666666,
            "lon": 4.258005566666666
        },
        {
            "name": "D282J",
            "lat": 43.61847221666667,
            "lon": 3.7520944333333333
        },
        {
            "name": "D288K",
            "lat": 43.640827783333336,
            "lon": 3.737469433333333
        },
        {
            "name": "D300M",
            "lat": 43.692911116666664,
            "lon": 3.7214555666666667
        },
        {
            "name": "D300R",
            "lat": 43.73681943333333,
            "lon": 3.6237916666666665
        },
        {
            "name": "D312K",
            "lat": 43.705588883333334,
            "lon": 3.792908333333333
        },
        {
            "name": "D318H",
            "lat": 43.65989166666667,
            "lon": 3.8948055666666668
        },
        {
            "name": "D328J",
            "lat": 43.72362221666667,
            "lon": 3.8621222166666667
        },
        {
            "name": "D329E",
            "lat": 43.65100556666667,
            "lon": 3.918494433333333
        },
        {
            "name": "D329M",
            "lat": 43.76718056666667,
            "lon": 3.8282388833333334
        },
        {
            "name": "EDODU",
            "lat": 44.03330556666667,
            "lon": 4.499666666666666
        },
        {
            "name": "EMBAM",
            "lat": 44.015777783333334,
            "lon": 4.260416666666667
        },
        {
            "name": "ERGUL",
            "lat": 44.249805566666666,
            "lon": 3.4489166666666664
        },
        {
            "name": "ESERA",
            "lat": 44.147694433333335,
            "lon": 3.5298055666666666
        },
        {
            "name": "ESPIG",
            "lat": 43.510722216666665,
            "lon": 4.105194433333334
        },
        {
            "name": "ETREK",
            "lat": 45.187638883333335,
            "lon": 4.638722216666666
        },
        {
            "name": "FD12L",
            "lat": 43.641944433333336,
            "lon": 3.834361116666667
        },
        {
            "name": "FD1LZ",
            "lat": 43.675944433333335,
            "lon": 3.7591111166666664
        },
        {
            "name": "FD30R",
            "lat": 43.513694433333335,
            "lon": 4.096861116666667
        },
        {
            "name": "FF30R",
            "lat": 43.51583333333333,
            "lon": 4.095055566666667
        },
        {
            "name": "FGNB",
            "lat": 43.55677778333333,
            "lon": 4.014055566666666
        },
        {
            "name": "FJR",
            "lat": 43.57836111666667,
            "lon": 3.9747222166666667
        },
        {
            "name": "FT12L",
            "lat": 43.64480556666667,
            "lon": 3.8388055666666667
        },
        {
            "name": "GIGNA",
            "lat": 43.65808333333333,
            "lon": 3.5295555666666667
        },
        {
            "name": "IT12L",
            "lat": 43.678888883333336,
            "lon": 3.770777783333333
        },
        {
            "name": "KELAM",
            "lat": 43.17194443333333,
            "lon": 2.8686111166666666
        },
        {
            "name": "LEKLA",
            "lat": 43.849611116666665,
            "lon": 3.3713333333333333
        },
        {
            "name": "LUNEL",
            "lat": 43.689416666666666,
            "lon": 4.145833333333333
        },
        {
            "name": "MARRI",
            "lat": 43.38472221666667,
            "lon": 4.474166666666667
        },
        {
            "name": "MASAM",
            "lat": 43.46777778333333,
            "lon": 2.251944433333333
        },
        {
            "name": "MD12L",
            "lat": 43.591605566666665,
            "lon": 3.9455472166666667
        },
        {
            "name": "MD30R",
            "lat": 43.568561116666665,
            "lon": 3.9932666666666665
        },
        {
            "name": "MEN",
            "lat": 44.608361116666664,
            "lon": 3.1624166666666667
        },
        {
            "name": "ML30R",
            "lat": 43.564791666666665,
            "lon": 3.9980527833333332
        },
        {
            "name": "MT130",
            "lat": 43.54905556666667,
            "lon": 4.029333333333334
        },
        {
            "name": "MT131",
            "lat": 43.63947221666667,
            "lon": 4.06875
        },
        {
            "name": "MT132",
            "lat": 43.507333333333335,
            "lon": 3.877944433333333
        },
        {
            "name": "MT133",
            "lat": 43.54891666666666,
            "lon": 3.4738333333333333
        },
        {
            "name": "MT134",
            "lat": 43.70183333333333,
            "lon": 3.8790555666666666
        },
        {
            "name": "MT135",
            "lat": 43.709611116666665,
            "lon": 3.741611116666667
        },
        {
            "name": "MT136",
            "lat": 43.659138883333334,
            "lon": 4.031916666666667
        },
        {
            "name": "MT137",
            "lat": 43.69313888333333,
            "lon": 4.095916666666667
        },
        {
            "name": "MT500",
            "lat": 43.62680556666667,
            "lon": 3.7211111166666666
        },
        {
            "name": "MT502",
            "lat": 43.73794443333333,
            "lon": 3.9022777833333335
        },
        {
            "name": "MT503",
            "lat": 43.793472216666665,
            "lon": 3.5036666666666667
        },
        {
            "name": "MT504",
            "lat": 43.71458333333333,
            "lon": 3.8048611166666664
        },
        {
            "name": "MT505",
            "lat": 43.73405556666667,
            "lon": 3.6422222166666667
        },
        {
            "name": "MT510",
            "lat": 43.450777783333336,
            "lon": 4.145305566666667
        },
        {
            "name": "MTL",
            "lat": 44.55494443333333,
            "lon": 4.779861116666667
        },
        {
            "name": "NGNB",
            "lat": 43.85719443333333,
            "lon": 4.4062777833333335
        },
        {
            "name": "ORTUX",
            "lat": 44.15894443333333,
            "lon": 4.305777783333333
        },
        {
            "name": "OSLUT",
            "lat": 43.462972216666664,
            "lon": 4.19925
        },
        {
            "name": "PPG",
            "lat": 42.750472216666665,
            "lon": 2.8671388833333333
        },
        {
            "name": "RIXEL",
            "lat": 44.00388888333333,
            "lon": 3.3291666666666666
        },
        {
            "name": "RW30R",
            "lat": 43.572769433333335,
            "lon": 3.9822166666666665
        },
        {
            "name": "SIJAN",
            "lat": 43.1975,
            "lon": 2.936944433333333
        },
        {
            "name": "SIMAR",
            "lat": 43.81072221666667,
            "lon": 3.794305566666667
        },
        {
            "name": "VALAG",
            "lat": 43.67775,
            "lon": 3.4179166666666667
        },
        {
            "name": "VARES",
            "lat": 43.50305556666667,
            "lon": 4.323055566666667
        },
        {
            "name": "ZRNB",
            "lat": 43.327083333333334,
            "lon": 3.2830277833333334
        }
    ],
    "rnws": [
        "RNW 12L",
        "RNW 12R",
        "RNW 30L",
        "RNW 30R"
    ],
    "sids": [
        {
            "name": "BRUS6L",
            "rnw": "12L",
            "fixes": {
                "MT130": "OVERFLY MT130 TURN RIGHT DIRECT",
                "MT132": "MT132",
                "BRUSC": "BRUSC"
            },
            "sub_fixes": [],
            "transitions": []
        },
        {
            "name": "BRUS6N",
            "rnw": "30R",
            "fixes": {
                "FJR": "FJR",
                "D329E": "OVERFLY D329E TURN LEFT TRK 237 INTERCEPT RADIAL 282 TO",
                "GIGNA": "GIGNA",
                "BRUSC": "BRUSC"
            },
            "sub_fixes": [],
            "transitions": []
        },
        {
            "name": "BRUS6R",
            "rnw": "30R",
            "fixes": {
                "MT134": "MT134",
                "MT135": "MT135",
                "BRUSC": "BRUSC"
            },
            "sub_fixes": [],
            "transitions": []
        },
        {
            "name": "BRUS6S",
            "rnw": "12L",
            "fixes": {
                "FJR": "FJR TURN RIGHT TRK 297 INTERCEPT RADIAL 282 TO",
                "GIGNA": "GIGNA",
                "BRUSC": "BRUSC"
            },
            "sub_fixes": [],
            "transitions": []
        },
        {
            "name": "ETRE6D",
            "rnw": "30R",
            "fixes": {
                "MT136": "MT136",
                "MT137": "MT137",
                "EMBAM": "EMBAM AT OR ABOVE 15000",
                "ORTUX": "ORTUX AT OR ABOVE 20000",
                "ETREK": "ETREK"
            },
            "sub_fixes": [],
            "transitions": []
        },
        {
            "name": "ETRE6E",
            "rnw": "12L",
            "fixes": {
                "MT131": "MT131",
                "MT137": "MT137",
                "EMBAM": "EMBAM AT OR ABOVE 15000",
                "ORTUX": "ORTUX AT OR ABOVE 20000",
                "ETREK": "ETREK"
            },
            "sub_fixes": [],
            "transitions": []
        },
        {
            "name": "ETRE6L",
            "rnw": "12L",
            "fixes": {
                "MT131": "MT131",
                "NGNB": "NGNB AT OR ABOVE 10000",
                "EDODU": "EDODU AT OR ABOVE 15000",
                "MTL": "MTL",
                "ETREK": "ETREK"
            },
            "sub_fixes": [],
            "transitions": []
        },
        {
            "name": "ETRE6R",
            "rnw": "30R",
            "fixes": {
                "MT136": "MT136",
                "NGNB": "NGNB AT OR ABOVE 10000",
                "EDODU": "EDODU AT OR ABOVE 15000",
                "MTL": "MTL",
                "ETREK": "ETREK"
            },
            "sub_fixes": [],
            "transitions": []
        },
        {
            "name": "KELA6L",
            "rnw": "12L",
            "fixes": {
                "MT130": "OVERFLY MT130 TURN RIGHT DIRECT",
                "MT132": "MT132",
                "ZRNB": "ZRNB",
                "SIJAN": "SIJAN",
                "KELAM": "KELAM"
            },
            "sub_fixes": [],
            "transitions": []
        },
        {
            "name": "KELA6N",
            "rnw": "30R",
            "fixes": {
                "FJR": "FJR TURN LEFT TRK 197 INTERCEPT RADIAL 242 TO",
                "BALRU": "BALRU",
                "ZRNB": "ZRNB",
                "SIJAN": "SIJAN",
                "KELAM": "KELAM"
            },
            "sub_fixes": [],
            "transitions": []
        },
        {
            "name": "KELA6R",
            "rnw": "30R",
            "fixes": {
                "MT134": "MT134",
                "MT135": "MT135",
                "KELAM": "KELAM"
            },
            "sub_fixes": [],
            "transitions": []
        },
        {
            "name": "KELA6S",
            "rnw": "12L",
            "fixes": {
                "FJR": "FJR TURN RIGHT TRK 277 INTERCEPT RADIAL 242 TO",
                "BALRU": "BALRU",
                "ZRNB": "ZRNB",
                "SIJAN": "SIJAN",
                "KELAM": "KELAM"
            },
            "sub_fixes": [],
            "transitions": []
        },
        {
            "name": "MARI6L",
            "rnw": "12L",
            "fixes": {
                "MT130": "OVERFLY MT130",
                "MARRI": "MARRI"
            },
            "sub_fixes": [],
            "transitions": []
        },
        {
            "name": "MARI6N",
            "rnw": "30R",
            "fixes": {
                "FJR": "FJR TRK 052 UNTIL 2000 TURN RIGHT HDG 146 INTERCEPT RADIAL 116 TO",
                "MARRI": "MARRI"
            },
            "sub_fixes": [],
            "transitions": []
        },
        {
            "name": "MARI6R",
            "rnw": "30R",
            "fixes": {
                "MT136": "MT136",
                "VARES": "VARES",
                "MARRI": "MARRI"
            },
            "sub_fixes": [],
            "transitions": []
        },
        {
            "name": "MARI6S",
            "rnw": "12L",
            "fixes": {
                "FJR": "FJR",
                "MARRI": "MARRI"
            },
            "sub_fixes": [],
            "transitions": []
        },
        {
            "name": "MASA6L",
            "rnw": "12L",
            "fixes": {
                "MT130": "OVERFLY MT130 TURN RIGHT DIRECT",
                "MT132": "MT132",
                "MT133": "MT133",
                "MASAM": "MASAM"
            },
            "sub_fixes": [],
            "transitions": []
        },
        {
            "name": "MASA6N",
            "rnw": "30R",
            "fixes": {
                "FJR": "FJR HDG 234 INTERCEPT RADIAL 264 TO",
                "MASAM": "MASAM"
            },
            "sub_fixes": [],
            "transitions": []
        },
        {
            "name": "MASA6S",
            "rnw": "12L",
            "fixes": {
                "FJR": "FJR TURN RIGHT TRK 297 INTERCEPT RADIAL 264 TO",
                "MASAM": "MASAM"
            },
            "sub_fixes": [],
            "transitions": []
        },
        {
            "name": "MEN6L",
            "rnw": "12L",
            "fixes": {
                "MT131": "MT131",
                "SIMAR": "SIMAR",
                "MEN": "MEN"
            },
            "sub_fixes": [],
            "transitions": []
        },
        {
            "name": "MEN6N",
            "rnw": "30R",
            "fixes": {
                "FJR": "FJR",
                "SIMAR": "SIMAR",
                "MEN": "MEN"
            },
            "sub_fixes": [],
            "transitions": []
        },
        {
            "name": "MEN6R",
            "rnw": "30R",
            "fixes": {
                "MT134": "MT134",
                "SIMAR": "SIMAR",
                "MEN": "MEN"
            },
            "sub_fixes": [],
            "transitions": []
        },
        {
            "name": "MEN6S",
            "rnw": "12L",
            "fixes": {
                "FJR": "FJR TRK 015 UNTIL 2000 HDG 299 INTERCEPT RADIAL 329 TO",
                "SIMAR": "SIMAR",
                "MEN": "MEN"
            },
            "sub_fixes": [],
            "transitions": []
        },
        {
            "name": "MTL6D",
            "rnw": "30R",
            "fixes": {
                "MT136": "MT136",
                "MT137": "MT137",
                "EMBAM": "EMBAM AT OR ABOVE 15000",
                "MTL": "MTL"
            },
            "sub_fixes": [],
            "transitions": []
        },
        {
            "name": "MTL6E",
            "rnw": "12L",
            "fixes": {
                "MT131": "MT131",
                "MT137": "MT137",
                "EMBAM": "EMBAM AT OR ABOVE 15000",
                "MTL": "MTL"
            },
            "sub_fixes": [],
            "transitions": []
        },
        {
            "name": "MTL6L",
            "rnw": "12L",
            "fixes": {
                "MT131": "MT131",
                "NGNB": "NGNB AT OR ABOVE 10000",
                "EDODU": "EDODU AT OR ABOVE 15000",
                "MTL": "MTL"
            },
            "sub_fixes": [],
            "transitions": []
        },
        {
            "name": "MTL6R",
            "rnw": "30R",
            "fixes": {
                "MT136": "MT136",
                "NGNB": "NGNB AT OR ABOVE 10000",
                "EDODU": "EDODU AT OR ABOVE 15000",
                "MTL": "MTL"
            },
            "sub_fixes": [],
            "transitions": []
        },
        {
            "name": "NG6L",
            "rnw": "12L",
            "fixes": {
                "MT131": "MT131",
                "NGNB": "NGNB"
            },
            "sub_fixes": [],
            "transitions": []
        },
        {
            "name": "NG6N",
            "rnw": "30R",
            "fixes": {
                "FJR": "FJR TRK 052 UNTIL 2000 HDG 082 INTERCEPT RADIAL 052 TO",
                "NGNB": "NGNB"
            },
            "sub_fixes": [],
            "transitions": []
        },
        {
            "name": "NG6R",
            "rnw": "30R",
            "fixes": {
                "MT136": "MT136",
                "NGNB": "NGNB"
            },
            "sub_fixes": [],
            "transitions": []
        },
        {
            "name": "NG6S",
            "rnw": "12L",
            "fixes": {
                "FJR": "FJR TURN LEFT TRK 015 INTERCEPT RADIAL 047 TO",
                "LUNEL": "LUNEL",
                "NGNB": "NGNB"
            },
            "sub_fixes": [],
            "transitions": []
        },
        {
            "name": "PPG6L",
            "rnw": "12L",
            "fixes": {
                "MT130": "OVERFLY MT130 TURN RIGHT DIRECT",
                "MT132": "MT132",
                "PPG": "PPG"
            },
            "sub_fixes": [],
            "transitions": []
        },
        {
            "name": "PPG6N",
            "rnw": "30R",
            "fixes": {
                "FJR": "FJR TURN LEFT TRK 178 INTERCEPT RADIAL 223 TO",
                "PPG": "PPG"
            },
            "sub_fixes": [],
            "transitions": []
        },
        {
            "name": "PPG6S",
            "rnw": "12L",
            "fixes": {
                "FJR": "FJR TURN RIGHT TRK 277 INTERCEPT RADIAL 223 TO",
                "PPG": "PPG"
            },
            "sub_fixes": [],
            "transitions": []
        }
    ],
    "stars": [
        {
            "name": "BRUS6T.12L",
            "runway": "RNW 12L",
            "fixes": {
                "BRUSC": "BRUSC AT OR BELOW 17000",
                "VALAG": "VALAG",
                "GIGNA": "GIGNA"
            }
        },
        {
            "name": "BRUS6T.30R",
            "runway": "RNW 30R",
            "fixes": {
                "BRUSC": "BRUSC AT OR BELOW 17000",
                "VALAG": "VALAG",
                "GIGNA": "GIGNA",
                "D282J": "D282J",
                "FJR": "FJR",
                "ASTEG": "OVERFLY ASTEG TURN LEFT DIRECT",
                "OSLUT": "OSLUT",
                "ESPIG": "ESPIG"
            }
        },
        {
            "name": "KELA6T.12L",
            "runway": "RNW 12L",
            "fixes": {
                "KELAM": "KELAM",
                "SIJAN": "SIJAN",
                "ZRNB": "ZRNB",
                "BALRU": "BALRU"
            }
        },
        {
            "name": "KELA6T.30R",
            "runway": "RNW 30R",
            "fixes": {
                "KELAM": "KELAM",
                "SIJAN": "SIJAN",
                "ZRNB": "ZRNB",
                "BALRU": "BALRU",
                "FJR": "FJR",
                "ASTEG": "OVERFLY ASTEG TURN LEFT DIRECT",
                "OSLUT": "OSLUT",
                "ESPIG": "ESPIG"
            }
        },
        {
            "name": "MARI6T.12L",
            "runway": "RNW 12L",
            "fixes": {
                "MARRI": "MARRI",
                "D117N": "D117N",
                "OSLUT": "OSLUT",
                "ESPIG": "ESPIG"
            }
        },
        {
            "name": "MARI6T.30R",
            "runway": "RNW 30R",
            "fixes": {
                "MARRI": "MARRI",
                "D117N": "D117N",
                "OSLUT": "OSLUT",
                "ESPIG": "ESPIG"
            }
        },
        {
            "name": "MEN6E.12L",
            "runway": "RNW 12L",
            "fixes": {
                "MEN": "MEN",
                "ERGUL": "ERGUL AT OR BELOW 19000",
                "ESERA": "ESERA",
                "SIMAR": "SIMAR"
            }
        },
        {
            "name": "MEN6E.30R",
            "runway": "RNW 30R",
            "fixes": {
                "MEN": "MEN",
                "ERGUL": "ERGUL AT OR BELOW 19000",
                "ESERA": "ESERA",
                "SIMAR": "SIMAR",
                "D328J": "D328J",
                "FJR": "FJR",
                "ASTEG": "OVERFLY ASTEG TURN LEFT DIRECT",
                "OSLUT": "OSLUT",
                "ESPIG": "ESPIG"
            }
        },
        {
            "name": "MEN6T.12L",
            "runway": "RNW 12L",
            "fixes": {
                "MEN": "MEN",
                "ADEVA": "ADEVA AT OR BELOW 19000",
                "RIXEL": "RIXEL AT OR ABOVE 12000",
                "LEKLA": "LEKLA SPEED 250"
            }
        },
        {
            "name": "MEN6T.30R",
            "runway": "RNW 30R",
            "fixes": {
                "MEN": "MEN",
                "ADEVA": "ADEVA AT OR BELOW 19000",
                "RIXEL": "RIXEL AT OR ABOVE 12000",
                "LEKLA": "LEKLA SPEED 250",
                "VALAG": "VALAG",
                "GIGNA": "GIGNA",
                "D282J": "D282J",
                "FJR": "FJR",
                "ASTEG": "OVERFLY ASTEG TURN LEFT DIRECT",
                "OSLUT": "OSLUT",
                "ESPIG": "ESPIG"
            }
        },
        {
            "name": "NG6T.12L",
            "runway": "RNW 12L",
            "fixes": {
                "NGNB": "NGNB",
                "LUNEL": "LUNEL",
                "FJR": "FJR",
                "ASTEG": "OVERFLY ASTEG TURN LEFT DIRECT",
                "OSLUT": "OSLUT",
                "ESPIG": "ESPIG"
            }
        },
        {
            "name": "NG6T.30R",
            "runway": "RNW 30R",
            "fixes": {
                "NGNB": "NGNB",
                "LUNEL": "LUNEL",
                "FJR": "FJR",
                "ASTEG": "OVERFLY ASTEG TURN LEFT DIRECT",
                "OSLUT": "OSLUT",
                "ESPIG": "ESPIG"
            }
        },
        {
            "name": "PPG6T.12L",
            "runway": "RNW 12L",
            "fixes": {
                "PPG": "PPG",
                "AKUNU": "AKUNU",
                "FJR": "FJR",
                "ASTEG": "OVERFLY ASTEG TURN LEFT DIRECT",
                "OSLUT": "OSLUT",
                "ESPIG": "ESPIG"
            }
        },
        {
            "name": "PPG6T.30R",
            "runway": "RNW 30R",
            "fixes": {
                "PPG": "PPG",
                "AKUNU": "AKUNU",
                "FJR": "FJR",
                "ASTEG": "OVERFLY ASTEG TURN LEFT DIRECT",
                "OSLUT": "OSLUT",
                "ESPIG": "ESPIG"
            }
        }
    ],
    "approaches": [
        {
            "name": "VORD12LY",
            "fixes": {
                "FD12L": "FD12L 2500",
                "30VOR": "30VOR AT OR ABOVE 870",
                "MD12L": "MD12L 281 RNW 12L",
                "FJR": "FJR",
                "ESPIG": "ESPIG 2000 HOLD AT ESPIG LEFT TURN INBOUNDCOURSE 304 SPEED 220 LEGDIST 5 FAF FD12L MAP MD12L"
            },
            "transitions": [
                {
                    "name": "BALRU",
                    "fixes": {
                        "BALRU": "BALRU",
                        "AF001": "AF001",
                        "AF002": "AF002",
                        "AF003": "AF003",
                        "D288K": "D288K 3000"
                    }
                },
                {
                    "name": "SIMAR",
                    "fixes": {
                        "SIMAR": "SIMAR AT OR ABOVE 5000",
                        "D329M": "D329M 5000",
                        "D312K": "D312K 3500"
                    }
                }
            ]
        },
        {
            "name": "VORD12LZ",
            "fixes": {
                "FD1LZ": "FD1LZ 4000",
                "72VOR": "72VOR AT OR ABOVE 2500",
                "30VOR": "30VOR AT OR ABOVE 870",
                "MD12L": "MD12L 280 RNW 12L",
                "FJR": "FJR",
                "ESPIG": "ESPIG 2000 HOLD AT ESPIG LEFT TURN INBOUNDCOURSE 304 SPEED 220 LEGDIST 5 FAF FD1LZ MAP MD12L"
            },
            "transitions": [
                {
                    "name": "GIGNA",
                    "fixes": {
                        "GIGNA": "GIGNA AT OR ABOVE 5000",
                        "D300M": "D300M AT OR ABOVE 4000 SPEED 185"
                    }
                },
                {
                    "name": "LEKLA",
                    "fixes": {
                        "LEKLA": "LEKLA AT OR ABOVE 7000 SPEED 250 TRK 120 UNTIL 25.0 FROM",
                        "FJR": "FJR SPEED 250",
                        "D300R": "D300R 5000",
                        "D300M": "D300M AT OR ABOVE 4000 SPEED 185"
                    }
                }
            ]
        },
        {
            "name": "VORD30R",
            "fixes": {
                "FD30R": "FD30R 2000",
                "21VOR": "21VOR AT OR ABOVE 600",
                "MD30R": "MD30R 236 RNW 30R TRK 329 UNTIL 6.0 FROM",
                "FJR": "FJR TURN RIGHT DIRECT FJR SPEED 185",
                "ESPIG": "ESPIG 3000 HOLD AT ESPIG LEFT TURN INBOUNDCOURSE 304 SPEED 220 LEGDIST 5 FAF FD30R MAP MD30R"
            },
            "transitions": [
                {
                    "name": "ESPIG",
                    "fixes": {
                        "ESPIG": "ESPIG LEFT TURN INBOUNDCOURSE 304 ALT 2000 SPEED 220 LEGDIST 5"
                    }
                }
            ]
        },
        {
            "name": "ILS30RY",
            "fixes": {
                "CI30R": "CI30R AT OR ABOVE 2000",
                "FF30R": "FF30R 2000 RNW 30R TRK 303 UNTIL 310 HDG 348 INTERCEPT RADIAL 318 TO",
                "D318H": "D318H OVERFLY D318H TURN RIGHT DIRECT",
                "FGNB": "FGNB 3000 SPEED 185 FAF FF30R MAP RNW 30R"
            },
            "transitions": []
        },
        {
            "name": "ILS30RZ",
            "fixes": {
                "CI30R": "CI30R AT OR ABOVE 2000",
                "FF30R": "FF30R 2000 RNW 30R TRK 303 UNTIL 310 HDG 359 INTERCEPT RADIAL 329 FROM",
                "FJR": "FJR TRK 329 UNTIL 6.0 FROM FJR TURN RIGHT DIRECT FJR SPEED 185",
                "ESPIG": "ESPIG 3000 HOLD AT ESPIG LEFT TURN INBOUNDCOURSE 304 ALT 3000 SPEED 220 LEGDIST 5 FAF FF30R MAP RNW 30R"
            },
            "transitions": []
        },
        {
            "name": "LOC30RY",
            "fixes": {
                "CI30R": "CI30R AT OR ABOVE 2000",
                "FF30R": "FF30R 2000",
                "40LOC": "40LOC AT OR ABOVE 1300",
                "FGNB": "FGNB AT OR ABOVE 610 FGNB 3000 SPEED 185 FAF FF30R MAP ML30R",
                "ML30R": "ML30R 324 RNW 30R TRK 303 UNTIL 330 HDG 348 INTERCEPT RADIAL 318 TO",
                "D318H": "D318H OVERFLY D318H TURN RIGHT DIRECT"
            },
            "transitions": []
        },
        {
            "name": "LOC30RZ",
            "fixes": {
                "CI30R": "CI30R AT OR ABOVE 2000",
                "FF30R": "FF30R 2000",
                "40LOC": "40LOC AT OR ABOVE 1300",
                "FGNB": "FGNB AT OR ABOVE 600",
                "ML30R": "OVERFLY ML30R 324 RNW 30R",
                "FJR": "FJR TRK 329 UNTIL 6.0 FROM FJR TURN RIGHT DIRECT FJR SPEED 185",
                "ESPIG": "ESPIG 3000 HOLD AT ESPIG LEFT TURN INBOUNDCOURSE 304 ALT 3000 SPEED 220 LEGDIST 5 FAF FF30R MAP ML30R"
            },
            "transitions": []
        },
        {
            "name": "RNAV12L",
            "fixes": {
                "IT12L": "IT12L AT OR ABOVE 3000 SPEED 185",
                "FT12L": "FT12L 2500 RNW 12L",
                "ESPIG": "ESPIG SPEED 190 ESPIG SPEED 190 HOLD AT ESPIG LEFT TURN INBOUNDCOURSE 304 ALT 2000 SPEED 190 LEGTIME 1 FAF FT12L MAP RNW 12L",
                "MT510": "OVERFLY MT510 AT OR BELOW 2000 SPEED 190 TURN LEFT DIRECT"
            },
            "transitions": [
                {
                    "name": "GIGNA",
                    "fixes": {
                        "GIGNA": "GIGNA",
                        "MT505": "MT505 AT OR ABOVE 5000"
                    }
                },
                {
                    "name": "LEKLA",
                    "fixes": {
                        "LEKLA": "LEKLA",
                        "MT503": "MT503 AT OR ABOVE 7000",
                        "MT505": "MT505 AT OR ABOVE 5000"
                    }
                },
                {
                    "name": "MT500",
                    "fixes": {
                        "MT500": "MT500 AT OR ABOVE 3000 SPEED 185"
                    }
                },
                {
                    "name": "MT502",
                    "fixes": {
                        "MT502": "MT502 AT OR ABOVE 4000 SPEED 185",
                        "MT504": "MT504 3000"
                    }
                }
            ]
        }
    ]
}