{
    "fixes": [
        {
            "name": "33VOR",
            "lat": 48.79153888333333,
            "lon": 4.065291666666667
        },
        {
            "name": "40DME",
            "lat": 48.76054443333334,
            "lon": 4.303036116666667
        },
        {
            "name": "40LO2",
            "lat": 48.79178888333333,
            "lon": 4.064841666666666
        },
        {
            "name": "63VOR",
            "lat": 48.76095556666667,
            "lon": 4.302725
        },
        {
            "name": "AF001",
            "lat": 48.884255616666664,
            "lon": 3.9167202166666666
        },
        {
            "name": "AF002",
            "lat": 48.851448766666664,
            "lon": 3.8898473166666667
        },
        {
            "name": "ARSIL",
            "lat": 48.56,
            "lon": 4.0616666666666665
        },
        {
            "name": "ASRUL",
            "lat": 48.71838888333333,
            "lon": 3.8450277833333333
        },
        {
            "name": "CAV",
            "lat": 48.781083333333335,
            "lon": 4.146944433333333
        },
        {
            "name": "CF10",
            "lat": 48.805222216666664,
            "lon": 3.9610555666666665
        },
        {
            "name": "CI28",
            "lat": 48.74741111666667,
            "lon": 4.401941666666667
        },
        {
            "name": "CVTNB",
            "lat": 48.759194433333334,
            "lon": 4.318805566666667
        },
        {
            "name": "D099L",
            "lat": 48.759261116666664,
            "lon": 4.312830566666666
        },
        {
            "name": "D099O",
            "lat": 48.750816666666665,
            "lon": 4.377058333333333
        },
        {
            "name": "D280B",
            "lat": 48.788519433333335,
            "lon": 4.097811116666667
        },
        {
            "name": "D287R",
            "lat": 48.87787778333333,
            "lon": 3.7172222166666664
        },
        {
            "name": "D311E",
            "lat": 48.83723333333333,
            "lon": 4.055666666666666
        },
        {
            "name": "D314K",
            "lat": 48.9127,
            "lon": 3.953877783333333
        },
        {
            "name": "D320T",
            "lat": 49.039822216666664,
            "lon": 3.8389805666666668
        },
        {
            "name": "D330V",
            "lat": 49.09894166666667,
            "lon": 3.889338883333333
        },
        {
            "name": "DIKOL",
            "lat": 49.1375,
            "lon": 4.049166666666666
        },
        {
            "name": "FD10",
            "lat": 48.79785,
            "lon": 4.015791666666667
        },
        {
            "name": "FD28",
            "lat": 48.754525,
            "lon": 4.352155566666666
        },
        {
            "name": "FI10",
            "lat": 48.79861111666666,
            "lon": 4.012833333333333
        },
        {
            "name": "FI28",
            "lat": 48.75397221666667,
            "lon": 4.353083333333333
        },
        {
            "name": "FOK10",
            "lat": 48.79858333333333,
            "lon": 4.012666666666667
        },
        {
            "name": "FOK28",
            "lat": 48.75391666666667,
            "lon": 4.353111116666667
        },
        {
            "name": "FQ28",
            "lat": 48.75483333333333,
            "lon": 4.352666666666667
        },
        {
            "name": "IOK28",
            "lat": 48.74075,
            "lon": 4.451861116666667
        },
        {
            "name": "KELON",
            "lat": 48.81583333333333,
            "lon": 3.8736111166666665
        },
        {
            "name": "MQ28",
            "lat": 48.76960556666667,
            "lon": 4.23375
        },
        {
            "name": "OK400",
            "lat": 48.583416666666665,
            "lon": 4.07875
        },
        {
            "name": "OK404",
            "lat": 48.82236111666667,
            "lon": 4.476861116666667
        },
        {
            "name": "OK500",
            "lat": 49.027138883333336,
            "lon": 3.9765
        },
        {
            "name": "OK610",
            "lat": 48.85722221666666,
            "lon": 4.347972216666666
        },
        {
            "name": "OKBUK",
            "lat": 48.81647221666667,
            "lon": 3.8738333333333332
        },
        {
            "name": "OKVIG",
            "lat": 48.914555566666664,
            "lon": 3.90275
        },
        {
            "name": "RW10",
            "lat": 48.77939166666667,
            "lon": 4.159883333333333
        },
        {
            "name": "TRO",
            "lat": 48.25122221666667,
            "lon": 3.9631388833333334
        },
        {
            "name": "VATNB",
            "lat": 48.79777778333333,
            "lon": 4.016111116666667
        },
        {
            "name": "VAXED",
            "lat": 48.88038888333333,
            "lon": 4.117888883333333
        }
    ],
    "rnws": [
        "RNW 10",
        "RNW 28"
    ],
    "sids": [
        {
            "name": "ARSI1E",
            "rnw": "10",
            "fixes": {
                "CAV": "CAV SPEED 250",
                "ARSIL": "ARSIL"
            },
            "sub_fixes": [],
            "transitions": []
        },
        {
            "name": "ARSI1W",
            "rnw": "28",
            "fixes": {
                "D280B": "OVERFLY D280B TURN LEFT TRK 162 INTERCEPT RADIAL 192 TO",
                "ARSIL": "ARSIL"
            },
            "sub_fixes": [],
            "transitions": []
        },
        {
            "name": "DIKO1L",
            "rnw": "10",
            "fixes": {
                "CAV": "CAV SPEED 250",
                "DIKOL": "DIKOL SPEED 250"
            },
            "sub_fixes": [],
            "transitions": []
        },
        {
            "name": "DIKO1R",
            "rnw": "28",
            "fixes": {
                "D280B": "OVERFLY D280B",
                "DIKOL": "DIKOL SPEED 250"
            },
            "sub_fixes": [],
            "transitions": []
        }
    ],
    "stars": [
        {
            "name": "DIKO1E",
            "runway": "RNW 10 RNW 28",
            "fixes": {
                "DIKOL": "DIKOL",
                "D311E": "OVERFLY D311E SPEED 230 TURN RIGHT DIRECT",
                "KELON": "KELON"
            }
        },
        {
            "name": "DIKO1W",
            "runway": "RNW 10 RNW 28",
            "fixes": {
                "DIKOL": "DIKOL",
                "D330V": "OVERFLY D330V",
                "D320T": "D320T",
                "D287R": "OVERFLY D287R SPEED 220 TURN LEFT DIRECT",
                "KELON": "KELON"
            }
        },
        {
            "name": "DIKO2P",
            "runway": "RNW 10 RNW 28",
            "fixes": {
                "DIKOL": "DIKOL SPEED 250",
                "OK500": "OK500 AT OR ABOVE 2700",
                "OKVIG": "OKVIG",
                "OKBUK": "OKBUK AT OR ABOVE 2500"
            }
        },
        {
            "name": "DIKO2S",
            "runway": "RNW 10 RNW 28",
            "fixes": {
                "DIKOL": "DIKOL SPEED 250",
                "VAXED": "VAXED AT OR BELOW 4000 AT OR ABOVE 3500"
            }
        },
        {
            "name": "TRO1A",
            "runway": "RNW 10 RNW 28",
            "fixes": {
                "TRO": "TRO",
                "KELON": "KELON"
            }
        },
        {
            "name": "TRO2P",
            "runway": "RNW 10 RNW 28",
            "fixes": {
                "TRO": "TRO SPEED 250",
                "ASRUL": "ASRUL",
                "OKBUK": "OKBUK AT OR ABOVE 2500"
            }
        },
        {
            "name": "TRO2S",
            "runway": "RNW 10 RNW 28",
            "fixes": {
                "TRO": "TRO SPEED 250",
                "OK400": "OK400 AT OR ABOVE 3500",
                "VAXED": "VAXED AT OR BELOW 4000 AT OR ABOVE 3500"
            }
        }
    ],
    "approaches": [
        {
            "name": "VORD10",
            "fixes": {
                "CF10": "CF10 AT OR ABOVE 2500",
                "FD10": "FD10 2500",
                "33VOR": "33VOR AT OR ABOVE 1830",
                "CAV": "CAV 771 RNW 10 TRK 099 UNTIL 1600 TURN LEFT HDG 256 INTERCEPT RADIAL 314 TO",
                "D314K": "D314K SPEED 220 D314K",
                "AF001": "AF001",
                "AF002": "AF002",
                "KELON": "KELON 2500 SPEED 220 FAF FD10 MAP CAV"
            },
            "transitions": [
                {
                    "name": "KELON",
                    "fixes": {
                        "KELON": "KELON AT OR ABOVE 2500"
                    }
                }
            ]
        },
        {
            "name": "VORD28",
            "fixes": {
                "FD28": "FD28 2500",
                "63VOR": "63VOR AT OR ABOVE 1850 RNW 28",
                "CAV": "OVERFLY CAV",
                "D314K": "D314K",
                "AF001": "AF001",
                "AF002": "AF002",
                "KELON": "KELON 2500 SPEED 220 HOLD AT KELON RIGHT TURN INBOUNDCOURSE 099 ALT 2500 SPEED 230 LEGDIST 5 FAF FD28 MAP RNW 28"
            },
            "transitions": [
                {
                    "name": "CAV1",
                    "fixes": {
                        "CAV": "CAV AT OR ABOVE 2500 TRK 083 UNTIL 11.8 FROM CAV"
                    }
                },
                {
                    "name": "CAV2",
                    "fixes": {
                        "CAV": "CAV AT OR ABOVE 2500 TRK 088 UNTIL 10.0 FROM CAV"
                    }
                },
                {
                    "name": "KELO1",
                    "fixes": {
                        "KELON": "KELON",
                        "CAV": "CAV TRK 083 UNTIL 11.8 FROM CAV"
                    }
                },
                {
                    "name": "KELO2",
                    "fixes": {
                        "KELON": "KELON",
                        "CAV": "CAV TRK 088 UNTIL 10.0 FROM CAV"
                    }
                }
            ]
        },
        {
            "name": "ILSY10",
            "fixes": {
                "CF10": "CF10 AT OR ABOVE 2500",
                "FI10": "FI10 2500 RNW 10",
                "CVTNB": "OVERFLY CVTNB AT OR ABOVE 1800 TURN LEFT DIRECT",
                "VATNB": "VATNB 2500 SPEED 220 FAF FI10 MAP RNW 10"
            },
            "transitions": []
        },
        {
            "name": "ILSZ10",
            "fixes": {
                "CF10": "CF10 AT OR ABOVE 2500",
                "FI10": "FI10 2500 RNW 10 TRK 099 UNTIL 1600 TURN LEFT HDG 256 INTERCEPT RADIAL 314 TO",
                "D314K": "D314K SPEED 220 D314K",
                "AF001": "AF001",
                "AF002": "AF002",
                "KELON": "KELON 2500 SPEED 220 FAF FI10 MAP RNW 10"
            },
            "transitions": [
                {
                    "name": "KELON",
                    "fixes": {
                        "KELON": "KELON RIGHT TURN INBOUNDCOURSE 099 ALT 2500 SPEED 230 LEGDIST 5"
                    }
                }
            ]
        },
        {
            "name": "ILS28",
            "fixes": {
                "CI28": "CI28 AT OR ABOVE 2500",
                "FI28": "FI28 2500 RNW 28",
                "CAV": "OVERFLY CAV",
                "D314K": "D314K",
                "AF001": "AF001",
                "AF002": "AF002",
                "KELON": "KELON 2500 SPEED 220 HOLD AT KELON RIGHT TURN INBOUNDCOURSE 099 ALT 2500 SPEED 230 LEGDIST 5 FAF FI28 MAP RNW 28"
            },
            "transitions": [
                {
                    "name": "CAV1",
                    "fixes": {
                        "CAV": "CAV AT OR ABOVE 3500 TRK 083 UNTIL 6.0 FROM CAV TRK 083 UNTIL 11.8 FROM CAV"
                    }
                },
                {
                    "name": "CAV2",
                    "fixes": {
                        "CAV": "CAV AT OR ABOVE 3500 TRK 088 UNTIL 6.0 FROM CAV TRK 088 UNTIL 10.0 FROM CAV"
                    }
                },
                {
                    "name": "KELO1",
                    "fixes": {
                        "KELON": "KELON",
                        "CAV": "CAV AT OR ABOVE 3500 TRK 083 UNTIL 6.0 FROM CAV TRK 083 UNTIL 11.8 FROM CAV"
                    }
                },
                {
                    "name": "KELO2",
                    "fixes": {
                        "KELON": "KELON",
                        "CAV": "CAV AT OR ABOVE 3500 TRK 088 UNTIL 6.0 FROM CAV TRK 088 UNTIL 10.0 FROM CAV"
                    }
                }
            ]
        },
        {
            "name": "LOCY10",
            "fixes": {
                "CF10": "CF10 AT OR ABOVE 2500",
                "VATNB": "VATNB 2500 VATNB 2500 SPEED 220 FAF VATNB MAP CAV",
                "40LO2": "40LO2 AT OR ABOVE 1830",
                "CAV": "CAV 771 RNW 10",
                "CVTNB": "OVERFLY CVTNB AT OR ABOVE 1800 TURN LEFT DIRECT"
            },
            "transitions": [
                {
                    "name": "VAT",
                    "fixes": {
                        "VATNB": "VATNB RIGHT TURN INBOUNDCOURSE 099 ALT 2500 SPEED 230 LEGTIME 1"
                    }
                }
            ]
        },
        {
            "name": "LOCZ10",
            "fixes": {
                "CF10": "CF10 AT OR ABOVE 2500",
                "VATNB": "VATNB 2500",
                "40LO2": "40LO2 AT OR ABOVE 1830",
                "CAV": "CAV 771 RNW 10 TRK 099 UNTIL 1600 TURN LEFT HDG 256 INTERCEPT RADIAL 314 TO",
                "D314K": "D314K SPEED 220 D314K",
                "AF001": "AF001",
                "AF002": "AF002",
                "KELON": "KELON 2500 SPEED 220 FAF VATNB MAP CAV"
            },
            "transitions": [
                {
                    "name": "KELON",
                    "fixes": {
                        "KELON": "KELON RIGHT TURN INBOUNDCOURSE 099 ALT 2500 SPEED 230 LEGDIST 5"
                    }
                }
            ]
        },
        {
            "name": "NDBD28",
            "fixes": {
                "FQ28": "FQ28 2500",
                "40DME": "40DME AT OR ABOVE 1850",
                "MQ28": "MQ28 962 RNW 28",
                "VATNB": "VATNB 2500 HOLD AT VATNB RIGHT TURN INBOUNDCOURSE 099 ALT 2500 SPEED 230 LEGTIME 1 FAF FQ28 MAP MQ28"
            },
            "transitions": [
                {
                    "name": "VAT1",
                    "fixes": {
                        "VATNB": "VATNB RIGHT TURN INBOUNDCOURSE 099 ALT 3500 SPEED 230 LEGTIME 1",
                        "D099L": "D099L AT OR ABOVE 3500 TRK 055 UNTIL 4.3 FROM D099L"
                    }
                },
                {
                    "name": "VAT2",
                    "fixes": {
                        "VATNB": "VATNB RIGHT TURN INBOUNDCOURSE 099 ALT 3500 SPEED 230 LEGTIME 1",
                        "D099O": "D099O AT OR ABOVE 3500 TRK 055 UNTIL 4.3 FROM D099O"
                    }
                }
            ]
        },
        {
            "name": "RNAV10",
            "fixes": {
                "OKBUK": "OKBUK AT OR ABOVE 2500 OKBUK AT OR ABOVE 2500 HOLD AT OKBUK RIGHT TURN INBOUNDCOURSE 099 ALT 5000 SPEED 230 LEGTIME 1 FAF FOK10 MAP RNW 10",
                "FOK10": "FOK10 2500 RNW 10",
                "CVTNB": "CVTNB",
                "OK610": "OK610 SPEED 210",
                "OKVIG": "OKVIG"
            },
            "transitions": [
                {
                    "name": "ASRUL",
                    "fixes": {
                        "ASRUL": "ASRUL"
                    }
                },
                {
                    "name": "OKVIG",
                    "fixes": {
                        "OKVIG": "OKVIG"
                    }
                }
            ]
        },
        {
            "name": "RNAV28",
            "fixes": {
                "IOK28": "IOK28 AT OR ABOVE 2500 SPEED 210",
                "FOK28": "FOK28 2500 RNW 28",
                "OKBUK": "OKBUK AT OR BELOW 2500 HOLD AT OKBUK RIGHT TURN INBOUNDCOURSE 099 ALT 5000 SPEED 230 LEGTIME 1 FAF FOK28 MAP RNW 28"
            },
            "transitions": [
                {
                    "name": "OKBUK",
                    "fixes": {
                        "OKBUK": "OKBUK AT OR ABOVE 3500",
                        "VAXED": "VAXED AT OR BELOW 4000 AT OR ABOVE 3500",
                        "OK404": "OK404 AT OR BELOW 4000 AT OR ABOVE 3500"
                    }
                },
                {
                    "name": "VAXED",
                    "fixes": {
                        "VAXED": "VAXED AT OR BELOW 4000 AT OR ABOVE 3500",
                        "OK404": "OK404 AT OR BELOW 4000 AT OR ABOVE 3500"
                    }
                }
            ]
        }
    ]
}