{
    "fixes": [
        {
            "name": "ABORO",
            "lat": 48.524138883333336,
            "lon": 2.4150833333333335
        },
        {
            "name": "ADADA",
            "lat": 48.295,
            "lon": 2.003611116666667
        },
        {
            "name": "AGOPA",
            "lat": 48.083333333333336,
            "lon": 2.009722216666667
        },
        {
            "name": "ALARO",
            "lat": 47.496422216666666,
            "lon": 4.748972216666667
        },
        {
            "name": "AMB",
            "lat": 47.428916666666666,
            "lon": 1.0644444333333334
        },
        {
            "name": "ARDOL",
            "lat": 46.751388883333334,
            "lon": 4.6375
        },
        {
            "name": "ASVOK",
            "lat": 48.959305566666664,
            "lon": 1.4952222166666667
        },
        {
            "name": "ATREX",
            "lat": 49.785277783333335,
            "lon": 2.3686111166666666
        },
        {
            "name": "AVLON",
            "lat": 47.56,
            "lon": 3.8133333333333335
        },
        {
            "name": "BATAG",
            "lat": 48.822805566666666,
            "lon": 3.3722777833333333
        },
        {
            "name": "BAXIR",
            "lat": 48.79055556666667,
            "lon": 3.8699166666666667
        },
        {
            "name": "BENAR",
            "lat": 48.25305556666667,
            "lon": 0.7444444333333333
        },
        {
            "name": "BOBSA",
            "lat": 48.49583333333333,
            "lon": 0.6483333333333333
        },
        {
            "name": "BOV",
            "lat": 49.43636111666667,
            "lon": 2.1531944333333333
        },
        {
            "name": "BT",
            "lat": 48.974666666666664,
            "lon": 2.4551666666666665
        },
        {
            "name": "BUBLI",
            "lat": 48.77161111666667,
            "lon": 4.15
        },
        {
            "name": "CAD",
            "lat": 48.05916666666667,
            "lon": 1.3870833333333334
        },
        {
            "name": "CHABY",
            "lat": 47.79666666666667,
            "lon": 3.9486111166666666
        },
        {
            "name": "CI09",
            "lat": 48.769083333333334,
            "lon": 1.9424722166666668
        },
        {
            "name": "CI27",
            "lat": 48.77916666666667,
            "lon": 2.4607777833333335
        },
        {
            "name": "CTL",
            "lat": 49.13775,
            "lon": 3.5776944333333334
        },
        {
            "name": "D034G",
            "lat": 48.745305566666666,
            "lon": 2.0909972166666666
        },
        {
            "name": "D070L",
            "lat": 48.81819443333333,
            "lon": 2.38745
        },
        {
            "name": "D132K",
            "lat": 48.845019433333334,
            "lon": 2.6654999999999998
        },
        {
            "name": "D150L",
            "lat": 48.485655566666665,
            "lon": 2.1320138833333333
        },
        {
            "name": "D169N",
            "lat": 48.74995833333333,
            "lon": 2.515077783333333
        },
        {
            "name": "D187J",
            "lat": 48.457633333333334,
            "lon": 1.6192250000000001
        },
        {
            "name": "D201E",
            "lat": 48.64546943333333,
            "lon": 2.338161116666667
        },
        {
            "name": "D264K",
            "lat": 48.43933056666667,
            "lon": 2.5364916666666666
        },
        {
            "name": "D270J",
            "lat": 48.45829166666667,
            "lon": 2.575430566666667
        },
        {
            "name": "D270Z",
            "lat": 48.412747216666666,
            "lon": 2.6394027833333333
        },
        {
            "name": "D274L",
            "lat": 48.745705566666665,
            "lon": 1.5232444333333333
        },
        {
            "name": "D299L",
            "lat": 48.83316943333333,
            "lon": 2.118625
        },
        {
            "name": "D299P",
            "lat": 48.86308056666667,
            "lon": 2.0393805666666665
        },
        {
            "name": "D299Q",
            "lat": 48.88585833333333,
            "lon": 1.9788861166666667
        },
        {
            "name": "D299X",
            "lat": 48.92888333333333,
            "lon": 1.8641972166666667
        },
        {
            "name": "D310E",
            "lat": 48.805113883333334,
            "lon": 2.0127972166666668
        },
        {
            "name": "D310H",
            "lat": 48.83954443333333,
            "lon": 1.9526222166666667
        },
        {
            "name": "D310N",
            "lat": 48.90932778333333,
            "lon": 1.8302416666666668
        },
        {
            "name": "D310T",
            "lat": 48.97119721666667,
            "lon": 1.7212611166666667
        },
        {
            "name": "D316E",
            "lat": 48.787936116666664,
            "lon": 2.308169433333333
        },
        {
            "name": "D343F",
            "lat": 48.750627783333336,
            "lon": 1.9522916666666668
        },
        {
            "name": "D349A",
            "lat": 48.77185278333333,
            "lon": 2.0975222166666665
        },
        {
            "name": "DIBES",
            "lat": 47.5075,
            "lon": 1.1047222166666666
        },
        {
            "name": "DIKOL",
            "lat": 49.1375,
            "lon": 4.049166666666666
        },
        {
            "name": "DJL",
            "lat": 47.27077778333334,
            "lon": 5.097333333333333
        },
        {
            "name": "DORDI",
            "lat": 48.22,
            "lon": 2.791944433333333
        },
        {
            "name": "EBOMA",
            "lat": 48.20213888333333,
            "lon": 3.2061111166666665
        },
        {
            "name": "EDOXA",
            "lat": 48.29083333333333,
            "lon": 2.209444433333333
        },
        {
            "name": "EGOZE",
            "lat": 49.55263888333333,
            "lon": 2.4894722166666665
        },
        {
            "name": "EPL",
            "lat": 48.31783333333333,
            "lon": 6.0594166666666665
        },
        {
            "name": "EPR",
            "lat": 48.62569443333334,
            "lon": 1.6565555666666667
        },
        {
            "name": "EPR41",
            "lat": 49.305852783333336,
            "lon": 1.7475555666666667
        },
        {
            "name": "ERIXU",
            "lat": 48.083333333333336,
            "lon": 2.259722216666667
        },
        {
            "name": "EVX",
            "lat": 49.031694433333335,
            "lon": 1.2208611166666667
        },
        {
            "name": "FF305",
            "lat": 47.40416666666667,
            "lon": 4.601944433333333
        },
        {
            "name": "FF306",
            "lat": 47.45944443333333,
            "lon": 4.174166666666666
        },
        {
            "name": "FF307",
            "lat": 47.373888883333336,
            "lon": 3.924722216666667
        },
        {
            "name": "FI09",
            "lat": 48.77036111666666,
            "lon": 2.0023055666666667
        },
        {
            "name": "FI27",
            "lat": 48.778138883333334,
            "lon": 2.4017222166666667
        },
        {
            "name": "FPV09",
            "lat": 48.770305566666664,
            "lon": 2.002138883333333
        },
        {
            "name": "FPV27",
            "lat": 48.778083333333335,
            "lon": 2.4017222166666667
        },
        {
            "name": "GIMER",
            "lat": 49.3655,
            "lon": 3.9738333333333333
        },
        {
            "name": "GITAN",
            "lat": 49.376944433333335,
            "lon": 4.034722216666666
        },
        {
            "name": "GORET",
            "lat": 47.95222221666667,
            "lon": 4.031388883333333
        },
        {
            "name": "HOLNB",
            "lat": 48.730583333333335,
            "lon": 1.8205
        },
        {
            "name": "INPER",
            "lat": 48.39361111666667,
            "lon": 1.7263888833333334
        },
        {
            "name": "IPV09",
            "lat": 48.76869443333333,
            "lon": 1.9266111166666666
        },
        {
            "name": "IPV27",
            "lat": 48.77938888333333,
            "lon": 2.4772777833333333
        },
        {
            "name": "KUTAN",
            "lat": 47.8075,
            "lon": 4.256388883333333
        },
        {
            "name": "LALUX",
            "lat": 48.28638888333333,
            "lon": 2.4088888833333333
        },
        {
            "name": "LARPO",
            "lat": 49.108277783333335,
            "lon": 2.5896111166666667
        },
        {
            "name": "LATRA",
            "lat": 48.083333333333336,
            "lon": 2.5166666666666666
        },
        {
            "name": "LGL",
            "lat": 48.79061111666667,
            "lon": 0.5302777833333333
        },
        {
            "name": "LUMAN",
            "lat": 47.939444433333335,
            "lon": 0.41333333333333333
        },
        {
            "name": "LUVAL",
            "lat": 48.29388888333333,
            "lon": 5.153611116666666
        },
        {
            "name": "MATIX",
            "lat": 50.098333333333336,
            "lon": 3.9141666666666666
        },
        {
            "name": "MLN",
            "lat": 48.45577778333333,
            "lon": 2.8132777833333336
        },
        {
            "name": "MOLBA",
            "lat": 48.29502778333333,
            "lon": 3.0629444333333335
        },
        {
            "name": "MONOT",
            "lat": 48.083333333333336,
            "lon": 2.4572222166666666
        },
        {
            "name": "MOPIL",
            "lat": 50.14777778333333,
            "lon": 4.107777783333334
        },
        {
            "name": "MOU",
            "lat": 46.70677778333334,
            "lon": 3.631666666666667
        },
        {
            "name": "NIMER",
            "lat": 47.4725,
            "lon": 0.3569444333333333
        },
        {
            "name": "NURMO",
            "lat": 49.82611111666667,
            "lon": 2.7552777833333333
        },
        {
            "name": "OBAMO",
            "lat": 48.460472216666666,
            "lon": 2.4879444333333334
        },
        {
            "name": "OBURO",
            "lat": 47.651666666666664,
            "lon": 4.264722216666667
        },
        {
            "name": "ODEBU",
            "lat": 48.281111116666665,
            "lon": 2.626111116666667
        },
        {
            "name": "ODILO",
            "lat": 48.24175,
            "lon": 1.5716388833333332
        },
        {
            "name": "OKASI",
            "lat": 48.083333333333336,
            "lon": 2.7777777833333333
        },
        {
            "name": "OKRIX",
            "lat": 47.96611111666667,
            "lon": 3.5675
        },
        {
            "name": "OPALE",
            "lat": 49.89975,
            "lon": 1.8850833333333332
        },
        {
            "name": "OSPIS",
            "lat": 48.40983333333333,
            "lon": 2.884916666666667
        },
        {
            "name": "PB096",
            "lat": 49.137,
            "lon": 2.9378055666666665
        },
        {
            "name": "PEKIM",
            "lat": 48.27583333333333,
            "lon": 2.825555566666667
        },
        {
            "name": "PIBAT",
            "lat": 46.80594443333333,
            "lon": 4.259138883333334
        },
        {
            "name": "PILUL",
            "lat": 48.083333333333336,
            "lon": 3.0480555666666667
        },
        {
            "name": "PN072",
            "lat": 48.82222221666667,
            "lon": 2.5169444333333333
        },
        {
            "name": "PN290",
            "lat": 48.481194433333336,
            "lon": 2.1742222166666667
        },
        {
            "name": "PN615",
            "lat": 48.458027783333335,
            "lon": 1.6193333333333333
        },
        {
            "name": "PN617",
            "lat": 48.42941666666667,
            "lon": 2.5856666666666666
        },
        {
            "name": "PN618",
            "lat": 48.514555566666665,
            "lon": 2.5734444333333335
        },
        {
            "name": "PN619",
            "lat": 48.753083333333336,
            "lon": 2.5391111166666667
        },
        {
            "name": "PN620",
            "lat": 48.81902778333333,
            "lon": 2.388194433333333
        },
        {
            "name": "PN621",
            "lat": 48.410833333333336,
            "lon": 2.6397222166666667
        },
        {
            "name": "PO084",
            "lat": 48.77605556666666,
            "lon": 2.9774722166666665
        },
        {
            "name": "PO088",
            "lat": 48.748388883333334,
            "lon": 2.0132222166666667
        },
        {
            "name": "PO090",
            "lat": 49.13672221666667,
            "lon": 2.0917777833333333
        },
        {
            "name": "PO092",
            "lat": 48.83272221666667,
            "lon": 1.77975
        },
        {
            "name": "PO183",
            "lat": 48.64008333333334,
            "lon": 2.31
        },
        {
            "name": "PO262",
            "lat": 49.23338888333333,
            "lon": 2.0265277833333335
        },
        {
            "name": "PO271",
            "lat": 48.4815,
            "lon": 2.0086666666666666
        },
        {
            "name": "PO302",
            "lat": 48.52402778333333,
            "lon": 2.8505000000000003
        },
        {
            "name": "PO304",
            "lat": 48.650416666666665,
            "lon": 3.0689166666666665
        },
        {
            "name": "PO306",
            "lat": 48.871,
            "lon": 3.152833333333333
        },
        {
            "name": "PO617",
            "lat": 49.089694433333335,
            "lon": 1.7097222166666666
        },
        {
            "name": "PON",
            "lat": 49.09608333333333,
            "lon": 2.0358888833333335
        },
        {
            "name": "POY30",
            "lat": 48.98145278333333,
            "lon": 1.7234083333333334
        },
        {
            "name": "POYNB",
            "lat": 48.73013888333333,
            "lon": 2.3897777833333333
        },
        {
            "name": "PV405",
            "lat": 48.77072221666667,
            "lon": 2.0211388833333332
        },
        {
            "name": "PV406",
            "lat": 48.873277783333336,
            "lon": 2.096416666666667
        },
        {
            "name": "RANUX",
            "lat": 49.13877778333333,
            "lon": 4.361527783333333
        },
        {
            "name": "RBT",
            "lat": 48.653944433333336,
            "lon": 1.9942222166666668
        },
        {
            "name": "RENSA",
            "lat": 49.533166666666666,
            "lon": 4.885527783333333
        },
        {
            "name": "RLP",
            "lat": 47.90630556666667,
            "lon": 5.2491666666666665
        },
        {
            "name": "RW27",
            "lat": 48.774605566666665,
            "lon": 2.2139333333333333
        },
        {
            "name": "SOMED",
            "lat": 47.435833333333335,
            "lon": 0.9419444333333333
        },
        {
            "name": "SOTIP",
            "lat": 48.13136111666667,
            "lon": 1.4598888833333334
        },
        {
            "name": "SOTUS",
            "lat": 49.38,
            "lon": 4.050277783333334
        },
        {
            "name": "TSU",
            "lat": 48.75372221666667,
            "lon": 2.1023611166666667
        },
        {
            "name": "TUNOR",
            "lat": 47.88333333333333,
            "lon": 4.141111116666667
        },
        {
            "name": "TUTAX",
            "lat": 46.921388883333336,
            "lon": 5.246944433333334
        },
        {
            "name": "VALPO",
            "lat": 48.83475,
            "lon": 3.1216111166666667
        },
        {
            "name": "VEBEK",
            "lat": 49.26861111666667,
            "lon": 3.683055566666667
        },
        {
            "name": "VVO",
            "lat": 48.77561111666667,
            "lon": 2.2098888833333334
        }
    ],
    "rnws": [
        "RNW 09",
        "RNW 27"
    ],
    "sids": [
        {
            "name": "AGOP9A",
            "rnw": "09",
            "fixes": {
                "D316E": "OVERFLY D316E TRK 130 INTERCEPT RADIAL 160 TO",
                "POYNB": "OVERFLY POYNB",
                "ABORO": "ABORO",
                "ADADA": "ADADA",
                "AGOPA": "AGOPA"
            },
            "sub_fixes": [],
            "transitions": []
        },
        {
            "name": "AGOP9B",
            "rnw": "09",
            "fixes": {
                "D316E": "OVERFLY D316E TRK 130 INTERCEPT RADIAL 160 TO",
                "POYNB": "OVERFLY POYNB",
                "ABORO": "ABORO",
                "ADADA": "ADADA",
                "AGOPA": "AGOPA"
            },
            "sub_fixes": [],
            "transitions": []
        },
        {
            "name": "AGOP9P",
            "rnw": "27",
            "fixes": {
                "D349A": "D349A",
                "HOLNB": "OVERFLY HOLNB TURN LEFT DIRECT",
                "PO271": "PO271",
                "ADADA": "ADADA",
                "AGOPA": "AGOPA"
            },
            "sub_fixes": [],
            "transitions": []
        },
        {
            "name": "AGOP9V",
            "rnw": "27",
            "fixes": {
                "D349A": "D349A",
                "HOLNB": "OVERFLY HOLNB TURN LEFT DIRECT",
                "PO271": "PO271",
                "ADADA": "ADADA",
                "AGOPA": "AGOPA"
            },
            "sub_fixes": [],
            "transitions": []
        },
        {
            "name": "ATRE9A",
            "rnw": "09",
            "fixes": {
                "D316E": "OVERFLY D316E TRK 130 INTERCEPT RADIAL 160 TO",
                "POYNB": "OVERFLY POYNB",
                "PO183": "PO183",
                "PO088": "PO088",
                "PO090": "PO090",
                "EGOZE": "EGOZE",
                "ATREX": "ATREX"
            },
            "sub_fixes": [],
            "transitions": []
        },
        {
            "name": "ATRE9B",
            "rnw": "09",
            "fixes": {
                "D316E": "OVERFLY D316E TRK 130 INTERCEPT RADIAL 160 TO",
                "POYNB": "OVERFLY POYNB",
                "PO183": "PO183",
                "PO092": "PO092",
                "PO262": "PO262",
                "BOV": "BOV",
                "ATREX": "ATREX"
            },
            "sub_fixes": [],
            "transitions": []
        },
        {
            "name": "ATRE9P",
            "rnw": "27",
            "fixes": {
                "D349A": "D349A",
                "HOLNB": "OVERFLY HOLNB TURN RIGHT DIRECT",
                "PO262": "PO262",
                "BOV": "BOV",
                "ATREX": "ATREX"
            },
            "sub_fixes": [],
            "transitions": []
        },
        {
            "name": "ATRE9V",
            "rnw": "27",
            "fixes": {
                "D349A": "D349A",
                "D343F": "OVERFLY D343F TURN LEFT DIRECT",
                "RBT": "OVERFLY RBT SPEED 180",
                "PN290": "PN290",
                "PO302": "PO302",
                "PO304": "PO304",
                "PO306": "PO306",
                "PB096": "PB096",
                "ATREX": "ATREX"
            },
            "sub_fixes": [],
            "transitions": []
        },
        {
            "name": "BAXI9A",
            "rnw": "09",
            "fixes": {
                "PN072": "OVERFLY PN072",
                "PO084": "PO084",
                "BATAG": "BATAG",
                "BAXIR": "BAXIR"
            },
            "sub_fixes": [],
            "transitions": []
        },
        {
            "name": "BAXI9B",
            "rnw": "09",
            "fixes": {
                "PN072": "OVERFLY PN072",
                "PO084": "PO084",
                "BATAG": "BATAG",
                "BAXIR": "BAXIR"
            },
            "sub_fixes": [],
            "transitions": []
        },
        {
            "name": "BAXI9P",
            "rnw": "27",
            "fixes": {
                "D349A": "D349A",
                "D343F": "OVERFLY D343F TURN LEFT DIRECT",
                "RBT": "OVERFLY RBT SPEED 180",
                "PN290": "PN290",
                "PO302": "PO302",
                "BATAG": "BATAG",
                "BAXIR": "BAXIR"
            },
            "sub_fixes": [],
            "transitions": []
        },
        {
            "name": "BAXI9V",
            "rnw": "27",
            "fixes": {
                "D349A": "D349A",
                "D343F": "OVERFLY D343F TURN LEFT DIRECT",
                "RBT": "OVERFLY RBT SPEED 180",
                "PN290": "PN290",
                "PO302": "PO302",
                "BATAG": "BATAG",
                "BAXIR": "BAXIR"
            },
            "sub_fixes": [],
            "transitions": []
        },
        {
            "name": "BUBL9A",
            "rnw": "09",
            "fixes": {
                "PN072": "OVERFLY PN072",
                "PO084": "PO084",
                "BATAG": "BATAG",
                "BUBLI": "BUBLI"
            },
            "sub_fixes": [],
            "transitions": []
        },
        {
            "name": "BUBL9B",
            "rnw": "09",
            "fixes": {
                "PN072": "OVERFLY PN072",
                "PO084": "PO084",
                "BATAG": "BATAG",
                "BUBLI": "BUBLI"
            },
            "sub_fixes": [],
            "transitions": []
        },
        {
            "name": "BUBL9P",
            "rnw": "27",
            "fixes": {
                "D349A": "D349A",
                "D343F": "OVERFLY D343F TURN LEFT DIRECT",
                "RBT": "OVERFLY RBT SPEED 180",
                "PN290": "PN290",
                "PO302": "PO302",
                "BATAG": "BATAG",
                "BUBLI": "BUBLI"
            },
            "sub_fixes": [],
            "transitions": []
        },
        {
            "name": "BUBL9V",
            "rnw": "27",
            "fixes": {
                "D349A": "D349A",
                "D343F": "OVERFLY D343F TURN LEFT DIRECT",
                "RBT": "OVERFLY RBT SPEED 180",
                "PN290": "PN290",
                "PO302": "PO302",
                "BATAG": "BATAG",
                "BUBLI": "BUBLI"
            },
            "sub_fixes": [],
            "transitions": []
        },
        {
            "name": "DIKO9A",
            "rnw": "09",
            "fixes": {
                "PN072": "OVERFLY PN072",
                "PO084": "PO084",
                "BATAG": "BATAG",
                "DIKOL": "DIKOL"
            },
            "sub_fixes": [],
            "transitions": []
        },
        {
            "name": "DIKO9B",
            "rnw": "09",
            "fixes": {
                "PN072": "OVERFLY PN072",
                "PO084": "PO084",
                "BATAG": "BATAG",
                "DIKOL": "DIKOL"
            },
            "sub_fixes": [],
            "transitions": []
        },
        {
            "name": "DIKO9P",
            "rnw": "27",
            "fixes": {
                "D349A": "D349A",
                "D343F": "OVERFLY D343F TURN LEFT DIRECT",
                "RBT": "OVERFLY RBT SPEED 180",
                "PN290": "PN290",
                "PO302": "PO302",
                "BATAG": "BATAG",
                "DIKOL": "DIKOL"
            },
            "sub_fixes": [],
            "transitions": []
        },
        {
            "name": "DIKO9V",
            "rnw": "27",
            "fixes": {
                "D349A": "D349A",
                "D343F": "OVERFLY D343F TURN LEFT DIRECT",
                "RBT": "OVERFLY RBT SPEED 180",
                "PN290": "PN290",
                "PO302": "PO302",
                "BATAG": "BATAG",
                "DIKOL": "DIKOL"
            },
            "sub_fixes": [],
            "transitions": []
        },
        {
            "name": "DORD9A",
            "rnw": "09",
            "fixes": {
                "PN072": "OVERFLY PN072 TRK 100 INTERCEPT RADIAL 355 FROM",
                "MLN": "MLN",
                "DORDI": "DORDI"
            },
            "sub_fixes": [],
            "transitions": []
        },
        {
            "name": "DORD9B",
            "rnw": "09",
            "fixes": {
                "PN072": "OVERFLY PN072 TRK 100 INTERCEPT RADIAL 355 FROM",
                "MLN": "MLN",
                "DORDI": "DORDI"
            },
            "sub_fixes": [],
            "transitions": []
        },
        {
            "name": "DORD9P",
            "rnw": "27",
            "fixes": {
                "D349A": "D349A",
                "D343F": "OVERFLY D343F SPEED 180 TURN LEFT DIRECT",
                "RBT": "RBT",
                "D150L": "OVERFLY D150L",
                "D270J": "OVERFLY D270J",
                "DORDI": "DORDI"
            },
            "sub_fixes": [],
            "transitions": []
        },
        {
            "name": "DORD9V",
            "rnw": "27",
            "fixes": {
                "D349A": "D349A",
                "D343F": "OVERFLY D343F SPEED 180 TURN LEFT DIRECT",
                "RBT": "RBT",
                "D150L": "OVERFLY D150L",
                "D270J": "OVERFLY D270J",
                "DORDI": "DORDI"
            },
            "sub_fixes": [],
            "transitions": []
        },
        {
            "name": "ERIX9A",
            "rnw": "09",
            "fixes": {
                "D316E": "OVERFLY D316E TRK 130 INTERCEPT RADIAL 160 TO",
                "POYNB": "OVERFLY POYNB",
                "ABORO": "ABORO",
                "EDOXA": "EDOXA",
                "ERIXU": "ERIXU"
            },
            "sub_fixes": [],
            "transitions": []
        },
        {
            "name": "ERIX9B",
            "rnw": "09",
            "fixes": {
                "D316E": "OVERFLY D316E TRK 130 INTERCEPT RADIAL 160 TO",
                "POYNB": "OVERFLY POYNB",
                "ABORO": "ABORO",
                "EDOXA": "EDOXA",
                "ERIXU": "ERIXU"
            },
            "sub_fixes": [],
            "transitions": []
        },
        {
            "name": "ERIX9P",
            "rnw": "27",
            "fixes": {
                "D349A": "D349A",
                "HOLNB": "OVERFLY HOLNB TURN LEFT DIRECT",
                "PO271": "PO271",
                "EDOXA": "EDOXA",
                "ERIXU": "ERIXU"
            },
            "sub_fixes": [],
            "transitions": []
        },
        {
            "name": "ERIX9V",
            "rnw": "27",
            "fixes": {
                "D349A": "D349A",
                "HOLNB": "OVERFLY HOLNB TURN LEFT DIRECT",
                "PO271": "PO271",
                "EDOXA": "EDOXA",
                "ERIXU": "ERIXU"
            },
            "sub_fixes": [],
            "transitions": []
        },
        {
            "name": "EVX9A",
            "rnw": "09",
            "fixes": {
                "D316E": "OVERFLY D316E TRK 130 INTERCEPT RADIAL 160 TO",
                "POYNB": "OVERFLY POYNB",
                "D201E": "OVERFLY D201E",
                "RBT": "RBT",
                "EVX": "EVX"
            },
            "sub_fixes": [],
            "transitions": []
        },
        {
            "name": "EVX9B",
            "rnw": "09",
            "fixes": {
                "D316E": "OVERFLY D316E TRK 130 INTERCEPT RADIAL 160 TO",
                "POYNB": "OVERFLY POYNB",
                "D201E": "OVERFLY D201E",
                "RBT": "RBT",
                "EVX": "EVX"
            },
            "sub_fixes": [],
            "transitions": []
        },
        {
            "name": "EVX9P",
            "rnw": "27",
            "fixes": {
                "D349A": "D349A",
                "HOLNB": "HOLNB",
                "D274L": "OVERFLY D274L",
                "EVX": "EVX"
            },
            "sub_fixes": [],
            "transitions": []
        },
        {
            "name": "EVX9V",
            "rnw": "27",
            "fixes": {
                "D349A": "D349A",
                "HOLNB": "HOLNB",
                "D274L": "OVERFLY D274L",
                "EVX": "EVX"
            },
            "sub_fixes": [],
            "transitions": []
        },
        {
            "name": "LATR9A",
            "rnw": "09",
            "fixes": {
                "D316E": "OVERFLY D316E TRK 130 INTERCEPT RADIAL 160 TO",
                "POYNB": "OVERFLY POYNB",
                "OBAMO": "OBAMO",
                "LALUX": "LALUX",
                "LATRA": "LATRA"
            },
            "sub_fixes": [],
            "transitions": []
        },
        {
            "name": "LATR9B",
            "rnw": "09",
            "fixes": {
                "D316E": "OVERFLY D316E TRK 130 INTERCEPT RADIAL 160 TO",
                "POYNB": "OVERFLY POYNB",
                "OBAMO": "OBAMO",
                "LALUX": "LALUX",
                "LATRA": "LATRA"
            },
            "sub_fixes": [],
            "transitions": []
        },
        {
            "name": "LATR9P",
            "rnw": "27",
            "fixes": {
                "D349A": "D349A",
                "D343F": "OVERFLY D343F TURN LEFT DIRECT",
                "RBT": "OVERFLY RBT SPEED 180",
                "PN290": "PN290",
                "LALUX": "LALUX",
                "LATRA": "LATRA"
            },
            "sub_fixes": [],
            "transitions": []
        },
        {
            "name": "LATR9V",
            "rnw": "27",
            "fixes": {
                "D349A": "D349A",
                "D343F": "OVERFLY D343F TURN LEFT DIRECT",
                "RBT": "OVERFLY RBT SPEED 180",
                "PN290": "PN290",
                "LALUX": "LALUX",
                "LATRA": "LATRA"
            },
            "sub_fixes": [],
            "transitions": []
        },
        {
            "name": "LGL9A",
            "rnw": "09",
            "fixes": {
                "D316E": "OVERFLY D316E TRK 130 INTERCEPT RADIAL 160 TO",
                "POYNB": "OVERFLY POYNB",
                "D201E": "OVERFLY D201E",
                "RBT": "RBT",
                "LGL": "LGL"
            },
            "sub_fixes": [],
            "transitions": []
        },
        {
            "name": "LGL9B",
            "rnw": "09",
            "fixes": {
                "D316E": "OVERFLY D316E TRK 130 INTERCEPT RADIAL 160 TO",
                "POYNB": "OVERFLY POYNB",
                "D201E": "OVERFLY D201E",
                "RBT": "RBT",
                "LGL": "LGL"
            },
            "sub_fixes": [],
            "transitions": []
        },
        {
            "name": "LGL9P",
            "rnw": "27",
            "fixes": {
                "D349A": "D349A",
                "HOLNB": "HOLNB",
                "LGL": "LGL"
            },
            "sub_fixes": [],
            "transitions": []
        },
        {
            "name": "LGL9V",
            "rnw": "27",
            "fixes": {
                "D349A": "D349A",
                "HOLNB": "HOLNB",
                "LGL": "LGL"
            },
            "sub_fixes": [],
            "transitions": []
        },
        {
            "name": "MONO9A",
            "rnw": "09",
            "fixes": {
                "D316E": "OVERFLY D316E TRK 130 INTERCEPT RADIAL 160 TO",
                "POYNB": "OVERFLY POYNB",
                "MONOT": "MONOT"
            },
            "sub_fixes": [],
            "transitions": []
        },
        {
            "name": "MONO9B",
            "rnw": "09",
            "fixes": {
                "D316E": "OVERFLY D316E TRK 130 INTERCEPT RADIAL 160 TO",
                "POYNB": "OVERFLY POYNB",
                "MONOT": "MONOT"
            },
            "sub_fixes": [],
            "transitions": []
        },
        {
            "name": "MONO9P",
            "rnw": "27",
            "fixes": {
                "D349A": "D349A",
                "D343F": "OVERFLY D343F SPEED 180 TURN LEFT DIRECT",
                "RBT": "RBT",
                "MONOT": "MONOT"
            },
            "sub_fixes": [],
            "transitions": []
        },
        {
            "name": "MONO9V",
            "rnw": "27",
            "fixes": {
                "D349A": "D349A",
                "D343F": "OVERFLY D343F SPEED 180 TURN LEFT DIRECT",
                "RBT": "RBT",
                "MONOT": "MONOT"
            },
            "sub_fixes": [],
            "transitions": []
        },
        {
            "name": "NURM9A",
            "rnw": "09",
            "fixes": {
                "D316E": "OVERFLY D316E TRK 130 INTERCEPT RADIAL 160 TO",
                "POYNB": "OVERFLY POYNB",
                "PO183": "PO183",
                "PO088": "PO088",
                "PO090": "PO090",
                "EGOZE": "EGOZE",
                "NURMO": "NURMO"
            },
            "sub_fixes": [],
            "transitions": []
        },
        {
            "name": "NURM9B",
            "rnw": "09",
            "fixes": {
                "D316E": "OVERFLY D316E TRK 130 INTERCEPT RADIAL 160 TO",
                "POYNB": "OVERFLY POYNB",
                "PO183": "PO183",
                "PO092": "PO092",
                "PO262": "PO262",
                "EGOZE": "EGOZE",
                "NURMO": "NURMO"
            },
            "sub_fixes": [],
            "transitions": []
        },
        {
            "name": "NURM9P",
            "rnw": "27",
            "fixes": {
                "D349A": "D349A",
                "HOLNB": "OVERFLY HOLNB TURN RIGHT DIRECT",
                "PO262": "PO262",
                "EGOZE": "EGOZE",
                "NURMO": "NURMO"
            },
            "sub_fixes": [],
            "transitions": []
        },
        {
            "name": "NURM9V",
            "rnw": "27",
            "fixes": {
                "D349A": "D349A",
                "D343F": "OVERFLY D343F TURN LEFT DIRECT",
                "RBT": "OVERFLY RBT SPEED 180",
                "PN290": "PN290",
                "PO302": "PO302",
                "PO304": "PO304",
                "PO306": "PO306",
                "PB096": "PB096",
                "NURMO": "NURMO"
            },
            "sub_fixes": [],
            "transitions": []
        },
        {
            "name": "OB9A",
            "rnw": "09",
            "fixes": {
                "POY30": "OVERFLY POY30",
                "EPR41": "OVERFLY EPR41",
                "BOV": "BOV"
            },
            "sub_fixes": [],
            "transitions": []
        },
        {
            "name": "OB9B",
            "rnw": "09",
            "fixes": {
                "POY30": "OVERFLY POY30",
                "EPR41": "OVERFLY EPR41",
                "BOV": "BOV"
            },
            "sub_fixes": [],
            "transitions": []
        },
        {
            "name": "OB9P",
            "rnw": "27",
            "fixes": {
                "D349A": "OVERFLY D349A",
                "D310T": "OVERFLY D310T",
                "EPR41": "OVERFLY EPR41",
                "BOV": "BOV"
            },
            "sub_fixes": [],
            "transitions": []
        },
        {
            "name": "OB9V",
            "rnw": "27",
            "fixes": {
                "D349A": "OVERFLY D349A",
                "D310T": "OVERFLY D310T",
                "EPR41": "OVERFLY EPR41",
                "BOV": "BOV"
            },
            "sub_fixes": [],
            "transitions": []
        },
        {
            "name": "OKAS9A",
            "rnw": "09",
            "fixes": {
                "D316E": "OVERFLY D316E TRK 130 INTERCEPT RADIAL 160 TO",
                "POYNB": "OVERFLY POYNB",
                "OBAMO": "OBAMO",
                "ODEBU": "ODEBU",
                "OKASI": "OKASI"
            },
            "sub_fixes": [],
            "transitions": []
        },
        {
            "name": "OKAS9B",
            "rnw": "09",
            "fixes": {
                "D316E": "OVERFLY D316E TRK 130 INTERCEPT RADIAL 160 TO",
                "POYNB": "OVERFLY POYNB",
                "OBAMO": "OBAMO",
                "ODEBU": "ODEBU",
                "OKASI": "OKASI"
            },
            "sub_fixes": [],
            "transitions": []
        },
        {
            "name": "OKAS9P",
            "rnw": "27",
            "fixes": {
                "D349A": "D349A",
                "D343F": "OVERFLY D343F TURN LEFT DIRECT",
                "RBT": "OVERFLY RBT SPEED 180",
                "PN290": "PN290",
                "ODEBU": "ODEBU",
                "OKASI": "OKASI"
            },
            "sub_fixes": [],
            "transitions": []
        },
        {
            "name": "OKAS9V",
            "rnw": "27",
            "fixes": {
                "D349A": "D349A",
                "D343F": "OVERFLY D343F TURN LEFT DIRECT",
                "RBT": "OVERFLY RBT SPEED 180",
                "PN290": "PN290",
                "ODEBU": "ODEBU",
                "OKASI": "OKASI"
            },
            "sub_fixes": [],
            "transitions": []
        },
        {
            "name": "OPAL9A",
            "rnw": "09",
            "fixes": {
                "D316E": "OVERFLY D316E TRK 130 INTERCEPT RADIAL 160 TO",
                "POYNB": "OVERFLY POYNB",
                "PO183": "PO183",
                "PO088": "PO088",
                "PO090": "PO090",
                "BOV": "BOV",
                "OPALE": "OPALE"
            },
            "sub_fixes": [],
            "transitions": []
        },
        {
            "name": "OPAL9B",
            "rnw": "09",
            "fixes": {
                "D316E": "OVERFLY D316E TRK 130 INTERCEPT RADIAL 160 TO",
                "POYNB": "OVERFLY POYNB",
                "PO183": "PO183",
                "PO092": "PO092",
                "PO262": "PO262",
                "BOV": "BOV",
                "OPALE": "OPALE"
            },
            "sub_fixes": [],
            "transitions": []
        },
        {
            "name": "OPAL9P",
            "rnw": "27",
            "fixes": {
                "D349A": "D349A",
                "HOLNB": "OVERFLY HOLNB TURN RIGHT DIRECT",
                "PO262": "PO262",
                "BOV": "BOV",
                "OPALE": "OPALE"
            },
            "sub_fixes": [],
            "transitions": []
        },
        {
            "name": "OPAL9V",
            "rnw": "27",
            "fixes": {
                "D349A": "D349A",
                "D343F": "OVERFLY D343F TURN LEFT DIRECT",
                "RBT": "OVERFLY RBT SPEED 180",
                "PN290": "PN290",
                "PO302": "PO302",
                "PO304": "PO304",
                "PO306": "PO306",
                "PB096": "PB096",
                "OPALE": "OPALE"
            },
            "sub_fixes": [],
            "transitions": []
        },
        {
            "name": "PB9A",
            "rnw": "09",
            "fixes": {
                "D299L": "OVERFLY D299L TRK 022 INTERCEPT RADIAL 067 FROM",
                "D299P": "D299P TRK 067 VECTORS"
            },
            "sub_fixes": [],
            "transitions": []
        },
        {
            "name": "PB9B",
            "rnw": "09",
            "fixes": {
                "D132K": "D132K HDG 075 VECTORS"
            },
            "sub_fixes": [],
            "transitions": []
        },
        {
            "name": "PB9P",
            "rnw": "27",
            "fixes": {
                "D349A": "OVERFLY D349A",
                "HOLNB": "OVERFLY HOLNB TURN RIGHT DIRECT",
                "TSU": "TSU TRK 073 INTERCEPT RADIAL 137 FROM",
                "BT": "BT HDG 073 VECTORS"
            },
            "sub_fixes": [],
            "transitions": []
        },
        {
            "name": "PB9V",
            "rnw": "27",
            "fixes": {
                "D349A": "OVERFLY D349A",
                "D310E": "OVERFLY D310E TRK 022 INTERCEPT RADIAL 067 FROM",
                "D310H": "D310H TRK 067 VECTORS"
            },
            "sub_fixes": [],
            "transitions": []
        },
        {
            "name": "PILU9A",
            "rnw": "09",
            "fixes": {
                "D316E": "OVERFLY D316E TRK 130 INTERCEPT RADIAL 160 TO",
                "POYNB": "OVERFLY POYNB",
                "OBAMO": "OBAMO",
                "PEKIM": "PEKIM",
                "PILUL": "PILUL"
            },
            "sub_fixes": [],
            "transitions": []
        },
        {
            "name": "PILU9B",
            "rnw": "09",
            "fixes": {
                "D316E": "OVERFLY D316E TRK 130 INTERCEPT RADIAL 160 TO",
                "POYNB": "OVERFLY POYNB",
                "OBAMO": "OBAMO",
                "PEKIM": "PEKIM",
                "PILUL": "PILUL"
            },
            "sub_fixes": [],
            "transitions": []
        },
        {
            "name": "PILU9P",
            "rnw": "27",
            "fixes": {
                "D349A": "D349A",
                "D343F": "OVERFLY D343F TURN LEFT DIRECT",
                "RBT": "OVERFLY RBT SPEED 180",
                "PN290": "PN290",
                "PEKIM": "PEKIM",
                "PILUL": "PILUL"
            },
            "sub_fixes": [],
            "transitions": []
        },
        {
            "name": "PILU9V",
            "rnw": "27",
            "fixes": {
                "D349A": "D349A",
                "D343F": "OVERFLY D343F TURN LEFT DIRECT",
                "RBT": "OVERFLY RBT SPEED 180",
                "PN290": "PN290",
                "PEKIM": "PEKIM",
                "PILUL": "PILUL"
            },
            "sub_fixes": [],
            "transitions": []
        },
        {
            "name": "PT9A",
            "rnw": "09",
            "fixes": {
                "D299X": "OVERFLY D299X TURN RIGHT DIRECT",
                "PON": "PON"
            },
            "sub_fixes": [],
            "transitions": []
        },
        {
            "name": "PT9B",
            "rnw": "09",
            "fixes": {
                "D299X": "OVERFLY D299X TURN RIGHT DIRECT",
                "PON": "PON"
            },
            "sub_fixes": [],
            "transitions": []
        },
        {
            "name": "PT9P",
            "rnw": "27",
            "fixes": {
                "D349A": "OVERFLY D349A",
                "D310N": "OVERFLY D310N TURN RIGHT DIRECT",
                "PON": "PON"
            },
            "sub_fixes": [],
            "transitions": []
        },
        {
            "name": "PT9V",
            "rnw": "27",
            "fixes": {
                "D349A": "OVERFLY D349A",
                "D310N": "OVERFLY D310N TURN RIGHT DIRECT",
                "PON": "PON"
            },
            "sub_fixes": [],
            "transitions": []
        },
        {
            "name": "RANU9A",
            "rnw": "09",
            "fixes": {
                "PN072": "OVERFLY PN072",
                "PO084": "PO084",
                "BATAG": "BATAG",
                "RANUX": "RANUX"
            },
            "sub_fixes": [],
            "transitions": []
        },
        {
            "name": "RANU9B",
            "rnw": "09",
            "fixes": {
                "PN072": "OVERFLY PN072",
                "PO084": "PO084",
                "BATAG": "BATAG",
                "RANUX": "RANUX"
            },
            "sub_fixes": [],
            "transitions": []
        },
        {
            "name": "RANU9P",
            "rnw": "27",
            "fixes": {
                "D349A": "D349A",
                "D343F": "OVERFLY D343F TURN LEFT DIRECT",
                "RBT": "OVERFLY RBT SPEED 180",
                "PN290": "PN290",
                "PO302": "PO302",
                "BATAG": "BATAG",
                "RANUX": "RANUX"
            },
            "sub_fixes": [],
            "transitions": []
        },
        {
            "name": "RANU9V",
            "rnw": "27",
            "fixes": {
                "D349A": "D349A",
                "D343F": "OVERFLY D343F TURN LEFT DIRECT",
                "RBT": "OVERFLY RBT SPEED 180",
                "PN290": "PN290",
                "PO302": "PO302",
                "BATAG": "BATAG",
                "RANUX": "RANUX"
            },
            "sub_fixes": [],
            "transitions": []
        }
    ],
    "stars": [
        {
            "name": "AMB9T",
            "runway": "RNW 09 RNW 27",
            "fixes": {
                "AMB": "AMB AT OR BELOW 20000 SPEED 280",
                "CAD": "CAD",
                "SOTIP": "SOTIP AT OR BELOW 9000 SPEED 250",
                "ODILO": "ODILO 7000"
            }
        },
        {
            "name": "ARDO9T",
            "runway": "RNW 09 RNW 27",
            "fixes": {
                "ARDOL": "ARDOL",
                "FF306": "FF306 AT OR BELOW 28000",
                "CHABY": "CHABY",
                "OKRIX": "OKRIX AT OR BELOW 14000 SPEED 280",
                "EBOMA": "EBOMA AT OR BELOW 9000 SPEED 250",
                "MOLBA": "MOLBA 7000"
            }
        },
        {
            "name": "BOBS9T",
            "runway": "RNW 09 RNW 27",
            "fixes": {
                "BOBSA": "BOBSA",
                "BENAR": "BENAR 13000 SPEED 280",
                "CAD": "CAD",
                "SOTIP": "SOTIP AT OR BELOW 9000 SPEED 250",
                "ODILO": "ODILO 7000"
            }
        },
        {
            "name": "CAD9C",
            "runway": "RNW 09 RNW 27",
            "fixes": {
                "CAD": "CAD",
                "SOTIP": "SOTIP",
                "ODILO": "ODILO 7000 SPEED 250"
            }
        },
        {
            "name": "CAD9T",
            "runway": "RNW 09 RNW 27",
            "fixes": {
                "CAD": "CAD",
                "SOTIP": "SOTIP AT OR BELOW 9000 SPEED 250",
                "ODILO": "ODILO 7000"
            }
        },
        {
            "name": "DJL9T",
            "runway": "RNW 09 RNW 27",
            "fixes": {
                "DJL": "DJL",
                "ALARO": "ALARO AT OR BELOW 27000",
                "TUNOR": "TUNOR",
                "OKRIX": "OKRIX AT OR BELOW 14000 SPEED 280",
                "EBOMA": "EBOMA AT OR BELOW 9000 SPEED 250",
                "MOLBA": "MOLBA 7000"
            }
        },
        {
            "name": "EPL9T",
            "runway": "RNW 09 RNW 27",
            "fixes": {
                "EPL": "EPL",
                "LUVAL": "LUVAL",
                "OKRIX": "OKRIX AT OR BELOW 14000 SPEED 280",
                "EBOMA": "EBOMA AT OR BELOW 9000 SPEED 250",
                "MOLBA": "MOLBA 7000"
            }
        },
        {
            "name": "KUTA9T",
            "runway": "RNW 09 RNW 27",
            "fixes": {
                "KUTAN": "KUTAN",
                "GORET": "GORET",
                "OKRIX": "OKRIX AT OR BELOW 14000 SPEED 280",
                "EBOMA": "EBOMA AT OR BELOW 9000 SPEED 250",
                "MOLBA": "MOLBA 7000"
            }
        },
        {
            "name": "LUMA9T",
            "runway": "RNW 09 RNW 27",
            "fixes": {
                "LUMAN": "LUMAN SPEED 280",
                "CAD": "CAD",
                "SOTIP": "SOTIP AT OR BELOW 9000 SPEED 250",
                "ODILO": "ODILO 7000"
            }
        },
        {
            "name": "MATI9E",
            "runway": "RNW 09",
            "fixes": {
                "MATIX": "MATIX",
                "GITAN": "GITAN AT OR BELOW 14000 SPEED 300",
                "GIMER": "GIMER",
                "VEBEK": "VEBEK 11000 SPEED 300"
            }
        },
        {
            "name": "MATI9W",
            "runway": "RNW 27",
            "fixes": {
                "MATIX": "MATIX",
                "GITAN": "GITAN AT OR BELOW 14000 SPEED 280",
                "GIMER": "GIMER",
                "VEBEK": "VEBEK 11000 SPEED 250"
            }
        },
        {
            "name": "MOPI9E",
            "runway": "RNW 09",
            "fixes": {
                "MOPIL": "MOPIL AT OR BELOW 26000",
                "SOTUS": "SOTUS AT OR BELOW 14000 SPEED 300",
                "GIMER": "GIMER",
                "VEBEK": "VEBEK 11000 SPEED 300"
            }
        },
        {
            "name": "MOPI9W",
            "runway": "RNW 27",
            "fixes": {
                "MOPIL": "MOPIL AT OR BELOW 26000",
                "SOTUS": "SOTUS AT OR BELOW 14000 SPEED 280",
                "GIMER": "GIMER",
                "VEBEK": "VEBEK 11000 SPEED 250"
            }
        },
        {
            "name": "MOU9C",
            "runway": "RNW 09 RNW 27",
            "fixes": {
                "MOU": "MOU",
                "AVLON": "AVLON",
                "OKRIX": "OKRIX",
                "EBOMA": "EBOMA AT OR BELOW 9000 SPEED 250",
                "MOLBA": "MOLBA 7000"
            }
        },
        {
            "name": "MOU9T",
            "runway": "RNW 09 RNW 27",
            "fixes": {
                "MOU": "MOU",
                "AVLON": "AVLON",
                "OKRIX": "OKRIX AT OR BELOW 14000 SPEED 280",
                "EBOMA": "EBOMA AT OR BELOW 9000 SPEED 250",
                "MOLBA": "MOLBA 7000"
            }
        },
        {
            "name": "NIME9T",
            "runway": "RNW 09 RNW 27",
            "fixes": {
                "NIMER": "NIMER",
                "SOMED": "SOMED AT OR BELOW 20000 SPEED 280",
                "DIBES": "DIBES",
                "CAD": "CAD",
                "SOTIP": "SOTIP AT OR BELOW 9000 SPEED 250",
                "ODILO": "ODILO 7000"
            }
        },
        {
            "name": "PIBA9T",
            "runway": "RNW 09 RNW 27",
            "fixes": {
                "PIBAT": "PIBAT",
                "FF307": "FF307 AT OR BELOW 28000",
                "OKRIX": "OKRIX AT OR BELOW 14000 SPEED 280",
                "EBOMA": "EBOMA AT OR BELOW 9000 SPEED 250",
                "MOLBA": "MOLBA 7000"
            }
        },
        {
            "name": "RENS9E",
            "runway": "RNW 09",
            "fixes": {
                "RENSA": "RENSA",
                "SOTUS": "SOTUS AT OR BELOW 14000 SPEED 300",
                "GIMER": "GIMER",
                "VEBEK": "VEBEK 11000 SPEED 300"
            }
        },
        {
            "name": "RENS9W",
            "runway": "RNW 27",
            "fixes": {
                "RENSA": "RENSA",
                "SOTUS": "SOTUS AT OR BELOW 14000 SPEED 280",
                "GIMER": "GIMER",
                "VEBEK": "VEBEK 11000 SPEED 250"
            }
        },
        {
            "name": "RLP9T",
            "runway": "RNW 09 RNW 27",
            "fixes": {
                "RLP": "RLP",
                "OKRIX": "OKRIX AT OR BELOW 14000 SPEED 280",
                "EBOMA": "EBOMA AT OR BELOW 9000 SPEED 250",
                "MOLBA": "MOLBA 7000"
            }
        },
        {
            "name": "TUTA9T",
            "runway": "RNW 09 RNW 27",
            "fixes": {
                "TUTAX": "TUTAX",
                "FF305": "FF305 AT OR BELOW 27000",
                "OBURO": "OBURO",
                "OKRIX": "OKRIX AT OR BELOW 14000 SPEED 280",
                "EBOMA": "EBOMA AT OR BELOW 9000 SPEED 250",
                "MOLBA": "MOLBA 7000"
            }
        }
    ],
    "approaches": [
        {
            "name": "ILS09",
            "fixes": {
                "CI09": "CI09 3000",
                "FI09": "FI09 3000 RNW 09 TRK 087 UNTIL 1000 TURN LEFT HDG 269 INTERCEPT RADIAL 299 TO",
                "D299Q": "D299Q SPEED 160 D299Q TRK 286 VECTORS FAF FI09 MAP RNW 09"
            },
            "transitions": [
                {
                    "name": "MOL6C",
                    "fixes": {
                        "MOLBA": "MOLBA 7000 SPEED 250 TRK 313 UNTIL 5.0 FROM",
                        "MLN": "MLN",
                        "OSPIS": "OSPIS",
                        "D270Z": "D270Z TRK 270 VECTORS"
                    }
                },
                {
                    "name": "MOL6F",
                    "fixes": {
                        "MOLBA": "MOLBA 7000 SPEED 250",
                        "OSPIS": "OSPIS",
                        "PN621": "PN621 TRK 269 VECTORS"
                    }
                },
                {
                    "name": "ODI6C",
                    "fixes": {
                        "ODILO": "ODILO 7000 SPEED 250",
                        "D187J": "D187J TRK 007 VECTORS"
                    }
                },
                {
                    "name": "ODI6F",
                    "fixes": {
                        "ODILO": "ODILO 7000 SPEED 250",
                        "PN615": "PN615 TRK 007 VECTORS"
                    }
                },
                {
                    "name": "VEB6E",
                    "fixes": {
                        "VEBEK": "VEBEK 11000 SPEED 300",
                        "LARPO": "LARPO SPEED 250",
                        "PO617": "PO617",
                        "ASVOK": "ASVOK TRK 180 VECTORS"
                    }
                },
                {
                    "name": "VEB6Y",
                    "fixes": {
                        "VEBEK": "VEBEK 11000 SPEED 250",
                        "CTL": "CTL",
                        "VALPO": "VALPO",
                        "MLN": "MLN",
                        "PN621": "PN621 TRK 270 VECTORS"
                    }
                }
            ]
        },
        {
            "name": "ILS27",
            "fixes": {
                "CI27": "CI27 3000",
                "FI27": "FI27 3000 RNW 27 TRK 267 UNTIL 4.5 FROM",
                "VVO": "VVO",
                "HOLNB": "OVERFLY HOLNB 3000",
                "EPR": "EPR FAF FI27 MAP RNW 27"
            },
            "transitions": [
                {
                    "name": "MOL6D",
                    "fixes": {
                        "MOLBA": "MOLBA 7000 SPEED 250",
                        "MLN": "MLN TRK 289 UNTIL 8.6 FROM MLN",
                        "D169N": "OVERFLY D169N TRK 299 VECTORS"
                    }
                },
                {
                    "name": "MOL6X",
                    "fixes": {
                        "MOLBA": "MOLBA 7000 SPEED 250",
                        "MLN": "MLN",
                        "PN618": "PN618",
                        "PN619": "PN619 TRK 299 VECTORS"
                    }
                },
                {
                    "name": "ODI6D",
                    "fixes": {
                        "ODILO": "ODILO 7000 SPEED 250 TRK 033 UNTIL 20.1 FROM",
                        "RBT": "RBT",
                        "INPER": "INPER",
                        "D264K": "OVERFLY D264K TURN LEFT DIRECT",
                        "D169N": "OVERFLY D169N TRK 299 VECTORS"
                    }
                },
                {
                    "name": "ODI6M",
                    "fixes": {
                        "ODILO": "ODILO 7000 SPEED 250",
                        "INPER": "INPER",
                        "RBT": "RBT",
                        "D034G": "D034G",
                        "D070L": "D070L TRK 070 VECTORS"
                    }
                },
                {
                    "name": "ODI6N",
                    "fixes": {
                        "ODILO": "ODILO 7000 SPEED 250",
                        "INPER": "INPER",
                        "TSU": "TSU",
                        "PN620": "PN620 TRK 070 VECTORS"
                    }
                },
                {
                    "name": "ODI6X",
                    "fixes": {
                        "ODILO": "ODILO 7000 SPEED 250",
                        "INPER": "INPER",
                        "PN617": "PN617",
                        "PN619": "PN619 TRK 299 VECTORS"
                    }
                },
                {
                    "name": "VEB6W",
                    "fixes": {
                        "VEBEK": "VEBEK 11000 SPEED 250",
                        "CTL": "CTL",
                        "VALPO": "VALPO TRK 224 VECTORS"
                    }
                }
            ]
        },
        {
            "name": "RNAV09",
            "fixes": {
                "IPV09": "IPV09 AT OR ABOVE 3000",
                "FPV09": "FPV09 3000 RNW 09 TRK 087 UNTIL 990 TURN LEFT DIRECT",
                "PV406": "PV406 2000 TRK 304 VECTORS FAF FPV09 MAP RNW 09"
            },
            "transitions": [
                {
                    "name": "MOL6F",
                    "fixes": {
                        "MOLBA": "MOLBA 7000 SPEED 250",
                        "OSPIS": "OSPIS",
                        "PN621": "PN621 TRK 269 VECTORS"
                    }
                },
                {
                    "name": "ODI6F",
                    "fixes": {
                        "ODILO": "ODILO 7000 SPEED 250",
                        "PN615": "PN615 TRK 007 VECTORS"
                    }
                },
                {
                    "name": "VEB6E",
                    "fixes": {
                        "VEBEK": "VEBEK 11000 SPEED 300",
                        "LARPO": "LARPO SPEED 250",
                        "PO617": "PO617",
                        "ASVOK": "ASVOK TRK 180 VECTORS"
                    }
                },
                {
                    "name": "VEB6Y",
                    "fixes": {
                        "VEBEK": "VEBEK 11000 SPEED 250",
                        "CTL": "CTL",
                        "VALPO": "VALPO",
                        "MLN": "MLN",
                        "PN621": "PN621 TRK 270 VECTORS"
                    }
                }
            ]
        },
        {
            "name": "RNAV27",
            "fixes": {
                "IPV27": "IPV27 AT OR ABOVE 3000",
                "FPV27": "FPV27 3000 RNW 27",
                "PV405": "PV405 2000 TRK 267 VECTORS FAF FPV27 MAP RNW 27"
            },
            "transitions": [
                {
                    "name": "MOL6X",
                    "fixes": {
                        "MOLBA": "MOLBA 7000 SPEED 250",
                        "MLN": "MLN",
                        "PN618": "PN618",
                        "PN619": "PN619 TRK 299 VECTORS"
                    }
                },
                {
                    "name": "ODI6N",
                    "fixes": {
                        "ODILO": "ODILO 7000 SPEED 250",
                        "INPER": "INPER",
                        "TSU": "TSU",
                        "PN620": "PN620 TRK 070 VECTORS"
                    }
                },
                {
                    "name": "ODI6X",
                    "fixes": {
                        "ODILO": "ODILO 7000 SPEED 250",
                        "INPER": "INPER",
                        "PN617": "PN617",
                        "PN619": "PN619 TRK 299 VECTORS"
                    }
                },
                {
                    "name": "VEB6W",
                    "fixes": {
                        "VEBEK": "VEBEK 11000 SPEED 250",
                        "CTL": "CTL",
                        "VALPO": "VALPO TRK 224 VECTORS"
                    }
                }
            ]
        }
    ]
}