{
    "fixes": [
        {
            "name": "AF001",
            "lat": 36.570290783333334,
            "lon": 27.187071316666668
        },
        {
            "name": "AF002",
            "lat": 36.558778716666666,
            "lon": 27.124170183333334
        },
        {
            "name": "AF003",
            "lat": 36.558666,
            "lon": 27.059661733333332
        },
        {
            "name": "AF004",
            "lat": 36.56324576666667,
            "lon": 27.156635283333333
        },
        {
            "name": "AF005",
            "lat": 36.5585577,
            "lon": 27.060922016666666
        },
        {
            "name": "AF006",
            "lat": 36.57908166666667,
            "lon": 26.968488583333333
        },
        {
            "name": "AF007",
            "lat": 36.62259986666667,
            "lon": 26.889329433333334
        },
        {
            "name": "AF008",
            "lat": 36.6844041,
            "lon": 26.832037166666666
        },
        {
            "name": "AF009",
            "lat": 36.561819566666664,
            "lon": 27.148373916666667
        },
        {
            "name": "AF010",
            "lat": 36.5655644,
            "lon": 27.014464616666668
        },
        {
            "name": "AF011",
            "lat": 36.6170577,
            "lon": 26.896765083333335
        },
        {
            "name": "AF012",
            "lat": 36.70542385,
            "lon": 26.8201868
        },
        {
            "name": "AF013",
            "lat": 36.81195256666667,
            "lon": 26.80110165
        },
        {
            "name": "AF014",
            "lat": 36.61934165,
            "lon": 26.893637766666668
        },
        {
            "name": "AF015",
            "lat": 36.669021,
            "lon": 26.842808883333333
        },
        {
            "name": "AF016",
            "lat": 36.72793153333333,
            "lon": 26.81074735
        },
        {
            "name": "AF017",
            "lat": 36.79161883333333,
            "lon": 26.799922216666666
        },
        {
            "name": "AF018",
            "lat": 36.855256016666665,
            "lon": 26.811206483333333
        },
        {
            "name": "AF019",
            "lat": 36.597414083333334,
            "lon": 27.026810716666667
        },
        {
            "name": "AF020",
            "lat": 36.59089005,
            "lon": 27.0782496
        },
        {
            "name": "AF021",
            "lat": 36.8414431,
            "lon": 26.806823483333332
        },
        {
            "name": "AF022",
            "lat": 36.87897745,
            "lon": 26.821465383333333
        },
        {
            "name": "AF023",
            "lat": 36.75334578333333,
            "lon": 26.845979433333333
        },
        {
            "name": "AF024",
            "lat": 36.69549475,
            "lon": 26.87173586666667
        },
        {
            "name": "AF025",
            "lat": 36.64662311666667,
            "lon": 26.918126383333334
        },
        {
            "name": "AF026",
            "lat": 36.611319783333336,
            "lon": 26.980761066666666
        },
        {
            "name": "AF027",
            "lat": 36.59289441666667,
            "lon": 27.053750416666666
        },
        {
            "name": "AF028",
            "lat": 36.825666,
            "lon": 26.845353566666667
        },
        {
            "name": "AF029",
            "lat": 36.749923,
            "lon": 26.846834083333334
        },
        {
            "name": "AF030",
            "lat": 36.680048166666666,
            "lon": 26.88333026666667
        },
        {
            "name": "AF031",
            "lat": 36.626037483333334,
            "lon": 26.949537166666666
        },
        {
            "name": "AF032",
            "lat": 36.595599783333334,
            "lon": 27.0359553
        },
        {
            "name": "AF033",
            "lat": 36.937242833333336,
            "lon": 26.864418416666666
        },
        {
            "name": "AF034",
            "lat": 36.95829056666667,
            "lon": 26.888442616666666
        },
        {
            "name": "BATRI",
            "lat": 36.91472221666667,
            "lon": 26.844166666666666
        },
        {
            "name": "CODIC",
            "lat": 36.465555566666666,
            "lon": 27.731111116666668
        },
        {
            "name": "D137N",
            "lat": 36.60636388333333,
            "lon": 27.269705566666666
        },
        {
            "name": "D143G",
            "lat": 36.69151943333333,
            "lon": 27.168155566666666
        },
        {
            "name": "D143L",
            "lat": 36.620705566666665,
            "lon": 27.222941666666667
        },
        {
            "name": "D143X",
            "lat": 36.45064443333333,
            "lon": 27.354022216666667
        },
        {
            "name": "D147L",
            "lat": 36.61373056666667,
            "lon": 27.207913883333333
        },
        {
            "name": "D194N",
            "lat": 36.56965833333334,
            "lon": 26.99697778333333
        },
        {
            "name": "D202N",
            "lat": 36.582325,
            "lon": 26.959847216666667
        },
        {
            "name": "D202P",
            "lat": 36.55255556666667,
            "lon": 26.941127783333332
        },
        {
            "name": "D202Q",
            "lat": 36.537669433333335,
            "lon": 26.931775000000002
        },
        {
            "name": "D257N",
            "lat": 36.75775,
            "lon": 26.803738883333335
        },
        {
            "name": "D268P",
            "lat": 36.804127783333335,
            "lon": 26.759686116666668
        },
        {
            "name": "D270Q",
            "lat": 36.812694433333334,
            "lon": 26.739691666666666
        },
        {
            "name": "D272N",
            "lat": 36.81916111666666,
            "lon": 26.802911116666667
        },
        {
            "name": "D297N",
            "lat": 36.914261116666665,
            "lon": 26.844602783333332
        },
        {
            "name": "D297S",
            "lat": 36.95817221666667,
            "lon": 26.756213883333334
        },
        {
            "name": "D297U",
            "lat": 36.973333333333336,
            "lon": 26.726111116666665
        },
        {
            "name": "D302U",
            "lat": 37.00567778333333,
            "lon": 26.734552783333335
        },
        {
            "name": "D318N",
            "lat": 36.977080566666665,
            "lon": 26.916033333333335
        },
        {
            "name": "ELTAK",
            "lat": 36.62206388333333,
            "lon": 27.225605566666665
        },
        {
            "name": "FD14",
            "lat": 36.921947216666666,
            "lon": 27.000591666666665
        },
        {
            "name": "FD32",
            "lat": 36.698525,
            "lon": 27.180602783333335
        },
        {
            "name": "FN020",
            "lat": 36.69620556666667,
            "lon": 27.028877783333332
        },
        {
            "name": "GILOS",
            "lat": 36.4875,
            "lon": 26.900277783333333
        },
        {
            "name": "INFUR",
            "lat": 36.97209721666667,
            "lon": 26.952752783333334
        },
        {
            "name": "KO141",
            "lat": 36.91403888333333,
            "lon": 26.998044433333334
        },
        {
            "name": "KO142",
            "lat": 36.735933333333335,
            "lon": 27.136713883333332
        },
        {
            "name": "KO321",
            "lat": 36.55266666666667,
            "lon": 26.941
        },
        {
            "name": "KO322",
            "lat": 36.708333333333336,
            "lon": 27.0415
        },
        {
            "name": "KO323",
            "lat": 36.644666666666666,
            "lon": 27.000333333333334
        },
        {
            "name": "KO324",
            "lat": 36.693188883333335,
            "lon": 27.169886116666667
        },
        {
            "name": "KO326",
            "lat": 36.84615556666667,
            "lon": 27.050980566666667
        },
        {
            "name": "KO601",
            "lat": 36.735933333333335,
            "lon": 27.136713883333332
        },
        {
            "name": "KO602",
            "lat": 36.775322216666666,
            "lon": 27.230522216666667
        },
        {
            "name": "KO603",
            "lat": 36.81002221666667,
            "lon": 27.296558333333333
        },
        {
            "name": "KO604",
            "lat": 36.95057778333333,
            "lon": 27.179111116666668
        },
        {
            "name": "KO606",
            "lat": 36.976791666666664,
            "lon": 26.975280566666665
        },
        {
            "name": "KO608",
            "lat": 37.00722221666667,
            "lon": 26.735
        },
        {
            "name": "KOPAR",
            "lat": 36.83027778333334,
            "lon": 26.688611116666667
        },
        {
            "name": "KOS",
            "lat": 36.790616666666665,
            "lon": 27.091286116666666
        },
        {
            "name": "KOSNB",
            "lat": 36.79544166666667,
            "lon": 27.086333333333332
        },
        {
            "name": "LARKI",
            "lat": 37.398888883333335,
            "lon": 26.838333333333335
        },
        {
            "name": "LECOK",
            "lat": 36.694394433333336,
            "lon": 26.875744433333335
        },
        {
            "name": "MORIX",
            "lat": 36.5925,
            "lon": 27.13
        },
        {
            "name": "RDS",
            "lat": 36.339855566666664,
            "lon": 28.082086116666666
        },
        {
            "name": "RDS40",
            "lat": 36.609,
            "lon": 27.325633333333332
        },
        {
            "name": "USINI",
            "lat": 36.67694443333333,
            "lon": 27.131666666666668
        }
    ],
    "rnws": [
        "RNW 14",
        "RNW 32"
    ],
    "sids": [
        {
            "name": "GILO1A",
            "rnw": "32",
            "fixes": {
                "D202Q": "D202Q AT OR ABOVE 5000",
                "GILOS": "GILOS"
            },
            "sub_fixes": [],
            "transitions": []
        },
        {
            "name": "GILO1C",
            "rnw": "14",
            "fixes": {
                "D143L": "OVERFLY D143L",
                "AF001": "AF001",
                "AF002": "AF002",
                "AF003": "AF003",
                "D194N": "D194N",
                "GILOS": "GILOS"
            },
            "sub_fixes": [],
            "transitions": []
        },
        {
            "name": "GILO1D",
            "rnw": "32",
            "fixes": {
                "KOS": "KOS",
                "D202Q": "D202Q AT OR ABOVE 5000",
                "GILOS": "GILOS"
            },
            "sub_fixes": [],
            "transitions": []
        },
        {
            "name": "KOPA1F",
            "rnw": "14",
            "fixes": {
                "KO601": "KO601",
                "KO602": "OVERFLY KO602 AT OR ABOVE 3500",
                "KO603": "KO603 TURN LEFT DIRECT",
                "KO604": "KO604",
                "KOPAR": "KOPAR"
            },
            "sub_fixes": [],
            "transitions": []
        },
        {
            "name": "KOPA3A",
            "rnw": "32",
            "fixes": {
                "KOS": "KOS",
                "KOPAR": "KOPAR"
            },
            "sub_fixes": [],
            "transitions": []
        },
        {
            "name": "KOPA3B",
            "rnw": "14",
            "fixes": {
                "D143G": "OVERFLY D143G TURN RIGHT TRK 334 INTERCEPT RADIAL 289 TO",
                "D270Q": "D270Q AT OR ABOVE 6000",
                "KOPAR": "KOPAR"
            },
            "sub_fixes": [],
            "transitions": []
        },
        {
            "name": "KOPA3C",
            "rnw": "14",
            "fixes": {
                "D143L": "OVERFLY D143L",
                "AF004": "AF004",
                "AF005": "AF005",
                "AF006": "AF006",
                "AF007": "AF007",
                "AF008": "AF008",
                "D257N": "D257N",
                "D270Q": "D270Q",
                "KOPAR": "KOPAR"
            },
            "sub_fixes": [],
            "transitions": []
        },
        {
            "name": "LARK1F",
            "rnw": "14",
            "fixes": {
                "KO601": "KO601",
                "KO602": "OVERFLY KO602 AT OR ABOVE 3500",
                "KO603": "KO603 TURN LEFT DIRECT",
                "KO604": "KO604",
                "KO606": "KO606 SPEED 210",
                "KO608": "KO608 SPEED 230 TURN RIGHT DIRECT",
                "LARKI": "LARKI"
            },
            "sub_fixes": [],
            "transitions": []
        },
        {
            "name": "LARK3A",
            "rnw": "32",
            "fixes": {
                "KOS": "KOS",
                "D297S": "OVERFLY D297S",
                "LARKI": "LARKI"
            },
            "sub_fixes": [],
            "transitions": []
        },
        {
            "name": "LARK3B",
            "rnw": "14",
            "fixes": {
                "D143G": "OVERFLY D143G TURN RIGHT DIRECT",
                "KOS": "KOS",
                "LARKI": "LARKI"
            },
            "sub_fixes": [],
            "transitions": []
        },
        {
            "name": "RDS3B",
            "rnw": "14",
            "fixes": {
                "KOS": "KOS",
                "D143X": "OVERFLY D143X AT OR ABOVE 5000",
                "RDS": "RDS"
            },
            "sub_fixes": [],
            "transitions": []
        },
        {
            "name": "USIN2A",
            "rnw": "32",
            "fixes": {
                "USINI": "USINI AT OR ABOVE 6000"
            },
            "sub_fixes": [],
            "transitions": []
        },
        {
            "name": "USIN2D",
            "rnw": "32",
            "fixes": {
                "KOS": "KOS",
                "USINI": "USINI AT OR ABOVE 6000"
            },
            "sub_fixes": [],
            "transitions": []
        }
    ],
    "stars": [
        {
            "name": "CODI1J",
            "runway": "RNW 14",
            "fixes": {
                "CODIC": "CODIC",
                "RDS40": "OVERFLY RDS40",
                "D137N": "D137N",
                "AF009": "AF009",
                "AF010": "AF010",
                "AF011": "AF011",
                "AF012": "AF012",
                "AF013": "AF013",
                "BATRI": "BATRI"
            }
        },
        {
            "name": "GILO1H",
            "runway": "RNW 14",
            "fixes": {
                "GILOS": "GILOS",
                "D202Q": "D202Q",
                "KOS": "KOS"
            }
        },
        {
            "name": "GILO1J",
            "runway": "RNW 14",
            "fixes": {
                "GILOS": "GILOS",
                "D202Q": "D202Q",
                "D202P": "D202P",
                "AF014": "AF014",
                "AF015": "AF015",
                "AF016": "AF016",
                "AF017": "AF017",
                "AF018": "AF018",
                "BATRI": "BATRI"
            }
        },
        {
            "name": "GILO1K",
            "runway": "RNW 32",
            "fixes": {
                "GILOS": "GILOS",
                "D202Q": "D202Q",
                "KOS": "KOS"
            }
        },
        {
            "name": "GILO1L",
            "runway": "RNW 32",
            "fixes": {
                "GILOS": "GILOS",
                "D202Q": "D202Q",
                "D202N": "D202N",
                "AF019": "AF019",
                "AF020": "AF020",
                "MORIX": "MORIX"
            }
        },
        {
            "name": "GILO1M",
            "runway": "RNW 32",
            "fixes": {
                "GILOS": "GILOS",
                "KO321": "KO321 AT OR ABOVE 5000",
                "KO323": "KO323 AT OR ABOVE 4000",
                "MORIX": "MORIX SPEED 200"
            }
        },
        {
            "name": "GILO1N",
            "runway": "RNW 14",
            "fixes": {
                "GILOS": "GILOS",
                "LECOK": "LECOK AT OR ABOVE 5000",
                "BATRI": "BATRI AT OR ABOVE 4000 SPEED 185"
            }
        },
        {
            "name": "KOPA1M",
            "runway": "RNW 32",
            "fixes": {
                "KOPAR": "KOPAR",
                "LECOK": "LECOK AT OR ABOVE 5000",
                "KO323": "KO323 AT OR ABOVE 4000",
                "MORIX": "MORIX SPEED 200"
            }
        },
        {
            "name": "KOPA1N",
            "runway": "RNW 14",
            "fixes": {
                "KOPAR": "KOPAR",
                "BATRI": "BATRI AT OR ABOVE 4000 SPEED 185"
            }
        },
        {
            "name": "KOPA2H",
            "runway": "RNW 14",
            "fixes": {
                "KOPAR": "KOPAR",
                "D268P": "D268P",
                "KOS": "KOS"
            }
        },
        {
            "name": "KOPA2J",
            "runway": "RNW 14",
            "fixes": {
                "KOPAR": "KOPAR",
                "D268P": "OVERFLY D268P",
                "AF021": "AF021",
                "AF022": "AF022",
                "BATRI": "BATRI"
            }
        },
        {
            "name": "KOPA2K",
            "runway": "RNW 32",
            "fixes": {
                "KOPAR": "KOPAR",
                "KOS": "KOS"
            }
        },
        {
            "name": "KOPA2L",
            "runway": "RNW 32",
            "fixes": {
                "KOPAR": "KOPAR",
                "D272N": "D272N",
                "AF023": "AF023",
                "AF024": "AF024",
                "AF025": "AF025",
                "AF026": "AF026",
                "AF027": "AF027",
                "MORIX": "MORIX"
            }
        },
        {
            "name": "LARK2H",
            "runway": "RNW 14",
            "fixes": {
                "LARKI": "LARKI",
                "D302U": "D302U",
                "D297U": "D297U",
                "KOS": "KOS"
            }
        },
        {
            "name": "LARK2K",
            "runway": "RNW 32",
            "fixes": {
                "LARKI": "LARKI",
                "D302U": "D302U",
                "D297U": "D297U",
                "KOS": "KOS"
            }
        },
        {
            "name": "LARK2L",
            "runway": "RNW 32",
            "fixes": {
                "LARKI": "LARKI",
                "D302U": "D302U",
                "D297U": "D297U",
                "D297N": "D297N",
                "AF028": "AF028",
                "AF029": "AF029",
                "AF030": "AF030",
                "AF031": "AF031",
                "AF032": "AF032",
                "MORIX": "MORIX"
            }
        },
        {
            "name": "USIN1M",
            "runway": "RNW 32",
            "fixes": {
                "USINI": "USINI",
                "KO322": "KO322 AT OR ABOVE 5000",
                "KO323": "KO323 AT OR ABOVE 4000 TURN LEFT DIRECT",
                "MORIX": "MORIX SPEED 200"
            }
        },
        {
            "name": "USIN1N",
            "runway": "RNW 14",
            "fixes": {
                "USINI": "USINI",
                "LECOK": "LECOK AT OR ABOVE 5000",
                "BATRI": "BATRI AT OR ABOVE 4000 SPEED 185"
            }
        },
        {
            "name": "USIN2H",
            "runway": "RNW 14",
            "fixes": {
                "USINI": "USINI",
                "KOS": "KOS"
            }
        },
        {
            "name": "USIN2K",
            "runway": "RNW 32",
            "fixes": {
                "USINI": "USINI",
                "KOS": "KOS"
            }
        }
    ],
    "approaches": [
        {
            "name": "VORD14",
            "fixes": {
                "FD14": "FD14 3300 RNW 14",
                "KOS": "OVERFLY KOS TRK 180 UNTIL 2400 TURN RIGHT DIRECT KOS 4000 SPEED 200 HOLD AT KOS LEFT TURN INBOUNDCOURSE 002 ALT 4000 SPEED 230 LEGTIME 1 FAF FD14 MAP RNW 14"
            },
            "transitions": [
                {
                    "name": "BATRI",
                    "fixes": {
                        "BATRI": "BATRI",
                        "AF033": "AF033",
                        "AF034": "AF034",
                        "D318N": "D318N AT OR ABOVE 4000"
                    }
                },
                {
                    "name": "KOS",
                    "fixes": {
                        "KOS": "KOS AT OR ABOVE 4000 TRK 308 UNTIL 9.0 FROM KOS SPEED 185"
                    }
                }
            ]
        },
        {
            "name": "VORD32",
            "fixes": {
                "FD32": "FD32 2500 RNW 32",
                "KOS": "OVERFLY KOS TRK 297 UNTIL 2400 TURN LEFT DIRECT KOS 4000 SPEED 200 HOLD AT KOS RIGHT TURN INBOUNDCOURSE 117 SPEED 230 LEGTIME 1 FAF FD32 MAP RNW 32"
            },
            "transitions": [
                {
                    "name": "KOS",
                    "fixes": {
                        "KOS": "KOS AT OR ABOVE 4000 TRK 160 UNTIL 7.0 FROM KOS SPEED 185"
                    }
                },
                {
                    "name": "MORIX",
                    "fixes": {
                        "MORIX": "MORIX AT OR ABOVE 4000",
                        "D147L": "D147L AT OR ABOVE 3500"
                    }
                }
            ]
        },
        {
            "name": "NDBDB14",
            "fixes": {
                "FN020": "FN020 2500",
                "KOSNB": "KOSNB 1200 RNW 14 TRK 005 UNTIL 2500 TURN LEFT DIRECT KOSNB 4000 SPEED 200 HOLD AT KOSNB RIGHT TURN INBOUNDCOURSE 117 LEGTIME 1 FAF FN020 MAP KOS"
            },
            "transitions": [
                {
                    "name": "KOS1",
                    "fixes": {
                        "KOSNB": "KOSNB AT OR ABOVE 4000 TRK 178 UNTIL 7.0 FROM KOSNB"
                    }
                },
                {
                    "name": "KOS2",
                    "fixes": {
                        "KOSNB": "KOSNB AT OR ABOVE 4000 TRK 188 UNTIL 7.0 FROM KOSNB"
                    }
                }
            ]
        },
        {
            "name": "NDBDB32",
            "fixes": {
                "FN020": "FN020 2500",
                "KOSNB": "KOSNB 1200 RNW 32 TRK 005 UNTIL 2500 TURN LEFT DIRECT KOSNB 4000 SPEED 200 HOLD AT KOSNB RIGHT TURN INBOUNDCOURSE 117 LEGTIME 1 FAF FN020 MAP KOS"
            },
            "transitions": [
                {
                    "name": "KOS1",
                    "fixes": {
                        "KOSNB": "KOSNB AT OR ABOVE 4000 TRK 178 UNTIL 7.0 FROM KOSNB"
                    }
                },
                {
                    "name": "KOS2",
                    "fixes": {
                        "KOSNB": "KOSNB AT OR ABOVE 4000 TRK 188 UNTIL 7.0 FROM KOSNB"
                    }
                }
            ]
        },
        {
            "name": "RNAV14",
            "fixes": {
                "INFUR": "INFUR AT OR ABOVE 3500",
                "KO141": "KO141 3000 RNW 14",
                "KO142": "OVERFLY KO142 TURN RIGHT DIRECT",
                "LECOK": "OVERFLY LECOK AT OR ABOVE 3000 SPEED 200 HOLD AT LECOK RIGHT TURN INBOUNDCOURSE 236 ALT 3000 SPEED 200 LEGDIST 3 FAF KO141 MAP RNW 14"
            },
            "transitions": [
                {
                    "name": "BATRI",
                    "fixes": {
                        "BATRI": "BATRI AT OR ABOVE 4000 SPEED 200"
                    }
                }
            ]
        },
        {
            "name": "RNAV32",
            "fixes": {
                "ELTAK": "ELTAK AT OR ABOVE 3500",
                "KO324": "KO324 2500 RNW 32",
                "KO326": "OVERFLY KO326 TURN LEFT DIRECT",
                "LECOK": "OVERFLY LECOK AT OR ABOVE 3000 SPEED 200 HOLD AT LECOK RIGHT TURN INBOUNDCOURSE 236 ALT 3000 SPEED 200 LEGDIST 3 FAF KO324 MAP RNW 32"
            },
            "transitions": [
                {
                    "name": "MORIX",
                    "fixes": {
                        "MORIX": "MORIX AT OR ABOVE 4000 SPEED 200"
                    }
                }
            ]
        }
    ]
}