{
    "fixes": [
        {
            "name": "30VOR",
            "lat": 38.94438888333333,
            "lon": 20.82177778333333
        },
        {
            "name": "AF001",
            "lat": 39.061936083333336,
            "lon": 20.347249333333334
        },
        {
            "name": "AF002",
            "lat": 38.985852316666666,
            "lon": 20.318740983333335
        },
        {
            "name": "AF003",
            "lat": 38.906735633333334,
            "lon": 20.313018783333334
        },
        {
            "name": "AF004",
            "lat": 38.58726361666667,
            "lon": 20.875549216666666
        },
        {
            "name": "AF005",
            "lat": 38.57803953333333,
            "lon": 20.811565283333334
        },
        {
            "name": "AF006",
            "lat": 38.588854233333336,
            "lon": 20.641261016666668
        },
        {
            "name": "AF007",
            "lat": 38.620583483333334,
            "lon": 20.54272101666667
        },
        {
            "name": "AF008",
            "lat": 38.69888291666667,
            "lon": 20.4203178
        },
        {
            "name": "AF009",
            "lat": 38.73129218333333,
            "lon": 20.38876245
        },
        {
            "name": "AF010",
            "lat": 38.9626604,
            "lon": 20.50940578333333
        },
        {
            "name": "AF011",
            "lat": 38.92330496666666,
            "lon": 20.505121366666668
        },
        {
            "name": "AF012",
            "lat": 39.06553553333333,
            "lon": 20.9464288
        },
        {
            "name": "AF013",
            "lat": 39.0479501,
            "lon": 20.966030433333334
        },
        {
            "name": "AKT",
            "lat": 38.92591388333334,
            "lon": 20.762177783333332
        },
        {
            "name": "AR32A",
            "lat": 38.55933888333333,
            "lon": 20.980719433333334
        },
        {
            "name": "ARA",
            "lat": 38.15898333333333,
            "lon": 21.429402783333334
        },
        {
            "name": "ARA22",
            "lat": 38.42815,
            "lon": 21.128522216666667
        },
        {
            "name": "CF07L",
            "lat": 38.897616666666664,
            "lon": 20.507919433333335
        },
        {
            "name": "D055L",
            "lat": 39.02881111666667,
            "lon": 20.982175
        },
        {
            "name": "D137V",
            "lat": 39.15826666666667,
            "lon": 20.369433333333333
        },
        {
            "name": "D167L",
            "lat": 38.723230566666665,
            "lon": 20.803152783333335
        },
        {
            "name": "D178U",
            "lat": 38.575777783333336,
            "lon": 20.7466
        },
        {
            "name": "D216R",
            "lat": 38.69561388333333,
            "lon": 20.515866666666668
        },
        {
            "name": "D219U",
            "lat": 38.66928888333333,
            "lon": 20.457394433333334
        },
        {
            "name": "D239U",
            "lat": 38.76617778333333,
            "lon": 20.363452783333333
        },
        {
            "name": "D240X",
            "lat": 38.748638883333335,
            "lon": 20.300422216666668
        },
        {
            "name": "D243S",
            "lat": 38.801463883333334,
            "lon": 20.3893
        },
        {
            "name": "D244L",
            "lat": 38.84880556666667,
            "lon": 20.525138883333334
        },
        {
            "name": "D244X",
            "lat": 38.77305556666666,
            "lon": 20.2925
        },
        {
            "name": "D250U",
            "lat": 38.82855,
            "lon": 20.331636116666665
        },
        {
            "name": "D250X",
            "lat": 38.81639166666667,
            "lon": 20.278430566666668
        },
        {
            "name": "D254L",
            "lat": 38.884022216666665,
            "lon": 20.511638883333333
        },
        {
            "name": "D255U",
            "lat": 38.855972216666665,
            "lon": 20.3235
        },
        {
            "name": "D342Y",
            "lat": 38.51738888333333,
            "lon": 20.375158333333335
        },
        {
            "name": "FD07L",
            "lat": 38.881111116666666,
            "lon": 20.623777783333335
        },
        {
            "name": "FF07L",
            "lat": 38.906275,
            "lon": 20.614477783333335
        },
        {
            "name": "FF25R",
            "lat": 38.96905556666667,
            "lon": 20.901527783333332
        },
        {
            "name": "GARTA",
            "lat": 38.985,
            "lon": 20.968333333333334
        },
        {
            "name": "KFN",
            "lat": 38.112952783333334,
            "lon": 20.504683333333332
        },
        {
            "name": "LALAX",
            "lat": 38.909166666666664,
            "lon": 20.248333333333335
        },
        {
            "name": "MA07L",
            "lat": 38.914172216666664,
            "lon": 20.722111116666667
        },
        {
            "name": "MA25R",
            "lat": 38.93208333333333,
            "lon": 20.782083333333333
        },
        {
            "name": "MALED",
            "lat": 39.22083333333333,
            "lon": 20.303333333333335
        },
        {
            "name": "MD07L",
            "lat": 38.919527783333336,
            "lon": 20.742388883333334
        },
        {
            "name": "OKOSI",
            "lat": 39.027222216666665,
            "lon": 20.502222216666667
        },
        {
            "name": "ORTOS",
            "lat": 38.96805556666666,
            "lon": 20.229166666666668
        },
        {
            "name": "PAK29",
            "lat": 38.548830566666666,
            "lon": 20.365027783333332
        },
        {
            "name": "PAKNB",
            "lat": 38.916583333333335,
            "lon": 20.757277783333333
        },
        {
            "name": "RIPID",
            "lat": 39.0875,
            "lon": 20.19
        },
        {
            "name": "SOTEG",
            "lat": 38.594166666666666,
            "lon": 20.94138888333333
        },
        {
            "name": "URAKI",
            "lat": 38.82333333333333,
            "lon": 20.446111116666668
        },
        {
            "name": "XERNO",
            "lat": 38.8425,
            "lon": 20.27
        }
    ],
    "rnws": [
        "RNW 07L",
        "RNW 25R"
    ],
    "sids": [
        {
            "name": "GART1C",
            "rnw": "07L",
            "fixes": {
                "AKT": "OVERFLY AKT AT OR ABOVE 7000 SPEED 210 TURN RIGHT TRK 111 INTERCEPT RADIAL 066 TO",
                "GARTA": "GARTA"
            },
            "sub_fixes": [],
            "transitions": []
        },
        {
            "name": "GART2E",
            "rnw": "25R",
            "fixes": {
                "AKT": "OVERFLY AKT AT OR ABOVE 7000 SPEED 230",
                "GARTA": "GARTA"
            },
            "sub_fixes": [],
            "transitions": []
        },
        {
            "name": "GART2H",
            "rnw": "07L",
            "fixes": {
                "PAKNB": "OVERFLY PAKNB AT OR ABOVE 7000 TURN RIGHT TRK 108 INTERCEPT RADIAL 063 TO",
                "GARTA": "GARTA"
            },
            "sub_fixes": [],
            "transitions": []
        },
        {
            "name": "GART2J",
            "rnw": "25R",
            "fixes": {
                "PAKNB": "PAKNB AT OR ABOVE 8000",
                "GARTA": "GARTA"
            },
            "sub_fixes": [],
            "transitions": []
        },
        {
            "name": "KFN1C",
            "rnw": "07L",
            "fixes": {
                "AKT": "AKT",
                "D216R": "D216R AT OR ABOVE 8000 TRK 216 UNTIL 27.0 FROM",
                "D342Y": "D342Y SPEED 250",
                "KFN": "KFN"
            },
            "sub_fixes": [],
            "transitions": []
        },
        {
            "name": "KFN1E",
            "rnw": "25R",
            "fixes": {
                "D243S": "OVERFLY D243S TRK 207 INTERCEPT RADIAL 162 TO",
                "D342Y": "D342Y AT OR ABOVE 8000",
                "KFN": "KFN"
            },
            "sub_fixes": [],
            "transitions": []
        },
        {
            "name": "KFN1H",
            "rnw": "07L",
            "fixes": {
                "PAKNB": "OVERFLY PAKNB AT OR ABOVE 7000 SPEED 230",
                "PAK29": "PAK29 AT OR ABOVE 8000",
                "D342Y": "D342Y",
                "KFN": "KFN"
            },
            "sub_fixes": [],
            "transitions": []
        },
        {
            "name": "KFN1J",
            "rnw": "25R",
            "fixes": {
                "AKT": "AKT TRK 207 INTERCEPT RADIAL 162 TO",
                "D342Y": "D342Y AT OR ABOVE 8000",
                "KFN": "KFN"
            },
            "sub_fixes": [],
            "transitions": []
        },
        {
            "name": "MALE1C",
            "rnw": "07L",
            "fixes": {
                "AKT": "OVERFLY AKT AT OR ABOVE 7000 SPEED 210 TRK 273 INTERCEPT RADIAL 317 TO",
                "MALED": "MALED"
            },
            "sub_fixes": [],
            "transitions": []
        },
        {
            "name": "MALE1E",
            "rnw": "25R",
            "fixes": {
                "MALED": "MALED AT OR ABOVE 7000"
            },
            "sub_fixes": [],
            "transitions": []
        },
        {
            "name": "MALE1J",
            "rnw": "25R",
            "fixes": {
                "MALED": "MALED AT OR ABOVE 7000"
            },
            "sub_fixes": [],
            "transitions": []
        },
        {
            "name": "MALE2H",
            "rnw": "07L",
            "fixes": {
                "PAKNB": "OVERFLY PAKNB AT OR ABOVE 7000 TRK 273 INTERCEPT RADIAL 317 TO",
                "MALED": "MALED"
            },
            "sub_fixes": [],
            "transitions": []
        },
        {
            "name": "RIPI2C",
            "rnw": "07L",
            "fixes": {
                "AKT": "OVERFLY AKT AT OR ABOVE 7000 SPEED 210 TURN RIGHT TRK 332 INTERCEPT RADIAL 286 TO",
                "RIPID": "RIPID AT OR ABOVE 8000"
            },
            "sub_fixes": [],
            "transitions": []
        },
        {
            "name": "RIPI2E",
            "rnw": "25R",
            "fixes": {
                "RIPID": "RIPID AT OR ABOVE 8000"
            },
            "sub_fixes": [],
            "transitions": []
        },
        {
            "name": "RIPI2H",
            "rnw": "07L",
            "fixes": {
                "PAKNB": "OVERFLY PAKNB AT OR ABOVE 7000 TURN RIGHT TRK 332 INTERCEPT RADIAL 287 TO",
                "RIPID": "RIPID AT OR ABOVE 8000"
            },
            "sub_fixes": [],
            "transitions": []
        },
        {
            "name": "RIPI2J",
            "rnw": "25R",
            "fixes": {
                "RIPID": "RIPID AT OR ABOVE 8000"
            },
            "sub_fixes": [],
            "transitions": []
        },
        {
            "name": "SOTE2H",
            "rnw": "07L",
            "fixes": {
                "PAKNB": "OVERFLY PAKNB AT OR ABOVE 7000 TRK 183 INTERCEPT RADIAL 137 TO",
                "SOTEG": "SOTEG"
            },
            "sub_fixes": [],
            "transitions": []
        },
        {
            "name": "SOTE3C",
            "rnw": "07L",
            "fixes": {
                "AKT": "OVERFLY AKT AT OR ABOVE 7000 SPEED 210 TRK 183 INTERCEPT RADIAL 137 TO",
                "SOTEG": "SOTEG"
            },
            "sub_fixes": [],
            "transitions": []
        }
    ],
    "stars": [
        {
            "name": "GART1A",
            "runway": "RNW 07L",
            "fixes": {
                "GARTA": "GARTA",
                "AKT": "AKT",
                "D255U": "OVERFLY D255U TURN LEFT DIRECT",
                "URAKI": "URAKI"
            }
        },
        {
            "name": "GART1B",
            "runway": "RNW 07L",
            "fixes": {
                "GARTA": "GARTA",
                "AKT": "AKT"
            }
        },
        {
            "name": "GART1D",
            "runway": "RNW 25R",
            "fixes": {
                "GARTA": "GARTA",
                "AKT": "AKT"
            }
        },
        {
            "name": "GART1G",
            "runway": "RNW 07L",
            "fixes": {
                "GARTA": "GARTA",
                "PAKNB": "PAKNB"
            }
        },
        {
            "name": "KFN1A",
            "runway": "RNW 07L",
            "fixes": {
                "KFN": "KFN",
                "D342Y": "D342Y",
                "D240X": "OVERFLY D240X",
                "D244X": "D244X",
                "URAKI": "URAKI"
            }
        },
        {
            "name": "KFN1D",
            "runway": "RNW 25R",
            "fixes": {
                "KFN": "KFN",
                "D342Y": "OVERFLY D342Y TRK 006 INTERCEPT RADIAL 036 TO",
                "D216R": "D216R D216R",
                "AKT": "AKT"
            }
        },
        {
            "name": "KFN1G",
            "runway": "RNW 07L",
            "fixes": {
                "KFN": "KFN",
                "D342Y": "D342Y",
                "XERNO": "OVERFLY XERNO TURN RIGHT DIRECT",
                "PAKNB": "PAKNB"
            }
        },
        {
            "name": "MALE1A",
            "runway": "RNW 07L",
            "fixes": {
                "MALED": "MALED",
                "D137V": "D137V",
                "AF001": "AF001",
                "AF002": "AF002",
                "AF003": "AF003",
                "D250U": "D250U",
                "URAKI": "URAKI"
            }
        },
        {
            "name": "MALE1B",
            "runway": "RNW 07L",
            "fixes": {
                "MALED": "MALED",
                "D137V": "D137V",
                "OKOSI": "OKOSI"
            }
        },
        {
            "name": "MALE1D",
            "runway": "RNW 25R",
            "fixes": {
                "MALED": "MALED",
                "AKT": "AKT"
            }
        },
        {
            "name": "MALE1G",
            "runway": "RNW 07L",
            "fixes": {
                "MALED": "MALED TRK 137 UNTIL 15.0 FROM",
                "AKT": "AKT",
                "PAKNB": "PAKNB"
            }
        },
        {
            "name": "RIPI1A",
            "runway": "RNW 07L",
            "fixes": {
                "RIPID": "RIPID",
                "ORTOS": "ORTOS",
                "D250X": "OVERFLY D250X",
                "D244X": "D244X TURN LEFT DIRECT",
                "URAKI": "URAKI"
            }
        },
        {
            "name": "RIPI1G",
            "runway": "RNW 07L",
            "fixes": {
                "RIPID": "RIPID",
                "LALAX": "OVERFLY LALAX",
                "PAKNB": "PAKNB"
            }
        },
        {
            "name": "SOTE1A",
            "runway": "RNW 07L",
            "fixes": {
                "ARA": "ARA",
                "ARA22": "ARA22",
                "AR32A": "AR32A",
                "SOTEG": "SOTEG SPEED 250",
                "AF004": "AF004",
                "AF005": "AF005",
                "D178U": "D178U",
                "AF006": "AF006",
                "AF007": "AF007",
                "D219U": "D219U",
                "AF008": "AF008",
                "AF009": "AF009",
                "D239U": "D239U",
                "URAKI": "URAKI"
            }
        },
        {
            "name": "SOTE2G",
            "runway": "RNW 07L",
            "fixes": {
                "SOTEG": "SOTEG TRK 317 UNTIL 15.0 FROM",
                "AKT": "AKT",
                "PAKNB": "PAKNB"
            }
        },
        {
            "name": "SOTE3D",
            "runway": "RNW 25R",
            "fixes": {
                "SOTEG": "SOTEG",
                "D167L": "D167L",
                "AKT": "AKT"
            }
        }
    ],
    "approaches": [
        {
            "name": "VORD07L",
            "fixes": {
                "FD07L": "FD07L 2100",
                "MD07L": "MD07L 177 RNW 07L TRK 064 UNTIL 5.0 FROM",
                "AKT": "AKT TURN LEFT DIRECT AKT SPEED 185",
                "D255U": "OVERFLY D255U TURN LEFT DIRECT",
                "URAKI": "URAKI 4000 SPEED 230 HOLD AT URAKI LEFT TURN INBOUNDCOURSE 064 SPEED 230 LEGDIST 5 FAF FD07L MAP MD07L"
            },
            "transitions": [
                {
                    "name": "AKT",
                    "fixes": {
                        "AKT": "AKT AT OR ABOVE 6000 TRK 288 UNTIL 10.0 FROM AKT",
                        "AF010": "AF010",
                        "AF011": "AF011",
                        "D254L": "D254L AT OR ABOVE 3000"
                    }
                },
                {
                    "name": "OKOSI",
                    "fixes": {
                        "OKOSI": "OKOSI",
                        "AF010": "AF010",
                        "AF011": "AF011",
                        "D254L": "D254L AT OR ABOVE 3000"
                    }
                },
                {
                    "name": "URAKI",
                    "fixes": {
                        "URAKI": "URAKI AT OR ABOVE 4000",
                        "D244L": "D244L AT OR ABOVE 3000"
                    }
                }
            ]
        },
        {
            "name": "VORD25R",
            "fixes": {
                "FF25R": "FF25R 2100",
                "30VOR": "30VOR AT OR ABOVE 840",
                "MA25R": "MA25R 132 RNW 25R TRK 245 UNTIL 15.0 FROM",
                "AKT": "AKT TURN RIGHT DIRECT AKT 6000 HOLD AT AKT LEFT TURN INBOUNDCOURSE 064 SPEED 230 LEGTIME 1 FAF FF25R MAP MA25R"
            },
            "transitions": [
                {
                    "name": "AKT",
                    "fixes": {
                        "AKT": "AKT AT OR ABOVE 6000 TRK 035 UNTIL 10.0 FROM AKT",
                        "AF012": "AF012",
                        "AF013": "AF013",
                        "D055L": "D055L AT OR ABOVE 3000"
                    }
                }
            ]
        },
        {
            "name": "NDBD07LA",
            "fixes": {
                "CF07L": "CF07L AT OR ABOVE 3400",
                "FF07L": "FF07L 2100",
                "MA07L": "MA07L 493 RNW 07L",
                "PAKNB": "PAKNB TRK 060 UNTIL 5.0 FROM PAKNB TRK 240 UNTIL 11.0 FROM PAKNB 7500 HOLD AT PAKNB RIGHT TURN INBOUNDCOURSE 264 SPEED 230 LEGTIME 1 FAF FF07L MAP MA07L",
                "AKT": "AKT TURN LEFT DIRECT AKT TURN RIGHT DIRECT"
            },
            "transitions": [
                {
                    "name": "LALAX",
                    "fixes": {
                        "LALAX": "LALAX AT OR ABOVE 8000 HDG 111 INTERCEPT RADIAL 081 TO",
                        "CF07L": "CF07L"
                    }
                },
                {
                    "name": "PAK",
                    "fixes": {
                        "PAKNB": "PAKNB AT OR ABOVE 7500 TRK 269 UNTIL 12.0 FROM",
                        "AKT": "AKT"
                    }
                },
                {
                    "name": "XERNO",
                    "fixes": {
                        "XERNO": "XERNO AT OR ABOVE 8000 HDG 051 INTERCEPT RADIAL 081 TO",
                        "CF07L": "CF07L"
                    }
                }
            ]
        },
        {
            "name": "NDBD07LB",
            "fixes": {
                "CF07L": "CF07L AT OR ABOVE 3400",
                "FF07L": "FF07L 2100",
                "MA07L": "MA07L 980 RNW 07L",
                "PAKNB": "PAKNB TRK 060 UNTIL 5.0 FROM PAKNB SPEED 185 TRK 240 UNTIL 11.0 FROM PAKNB 7500 HOLD AT PAKNB RIGHT TURN INBOUNDCOURSE 264 SPEED 230 LEGTIME 1 FAF FF07L MAP MA07L",
                "AKT": "AKT TURN LEFT DIRECT AKT TURN RIGHT DIRECT"
            },
            "transitions": [
                {
                    "name": "LALAX",
                    "fixes": {
                        "LALAX": "LALAX AT OR ABOVE 8000 HDG 111 INTERCEPT RADIAL 081 TO",
                        "CF07L": "CF07L"
                    }
                },
                {
                    "name": "PAK",
                    "fixes": {
                        "PAKNB": "PAKNB AT OR ABOVE 7500 TRK 273 UNTIL 12.0 FROM",
                        "AKT": "AKT"
                    }
                },
                {
                    "name": "XERNO",
                    "fixes": {
                        "XERNO": "XERNO AT OR ABOVE 8000 HDG 051 INTERCEPT RADIAL 081 TO",
                        "CF07L": "CF07L"
                    }
                }
            ]
        },
        {
            "name": "NDBD25RB",
            "fixes": {
                "CF07L": "CF07L AT OR ABOVE 3400",
                "FF07L": "FF07L 2100",
                "MA07L": "MA07L 980 RNW 25R",
                "PAKNB": "PAKNB TRK 060 UNTIL 5.0 FROM PAKNB SPEED 185 TRK 240 UNTIL 11.0 FROM PAKNB 7500 HOLD AT PAKNB RIGHT TURN INBOUNDCOURSE 264 SPEED 230 LEGTIME 1 FAF FF07L MAP MA07L",
                "AKT": "AKT TURN LEFT DIRECT AKT TURN RIGHT DIRECT"
            },
            "transitions": [
                {
                    "name": "LALAX",
                    "fixes": {
                        "LALAX": "LALAX AT OR ABOVE 8000 HDG 111 INTERCEPT RADIAL 081 TO",
                        "CF07L": "CF07L"
                    }
                },
                {
                    "name": "PAK",
                    "fixes": {
                        "PAKNB": "PAKNB AT OR ABOVE 7500 TRK 273 UNTIL 12.0 FROM",
                        "AKT": "AKT"
                    }
                },
                {
                    "name": "XERNO",
                    "fixes": {
                        "XERNO": "XERNO AT OR ABOVE 8000 HDG 051 INTERCEPT RADIAL 081 TO",
                        "CF07L": "CF07L"
                    }
                }
            ]
        }
    ]
}