{
    "fixes": [
        {
            "name": "40VOR",
            "lat": 40.44399166666667,
            "lon": 17.423161116666666
        },
        {
            "name": "ATTEC",
            "lat": 40.47861111666667,
            "lon": 17.4675
        },
        {
            "name": "BG401",
            "lat": 40.578625,
            "lon": 17.790922216666665
        },
        {
            "name": "BG402",
            "lat": 40.55681666666667,
            "lon": 17.649080566666665
        },
        {
            "name": "BG403",
            "lat": 40.48188888333333,
            "lon": 17.76635
        },
        {
            "name": "BG501",
            "lat": 40.47938333333333,
            "lon": 17.413322216666668
        },
        {
            "name": "BG505",
            "lat": 40.41993888333333,
            "lon": 17.428938883333334
        },
        {
            "name": "BG508",
            "lat": 40.3716,
            "lon": 17.459675
        },
        {
            "name": "BG512",
            "lat": 40.36755278333333,
            "lon": 17.535811116666668
        },
        {
            "name": "BG516",
            "lat": 40.43909721666667,
            "lon": 17.54235278333333
        },
        {
            "name": "BG527",
            "lat": 40.49152778333333,
            "lon": 17.320319433333335
        },
        {
            "name": "BG536",
            "lat": 40.55528056666667,
            "lon": 17.393322216666668
        },
        {
            "name": "BG601",
            "lat": 40.56737221666667,
            "lon": 17.3792
        },
        {
            "name": "BG602",
            "lat": 40.443927783333336,
            "lon": 17.422630566666665
        },
        {
            "name": "BG603",
            "lat": 40.50451666666667,
            "lon": 17.739275
        },
        {
            "name": "BG604",
            "lat": 40.55379443333333,
            "lon": 17.664825
        },
        {
            "name": "BG606",
            "lat": 40.56103888333333,
            "lon": 17.456230566666665
        },
        {
            "name": "BG708",
            "lat": 40.362713883333335,
            "lon": 17.443966666666668
        },
        {
            "name": "CD35",
            "lat": 40.34543611666667,
            "lon": 17.44585
        },
        {
            "name": "CI35",
            "lat": 40.366655566666665,
            "lon": 17.442925
        },
        {
            "name": "D009G",
            "lat": 40.61525,
            "lon": 17.440377783333332
        },
        {
            "name": "D073H",
            "lat": 40.53904166666667,
            "lon": 17.578563883333334
        },
        {
            "name": "D073J",
            "lat": 40.546338883333334,
            "lon": 17.621230566666668
        },
        {
            "name": "D073O",
            "lat": 40.56451388333333,
            "lon": 17.727930566666668
        },
        {
            "name": "D073R",
            "lat": 40.575372216666665,
            "lon": 17.791980566666666
        },
        {
            "name": "D100B",
            "lat": 40.50161666666666,
            "lon": 17.450397216666666
        },
        {
            "name": "D165K",
            "lat": 40.34539721666667,
            "lon": 17.448494433333334
        },
        {
            "name": "D270B",
            "lat": 40.51201111666666,
            "lon": 17.3644
        },
        {
            "name": "D304V",
            "lat": 40.47094443333334,
            "lon": 17.750480566666667
        },
        {
            "name": "D335D",
            "lat": 40.57196943333334,
            "lon": 17.376647216666665
        },
        {
            "name": "D345C",
            "lat": 40.557966666666665,
            "lon": 17.392888883333335
        },
        {
            "name": "FI35",
            "lat": 40.39936111666667,
            "lon": 17.434347216666666
        },
        {
            "name": "KAPPO",
            "lat": 40.61083333333333,
            "lon": 18.002777783333332
        },
        {
            "name": "LCC",
            "lat": 40.24730556666667,
            "lon": 18.13075
        },
        {
            "name": "LCC27",
            "lat": 40.52159721666666,
            "lon": 17.663702783333335
        },
        {
            "name": "MASAX",
            "lat": 40.41111111666667,
            "lon": 17.431111116666667
        },
        {
            "name": "MD35",
            "lat": 40.47684443333333,
            "lon": 17.415583333333334
        },
        {
            "name": "MEFRE",
            "lat": 40.53361111666667,
            "lon": 17.499166666666667
        },
        {
            "name": "MOKTO",
            "lat": 40.61444443333333,
            "lon": 17.174166666666668
        },
        {
            "name": "ROBOT",
            "lat": 40.70972221666667,
            "lon": 17.469444433333333
        },
        {
            "name": "TAG",
            "lat": 40.50969443333334,
            "lon": 17.408
        }
    ],
    "rnws": [
        "RNW 17",
        "RNW 35"
    ],
    "sids": [
        {
            "name": "KAPO1E",
            "rnw": "35",
            "fixes": {
                "D335D": "OVERFLY D335D AT OR ABOVE 1300 TURN LEFT DIRECT",
                "TAG": "TAG AT OR ABOVE 5000 SPEED 200",
                "D073J": "D073J",
                "KAPPO": "KAPPO"
            },
            "sub_fixes": [],
            "transitions": []
        },
        {
            "name": "KAPO1H",
            "rnw": "17",
            "fixes": {
                "BG602": "OVERFLY BG602 AT OR ABOVE 1500 SPEED 220 TURN LEFT DIRECT",
                "BG604": "BG604 AT OR ABOVE 5000 SPEED 220",
                "KAPPO": "KAPPO AT OR ABOVE 9000"
            },
            "sub_fixes": [],
            "transitions": []
        },
        {
            "name": "KAPO1T",
            "rnw": "35",
            "fixes": {
                "BG601": "OVERFLY BG601 AT OR ABOVE 1400 SPEED 200 TURN LEFT DIRECT",
                "TAG": "TAG AT OR ABOVE 5000 SPEED 200",
                "KAPPO": "KAPPO AT OR ABOVE 9000"
            },
            "sub_fixes": [],
            "transitions": []
        },
        {
            "name": "KAPO6D",
            "rnw": "17",
            "fixes": {
                "40VOR": "OVERFLY 40VOR AT OR ABOVE 1000 TURN LEFT TRK 009 INTERCEPT RADIAL 073 TO",
                "D073O": "D073O",
                "KAPPO": "KAPPO"
            },
            "sub_fixes": [],
            "transitions": []
        },
        {
            "name": "LCC1H",
            "rnw": "17",
            "fixes": {
                "BG602": "OVERFLY BG602 AT OR ABOVE 1500 SPEED 220 TURN LEFT DIRECT",
                "BG604": "BG604 AT OR ABOVE 5000 SPEED 220 TURN RIGHT DIRECT",
                "LCC": "LCC"
            },
            "sub_fixes": [],
            "transitions": []
        },
        {
            "name": "LCC1M",
            "rnw": "35",
            "fixes": {
                "BG601": "OVERFLY BG601 AT OR ABOVE 1400 SPEED 200 TURN LEFT DIRECT",
                "TAG": "TAG AT OR ABOVE 5000 SPEED 200",
                "BG603": "BG603",
                "LCC": "LCC"
            },
            "sub_fixes": [],
            "transitions": []
        },
        {
            "name": "LCC1P",
            "rnw": "35",
            "fixes": {
                "D335D": "OVERFLY D335D AT OR ABOVE 1300 TURN LEFT DIRECT",
                "TAG": "TAG AT OR ABOVE 5000 SPEED 200",
                "D073H": "OVERFLY D073H",
                "LCC": "LCC"
            },
            "sub_fixes": [],
            "transitions": []
        },
        {
            "name": "LCC1Q",
            "rnw": "17",
            "fixes": {
                "40VOR": "OVERFLY 40VOR AT OR ABOVE 1000 TRK 009 INTERCEPT RADIAL 073 FROM",
                "TAG": "TAG SPEED 200",
                "D073O": "D073O HDG 108 INTERCEPT RADIAL 138 TO",
                "LCC": "LCC"
            },
            "sub_fixes": [],
            "transitions": []
        },
        {
            "name": "MOKT1H",
            "rnw": "17",
            "fixes": {
                "BG602": "OVERFLY BG602 AT OR ABOVE 1500 SPEED 220 TURN LEFT DIRECT",
                "BG606": "BG606 AT OR ABOVE 5000 SPEED 220",
                "MOKTO": "MOKTO AT OR ABOVE 9000"
            },
            "sub_fixes": [],
            "transitions": []
        },
        {
            "name": "MOKT1M",
            "rnw": "35",
            "fixes": {
                "BG601": "OVERFLY BG601 AT OR ABOVE 1400 SPEED 200 TURN LEFT DIRECT",
                "TAG": "OVERFLY TAG AT OR ABOVE 5000 SPEED 200 TURN LEFT DIRECT",
                "MOKTO": "MOKTO AT OR ABOVE 9000"
            },
            "sub_fixes": [],
            "transitions": []
        },
        {
            "name": "MOKT1P",
            "rnw": "35",
            "fixes": {
                "D335D": "OVERFLY D335D AT OR ABOVE 1300 TURN LEFT DIRECT",
                "TAG": "OVERFLY TAG AT OR ABOVE 5000 SPEED 200 TURN LEFT HDG 267 INTERCEPT RADIAL 297 TO",
                "MOKTO": "MOKTO AT OR ABOVE 9000"
            },
            "sub_fixes": [],
            "transitions": []
        },
        {
            "name": "MOKT1Q",
            "rnw": "17",
            "fixes": {
                "40VOR": "OVERFLY 40VOR AT OR ABOVE 1000 TURN LEFT DIRECT",
                "D100B": "D100B AT OR ABOVE 5000 SPEED 200",
                "TAG": "TAG",
                "MOKTO": "MOKTO AT OR ABOVE 9000"
            },
            "sub_fixes": [],
            "transitions": []
        },
        {
            "name": "ROBO1H",
            "rnw": "17",
            "fixes": {
                "BG602": "OVERFLY BG602 AT OR ABOVE 1500 SPEED 220 TURN LEFT DIRECT",
                "BG606": "BG606 AT OR ABOVE 5000 SPEED 220",
                "ROBOT": "ROBOT AT OR ABOVE 9000"
            },
            "sub_fixes": [],
            "transitions": []
        },
        {
            "name": "ROBO1T",
            "rnw": "35",
            "fixes": {
                "BG601": "OVERFLY BG601 AT OR ABOVE 1400 SPEED 200 TURN LEFT DIRECT",
                "TAG": "OVERFLY TAG AT OR ABOVE 5000 SPEED 200 TURN LEFT DIRECT",
                "ROBOT": "ROBOT AT OR ABOVE 9000"
            },
            "sub_fixes": [],
            "transitions": []
        },
        {
            "name": "ROBO6P",
            "rnw": "35",
            "fixes": {
                "D335D": "OVERFLY D335D AT OR ABOVE 1300 TURN LEFT DIRECT",
                "TAG": "OVERFLY TAG AT OR ABOVE 5000 SPEED 200 TURN LEFT TRK 340 INTERCEPT RADIAL 009 TO",
                "D009G": "D009G AT OR ABOVE 7000",
                "ROBOT": "ROBOT AT OR ABOVE 9000"
            },
            "sub_fixes": [],
            "transitions": []
        },
        {
            "name": "ROBO6Q",
            "rnw": "17",
            "fixes": {
                "40VOR": "OVERFLY 40VOR AT OR ABOVE 1000 TURN LEFT DIRECT",
                "D100B": "OVERFLY D100B AT OR ABOVE 5000 SPEED 200",
                "ROBOT": "ROBOT AT OR ABOVE 9000 SPEED 200"
            },
            "sub_fixes": [],
            "transitions": []
        }
    ],
    "stars": [
        {
            "name": "KAPO1A",
            "runway": "RNW 17 RNW 35",
            "fixes": {
                "KAPPO": "KAPPO",
                "D073R": "D073R",
                "TAG": "TAG"
            }
        },
        {
            "name": "KAPO1X",
            "runway": "RNW 35",
            "fixes": {
                "KAPPO": "KAPPO",
                "BG401": "BG401 AT OR ABOVE 7000",
                "MEFRE": "MEFRE AT OR ABOVE 5000"
            }
        },
        {
            "name": "LCC1A",
            "runway": "RNW 17 RNW 35",
            "fixes": {
                "LCC": "LCC",
                "D304V": "D304V",
                "LCC27": "LCC27",
                "D073J": "D073J",
                "TAG": "TAG"
            }
        },
        {
            "name": "LCC1X",
            "runway": "RNW 35",
            "fixes": {
                "LCC": "LCC",
                "BG403": "BG403 AT OR ABOVE 7000",
                "BG402": "BG402 AT OR ABOVE 5000 SPEED 230",
                "MEFRE": "MEFRE AT OR ABOVE 5000"
            }
        },
        {
            "name": "MASA1A",
            "runway": "RNW 17 RNW 35",
            "fixes": {
                "MASAX": "MASAX",
                "TAG": "TAG"
            }
        },
        {
            "name": "MOKT1A",
            "runway": "RNW 17 RNW 35",
            "fixes": {
                "MOKTO": "MOKTO",
                "TAG": "TAG"
            }
        },
        {
            "name": "MOKT1X",
            "runway": "RNW 35",
            "fixes": {
                "MOKTO": "MOKTO",
                "MEFRE": "MEFRE AT OR ABOVE 5000"
            }
        },
        {
            "name": "ROBO1M",
            "runway": "RNW 17 RNW 35",
            "fixes": {
                "ROBOT": "ROBOT",
                "TAG": "TAG"
            }
        },
        {
            "name": "ROBO1X",
            "runway": "RNW 35",
            "fixes": {
                "ROBOT": "ROBOT",
                "MEFRE": "MEFRE AT OR ABOVE 5000"
            }
        }
    ],
    "approaches": [
        {
            "name": "VORDZ35",
            "fixes": {
                "CD35": "CD35 AT OR ABOVE 2000",
                "MASAX": "MASAX 2000 MASAX 3000 HOLD AT MASAX RIGHT TURN INBOUNDCOURSE 346 ALT 3000 SPEED 200 LEGDIST 4 FAF MASAX MAP MD35",
                "40VOR": "40VOR AT OR ABOVE 1330",
                "MD35": "MD35 697 RNW 35",
                "TAG": "TAG TRK 346 UNTIL 3.0 FROM TAG TURN LEFT TRK 135 INTERCEPT RADIAL 090 TO",
                "D270B": "D270B SPEED 200 OVERFLY D270B"
            },
            "transitions": [
                {
                    "name": "TAG1",
                    "fixes": {
                        "TAG": "TAG AT OR ABOVE 5000 SPEED 200 TRK 149 UNTIL 10.0 FROM TAG"
                    }
                },
                {
                    "name": "TAG2",
                    "fixes": {
                        "TAG": "TAG AT OR ABOVE 5000 SPEED 140 TRK 157 UNTIL 10.0 FROM TAG"
                    }
                }
            ]
        },
        {
            "name": "ILSZ35",
            "fixes": {
                "CI35": "CI35 AT OR ABOVE 2200",
                "FI35": "FI35 2200 RNW 35",
                "D345C": "OVERFLY D345C AT OR ABOVE 800 TURN LEFT TRK 135 INTERCEPT RADIAL 090 TO",
                "D270B": "D270B SPEED 185 OVERFLY D270B",
                "MASAX": "MASAX 3000 HOLD AT MASAX RIGHT TURN INBOUNDCOURSE 346 ALT 3000 SPEED 200 LEGDIST 4 FAF FI35 MAP RNW 35"
            },
            "transitions": [
                {
                    "name": "TAG1",
                    "fixes": {
                        "TAG": "TAG AT OR ABOVE 5000 SPEED 200 TRK 148 UNTIL 10.0 FROM TAG TURN RIGHT DIRECT",
                        "D165K": "D165K AT OR ABOVE 2200"
                    }
                },
                {
                    "name": "TAG2",
                    "fixes": {
                        "TAG": "TAG AT OR ABOVE 5000 SPEED 140 TRK 156 UNTIL 10.0 FROM TAG TURN RIGHT DIRECT",
                        "D165K": "D165K AT OR ABOVE 2200"
                    }
                }
            ]
        },
        {
            "name": "RNAVY35",
            "fixes": {
                "BG708": "BG708 AT OR ABOVE 2200 SPEED 185",
                "BG505": "BG505 1800 RNW 35",
                "BG536": "OVERFLY BG536 SPEED 185 TURN LEFT DIRECT",
                "BG527": "BG527 AT OR ABOVE 2200 SPEED 185",
                "ATTEC": "ATTEC AT OR ABOVE 3000 SPEED 185 HOLD AT ATTEC RIGHT TURN INBOUNDCOURSE 120 ALT 3000 SPEED 185 LEGDIST 3 FAF BG505 MAP RNW 35"
            },
            "transitions": [
                {
                    "name": "ATTEC",
                    "fixes": {
                        "ATTEC": "ATTEC AT OR ABOVE 3000",
                        "BG516": "BG516 AT OR ABOVE 3000 SPEED 210",
                        "BG512": "BG512 AT OR ABOVE 2500 SPEED 200"
                    }
                },
                {
                    "name": "MEFRE",
                    "fixes": {
                        "MEFRE": "MEFRE AT OR ABOVE 5000",
                        "BG516": "BG516 AT OR ABOVE 3000 SPEED 210",
                        "BG512": "BG512 AT OR ABOVE 2500 SPEED 200"
                    }
                }
            ]
        },
        {
            "name": "RNAVZ35",
            "fixes": {
                "BG508": "BG508 AT OR ABOVE 2200 SPEED 185",
                "BG505": "BG505 1800",
                "BG501": "OVERFLY BG501 643 RNW 35 TURN LEFT DIRECT",
                "BG527": "BG527 AT OR ABOVE 2200 SPEED 185",
                "ATTEC": "ATTEC AT OR ABOVE 3000 SPEED 185 HOLD AT ATTEC RIGHT TURN INBOUNDCOURSE 120 ALT 3000 SPEED 185 LEGDIST 3 FAF BG505 MAP BG501"
            },
            "transitions": [
                {
                    "name": "ATTEC",
                    "fixes": {
                        "ATTEC": "ATTEC AT OR ABOVE 3000",
                        "BG516": "BG516 AT OR ABOVE 3000 SPEED 210",
                        "BG512": "BG512 AT OR ABOVE 2500 SPEED 200"
                    }
                },
                {
                    "name": "MEFRE",
                    "fixes": {
                        "MEFRE": "MEFRE AT OR ABOVE 5000",
                        "BG516": "BG516 AT OR ABOVE 3000 SPEED 210",
                        "BG512": "BG512 AT OR ABOVE 2500 SPEED 200"
                    }
                }
            ]
        }
    ]
}