{
    "fixes": [
        {
            "name": "41VOR",
            "lat": 40.60477778333333,
            "lon": 18.00675
        },
        {
            "name": "ABADI",
            "lat": 40.755277783333334,
            "lon": 18.641666666666666
        },
        {
            "name": "AF001",
            "lat": 40.572665416666666,
            "lon": 18.261196833333333
        },
        {
            "name": "AF002",
            "lat": 40.525767583333334,
            "lon": 18.230838316666667
        },
        {
            "name": "AF003",
            "lat": 40.57952576666667,
            "lon": 18.264372083333335
        },
        {
            "name": "AF004",
            "lat": 40.53829535,
            "lon": 18.240554483333334
        },
        {
            "name": "AF005",
            "lat": 40.90806965,
            "lon": 17.973071333333333
        },
        {
            "name": "AF006",
            "lat": 40.90775143333333,
            "lon": 17.925004066666666
        },
        {
            "name": "AF007",
            "lat": 40.89294821666667,
            "lon": 17.836999116666668
        },
        {
            "name": "AF008",
            "lat": 40.87989781666667,
            "lon": 17.798386616666665
        },
        {
            "name": "AF009",
            "lat": 40.89139095,
            "lon": 17.831607316666666
        },
        {
            "name": "AF010",
            "lat": 40.875697933333335,
            "lon": 17.788270333333333
        },
        {
            "name": "ARBIP",
            "lat": 40.50052778333333,
            "lon": 18.11272221666667
        },
        {
            "name": "BCS",
            "lat": 40.65858333333333,
            "lon": 17.951916666666666
        },
        {
            "name": "BR501",
            "lat": 40.59580556666667,
            "lon": 18.142533333333333
        },
        {
            "name": "BR502",
            "lat": 40.546872216666664,
            "lon": 18.201933333333333
        },
        {
            "name": "BR503",
            "lat": 40.53825833333333,
            "lon": 18.093255566666667
        },
        {
            "name": "BR506",
            "lat": 40.815333333333335,
            "lon": 17.908408333333334
        },
        {
            "name": "BR507",
            "lat": 40.87717778333333,
            "lon": 17.834805566666667
        },
        {
            "name": "BR511",
            "lat": 40.61173888333333,
            "lon": 18.134086116666666
        },
        {
            "name": "BR512",
            "lat": 40.788972216666664,
            "lon": 17.786908333333333
        },
        {
            "name": "BR513",
            "lat": 40.56390278333333,
            "lon": 18.062072216666667
        },
        {
            "name": "BR514",
            "lat": 40.79179443333334,
            "lon": 17.78344166666667
        },
        {
            "name": "BR516",
            "lat": 40.76741666666667,
            "lon": 17.813372216666668
        },
        {
            "name": "BR601",
            "lat": 40.70920278333333,
            "lon": 17.884725
        },
        {
            "name": "BR602",
            "lat": 40.52505,
            "lon": 18.398505566666667
        },
        {
            "name": "BR603",
            "lat": 40.35819443333333,
            "lon": 18.61415
        },
        {
            "name": "BR604",
            "lat": 40.60627778333333,
            "lon": 18.454538883333335
        },
        {
            "name": "CD13",
            "lat": 40.774444433333336,
            "lon": 17.794361116666668
        },
        {
            "name": "CD31",
            "lat": 40.537055566666666,
            "lon": 18.075638883333333
        },
        {
            "name": "CI31",
            "lat": 40.538277783333335,
            "lon": 18.093277783333335
        },
        {
            "name": "D008I",
            "lat": 40.80530278333333,
            "lon": 17.993533333333332
        },
        {
            "name": "D008K",
            "lat": 40.83790556666667,
            "lon": 18.002808333333334
        },
        {
            "name": "D008L",
            "lat": 40.854205566666664,
            "lon": 18.007447216666666
        },
        {
            "name": "D008R",
            "lat": 40.952005566666664,
            "lon": 18.035336116666667
        },
        {
            "name": "D075M",
            "lat": 40.69835833333333,
            "lon": 18.231863883333332
        },
        {
            "name": "D075N",
            "lat": 40.70138888333334,
            "lon": 18.253411116666665
        },
        {
            "name": "D075Q",
            "lat": 40.710461116666664,
            "lon": 18.318069433333335
        },
        {
            "name": "D094K",
            "lat": 40.63174443333333,
            "lon": 18.190175
        },
        {
            "name": "D094O",
            "lat": 40.621861116666665,
            "lon": 18.276766666666667
        },
        {
            "name": "D094Q",
            "lat": 40.616897216666665,
            "lon": 18.320052783333335
        },
        {
            "name": "D105I",
            "lat": 40.61120278333333,
            "lon": 18.131936116666665
        },
        {
            "name": "D124K",
            "lat": 40.546427783333336,
            "lon": 18.142394433333333
        },
        {
            "name": "D125O",
            "lat": 40.50227221666667,
            "lon": 18.208097216666665
        },
        {
            "name": "D125Q",
            "lat": 40.48138611666667,
            "lon": 18.242163883333333
        },
        {
            "name": "D130D",
            "lat": 40.61801943333333,
            "lon": 18.007019433333333
        },
        {
            "name": "D130O",
            "lat": 40.48455833333333,
            "lon": 18.187605566666665
        },
        {
            "name": "D133O",
            "lat": 40.47540278333334,
            "lon": 18.175338883333332
        },
        {
            "name": "D274H",
            "lat": 40.67721388333333,
            "lon": 17.778408333333335
        },
        {
            "name": "D274M",
            "lat": 40.688725,
            "lon": 17.669919433333334
        },
        {
            "name": "D274R",
            "lat": 40.70013611666667,
            "lon": 17.561391666666665
        },
        {
            "name": "D282O",
            "lat": 40.727105566666665,
            "lon": 17.63581943333333
        },
        {
            "name": "D293O",
            "lat": 40.77178333333333,
            "lon": 17.658725
        },
        {
            "name": "D293R",
            "lat": 40.79615,
            "lon": 17.601186116666668
        },
        {
            "name": "D302O",
            "lat": 40.80531666666667,
            "lon": 17.685572216666667
        },
        {
            "name": "D305O",
            "lat": 40.815730566666666,
            "lon": 17.696025
        },
        {
            "name": "D318O",
            "lat": 40.855533333333334,
            "lon": 17.749075
        },
        {
            "name": "D321O",
            "lat": 40.86334721666667,
            "lon": 17.762919433333334
        },
        {
            "name": "D334Q",
            "lat": 40.92231666666667,
            "lon": 17.815025
        },
        {
            "name": "D343O",
            "lat": 40.90230833333333,
            "lon": 17.87775
        },
        {
            "name": "DAMIC",
            "lat": 40.46055556666666,
            "lon": 18.276111116666666
        },
        {
            "name": "DOLON",
            "lat": 40.88916666666667,
            "lon": 17.594444433333333
        },
        {
            "name": "ENOXA",
            "lat": 41.20138888333334,
            "lon": 17.668888883333334
        },
        {
            "name": "FASAN",
            "lat": 40.86388888333333,
            "lon": 17.426944433333333
        },
        {
            "name": "FD13",
            "lat": 40.745638883333335,
            "lon": 17.833583333333333
        },
        {
            "name": "FD31",
            "lat": 40.56466666666667,
            "lon": 18.047583333333332
        },
        {
            "name": "FI31",
            "lat": 40.58327778333334,
            "lon": 18.038472216666666
        },
        {
            "name": "GODUB",
            "lat": 40.82122221666667,
            "lon": 17.753416666666666
        },
        {
            "name": "GOKEL",
            "lat": 40.598333333333336,
            "lon": 19.0
        },
        {
            "name": "KAPPO",
            "lat": 40.61083333333333,
            "lon": 18.002777783333332
        },
        {
            "name": "LOMEF",
            "lat": 40.80916666666667,
            "lon": 17.746972216666666
        },
        {
            "name": "MD13",
            "lat": 40.68177778333333,
            "lon": 17.920444433333333
        },
        {
            "name": "MD31",
            "lat": 40.64941666666667,
            "lon": 17.96125
        },
        {
            "name": "NOGLU",
            "lat": 40.501583333333336,
            "lon": 18.137805566666668
        },
        {
            "name": "NUCRE",
            "lat": 40.60694443333333,
            "lon": 18.406388883333335
        },
        {
            "name": "ORSOM",
            "lat": 40.365833333333335,
            "lon": 18.446666666666665
        },
        {
            "name": "ROBOT",
            "lat": 40.70972221666667,
            "lon": 17.469444433333333
        },
        {
            "name": "TIGRA",
            "lat": 40.056666666666665,
            "lon": 19.0
        },
        {
            "name": "TROTA",
            "lat": 41.05861111666667,
            "lon": 18.065833333333334
        },
        {
            "name": "XAPAT",
            "lat": 40.608055566666664,
            "lon": 18.290555566666665
        }
    ],
    "rnws": [
        "RNW 05",
        "RNW 13",
        "RNW 23",
        "RNW 31"
    ],
    "sids": [
        {
            "name": "ABAD6G",
            "rnw": "13",
            "fixes": {
                "KAPPO": "OVERFLY KAPPO AT OR ABOVE 1200 TRK 029 INTERCEPT RADIAL 075 FROM",
                "BCS": "BCS SPEED 250",
                "D075M": "D075M AT OR ABOVE 5000",
                "ABADI": "ABADI AT OR ABOVE 10000"
            },
            "sub_fixes": [],
            "transitions": []
        },
        {
            "name": "DOLO6G",
            "rnw": "13",
            "fixes": {
                "KAPPO": "OVERFLY KAPPO AT OR ABOVE 1200 TRK 323 INTERCEPT RADIAL 066 FROM",
                "BCS": "BCS SPEED 250 TRK 276 INTERCEPT RADIAL 306 TO",
                "DOLON": "DOLON AT OR ABOVE 10000"
            },
            "sub_fixes": [],
            "transitions": []
        },
        {
            "name": "DOLO6J",
            "rnw": "31",
            "fixes": {
                "BCS": "BCS",
                "DOLON": "DOLON AT OR ABOVE 10000 SPEED 250"
            },
            "sub_fixes": [],
            "transitions": []
        },
        {
            "name": "ENOX6G",
            "rnw": "13",
            "fixes": {
                "KAPPO": "OVERFLY KAPPO AT OR ABOVE 1200 TRK 323 INTERCEPT RADIAL 066 FROM",
                "BCS": "BCS SPEED 250 TRK 289 INTERCEPT RADIAL 334 TO",
                "ENOXA": "ENOXA AT OR ABOVE 10000"
            },
            "sub_fixes": [],
            "transitions": []
        },
        {
            "name": "ENOX6J",
            "rnw": "31",
            "fixes": {
                "BCS": "BCS TRK 019 INTERCEPT RADIAL 334 TO",
                "ENOXA": "ENOXA AT OR ABOVE 10000"
            },
            "sub_fixes": [],
            "transitions": []
        },
        {
            "name": "FASA6G",
            "rnw": "13",
            "fixes": {
                "KAPPO": "OVERFLY KAPPO AT OR ABOVE 1200 TRK 323 INTERCEPT RADIAL 066 FROM",
                "BCS": "BCS AT OR ABOVE 5000",
                "FASAN": "FASAN AT OR ABOVE 10000"
            },
            "sub_fixes": [],
            "transitions": []
        },
        {
            "name": "FASA6J",
            "rnw": "31",
            "fixes": {
                "BCS": "BCS TRK 263 INTERCEPT RADIAL 293 TO",
                "FASAN": "FASAN AT OR ABOVE 10000"
            },
            "sub_fixes": [],
            "transitions": []
        },
        {
            "name": "GOKE6C",
            "rnw": "13",
            "fixes": {
                "KAPPO": "OVERFLY KAPPO AT OR ABOVE 1000 SPEED 210",
                "XAPAT": "XAPAT SPEED 250",
                "BR604": "BR604 AT OR ABOVE 8000",
                "GOKEL": "GOKEL"
            },
            "sub_fixes": [],
            "transitions": []
        },
        {
            "name": "KAPO6J",
            "rnw": "31",
            "fixes": {
                "BCS": "BCS",
                "D274H": "D274H AT OR ABOVE 5000 SPEED 250",
                "KAPPO": "KAPPO AT OR ABOVE 10000"
            },
            "sub_fixes": [],
            "transitions": []
        },
        {
            "name": "NUCR6G",
            "rnw": "13",
            "fixes": {
                "KAPPO": "OVERFLY KAPPO AT OR ABOVE 1600 TURN LEFT TRK 059 INTERCEPT RADIAL 094 TO",
                "D094K": "D094K AT OR ABOVE 5000",
                "NUCRE": "NUCRE AT OR ABOVE 10000"
            },
            "sub_fixes": [],
            "transitions": []
        },
        {
            "name": "ORSO6G",
            "rnw": "13",
            "fixes": {
                "KAPPO": "OVERFLY KAPPO AT OR ABOVE 1200",
                "D124K": "D124K AT OR ABOVE 3500 SPEED 250",
                "ORSOM": "ORSOM AT OR ABOVE 10000"
            },
            "sub_fixes": [],
            "transitions": []
        },
        {
            "name": "ROBO6G",
            "rnw": "13",
            "fixes": {
                "KAPPO": "OVERFLY KAPPO AT OR ABOVE 1200 TRK 323 INTERCEPT RADIAL 066 FROM",
                "BCS": "BCS AT OR ABOVE 5000",
                "ROBOT": "ROBOT AT OR ABOVE 10000"
            },
            "sub_fixes": [],
            "transitions": []
        },
        {
            "name": "ROBO6J",
            "rnw": "31",
            "fixes": {
                "BCS": "BCS TURN LEFT TRK 220 INTERCEPT RADIAL 274 TO",
                "ROBOT": "ROBOT AT OR ABOVE 10000"
            },
            "sub_fixes": [],
            "transitions": []
        },
        {
            "name": "TIGR6C",
            "rnw": "13",
            "fixes": {
                "KAPPO": "OVERFLY KAPPO AT OR ABOVE 1000 SPEED 210",
                "XAPAT": "XAPAT SPEED 250",
                "BR602": "BR602 AT OR ABOVE 8000",
                "BR603": "BR603 AT OR ABOVE 11000",
                "TIGRA": "TIGRA"
            },
            "sub_fixes": [],
            "transitions": []
        },
        {
            "name": "TROT6G",
            "rnw": "13",
            "fixes": {
                "KAPPO": "OVERFLY KAPPO AT OR ABOVE 1200 TRK 323 INTERCEPT RADIAL 066 FROM",
                "BCS": "BCS SPEED 220 TRK 323 INTERCEPT RADIAL 008 TO",
                "D008K": "D008K AT OR ABOVE 5000",
                "TROTA": "TROTA AT OR ABOVE 10000"
            },
            "sub_fixes": [],
            "transitions": []
        },
        {
            "name": "TROT6J",
            "rnw": "31",
            "fixes": {
                "BCS": "BCS TURN RIGHT TRK 053 INTERCEPT RADIAL 008 TO",
                "D008L": "D008L AT OR ABOVE 5000 SPEED 220",
                "TROTA": "TROTA AT OR ABOVE 10000"
            },
            "sub_fixes": [],
            "transitions": []
        },
        {
            "name": "XAPA6C",
            "rnw": "31",
            "fixes": {
                "BR601": "OVERFLY BR601 AT OR ABOVE 1000 SPEED 230 TURN RIGHT DIRECT",
                "XAPAT": "XAPAT"
            },
            "sub_fixes": [],
            "transitions": []
        }
    ],
    "stars": [
        {
            "name": "ABAD2D",
            "runway": "RNW 31",
            "fixes": {
                "ABADI": "ABADI",
                "D075Q": "D075Q",
                "D094O": "D094O",
                "AF001": "AF001",
                "AF002": "AF002",
                "D130O": "D130O TURN RIGHT DIRECT",
                "ARBIP": "ARBIP"
            }
        },
        {
            "name": "ABAD2R",
            "runway": "RNW 13",
            "fixes": {
                "ABADI": "ABADI",
                "D075N": "D075N",
                "BCS": "BCS"
            }
        },
        {
            "name": "ABAD2Y",
            "runway": "RNW 31",
            "fixes": {
                "ABADI": "ABADI",
                "D075Q": "D075Q",
                "D094O": "D094O",
                "AF003": "AF003",
                "AF004": "AF004",
                "D125O": "D125O",
                "D133O": "D133O",
                "NOGLU": "NOGLU"
            }
        },
        {
            "name": "DAMI2D",
            "runway": "RNW 31",
            "fixes": {
                "DAMIC": "DAMIC",
                "D125Q": "D125Q",
                "D130O": "D130O TURN RIGHT DIRECT",
                "ARBIP": "ARBIP"
            }
        },
        {
            "name": "DAMI2R",
            "runway": "RNW 13",
            "fixes": {
                "DAMIC": "DAMIC",
                "BCS": "BCS"
            }
        },
        {
            "name": "DAMI2Y",
            "runway": "RNW 31",
            "fixes": {
                "DAMIC": "DAMIC",
                "D125Q": "D125Q",
                "D125O": "D125O",
                "D133O": "D133O",
                "NOGLU": "NOGLU"
            }
        },
        {
            "name": "DOLO2R",
            "runway": "RNW 13",
            "fixes": {
                "DOLON": "DOLON TRK 100 INTERCEPT RADIAL 133 TO",
                "GODUB": "GODUB GODUB"
            }
        },
        {
            "name": "DOLO2V",
            "runway": "RNW 13",
            "fixes": {
                "DOLON": "DOLON TRK 100 INTERCEPT RADIAL 130 TO",
                "LOMEF": "LOMEF LOMEF"
            }
        },
        {
            "name": "DOLO2Y",
            "runway": "RNW 31",
            "fixes": {
                "DOLON": "DOLON",
                "BCS": "BCS"
            }
        },
        {
            "name": "ENOX2R",
            "runway": "RNW 13",
            "fixes": {
                "ENOXA": "ENOXA",
                "D334Q": "D334Q",
                "D321O": "D321O TURN LEFT DIRECT",
                "GODUB": "GODUB SPEED 200"
            }
        },
        {
            "name": "ENOX2V",
            "runway": "RNW 13",
            "fixes": {
                "ENOXA": "ENOXA",
                "D334Q": "D334Q",
                "D318O": "D318O TURN LEFT DIRECT",
                "LOMEF": "LOMEF SPEED 200"
            }
        },
        {
            "name": "ENOX2Y",
            "runway": "RNW 31",
            "fixes": {
                "ENOXA": "ENOXA",
                "D334Q": "D334Q",
                "BCS": "BCS"
            }
        },
        {
            "name": "FASA2R",
            "runway": "RNW 13",
            "fixes": {
                "FASAN": "FASAN",
                "D293R": "D293R",
                "D305O": "D305O TURN RIGHT DIRECT",
                "GODUB": "GODUB SPEED 200"
            }
        },
        {
            "name": "FASA2V",
            "runway": "RNW 13",
            "fixes": {
                "FASAN": "FASAN",
                "D293R": "D293R",
                "D302O": "D302O TURN RIGHT DIRECT",
                "LOMEF": "LOMEF SPEED 200"
            }
        },
        {
            "name": "FASA2Y",
            "runway": "RNW 31",
            "fixes": {
                "FASAN": "FASAN",
                "D293R": "D293R",
                "BCS": "BCS"
            }
        },
        {
            "name": "NUCR2D",
            "runway": "RNW 31",
            "fixes": {
                "NUCRE": "NUCRE",
                "D094Q": "D094Q",
                "AF001": "AF001",
                "AF002": "AF002",
                "D130O": "D130O TURN RIGHT DIRECT",
                "ARBIP": "ARBIP"
            }
        },
        {
            "name": "NUCR2Y",
            "runway": "RNW 31",
            "fixes": {
                "NUCRE": "NUCRE",
                "D094Q": "D094Q",
                "AF003": "AF003",
                "AF004": "AF004",
                "D125O": "D125O",
                "D133O": "D133O",
                "NOGLU": "NOGLU"
            }
        },
        {
            "name": "ROBO2R",
            "runway": "RNW 13",
            "fixes": {
                "ROBOT": "ROBOT",
                "D274R": "D274R",
                "D282O": "D282O",
                "D293O": "D293O",
                "D305O": "D305O TURN RIGHT DIRECT",
                "GODUB": "GODUB SPEED 200"
            }
        },
        {
            "name": "ROBO2V",
            "runway": "RNW 13",
            "fixes": {
                "ROBOT": "ROBOT",
                "D274R": "D274R",
                "D282O": "D282O",
                "D293O": "D293O",
                "D302O": "D302O TURN RIGHT DIRECT",
                "LOMEF": "LOMEF SPEED 200"
            }
        },
        {
            "name": "ROBO2Y",
            "runway": "RNW 31",
            "fixes": {
                "ROBOT": "ROBOT",
                "D274M": "D274M",
                "BCS": "BCS"
            }
        },
        {
            "name": "TROT2R",
            "runway": "RNW 13",
            "fixes": {
                "TROTA": "TROTA",
                "D008R": "D008R",
                "AF005": "AF005",
                "AF006": "AF006",
                "D343O": "D343O",
                "AF007": "AF007",
                "AF008": "AF008",
                "D321O": "D321O TURN LEFT DIRECT",
                "GODUB": "GODUB SPEED 200"
            }
        },
        {
            "name": "TROT2V",
            "runway": "RNW 13",
            "fixes": {
                "TROTA": "TROTA",
                "D008R": "D008R",
                "AF005": "AF005",
                "AF006": "AF006",
                "D343O": "D343O",
                "AF009": "AF009",
                "AF010": "AF010",
                "D318O": "D318O TURN LEFT DIRECT",
                "LOMEF": "LOMEF SPEED 200"
            }
        },
        {
            "name": "TROT2Y",
            "runway": "RNW 31",
            "fixes": {
                "TROTA": "TROTA",
                "D008I": "D008I",
                "BCS": "BCS"
            }
        },
        {
            "name": "XAPA2R",
            "runway": "RNW 05 RNW 13 RNW 23 RNW 31",
            "fixes": {
                "XAPAT": "XAPAT",
                "BCS": "BCS"
            }
        }
    ],
    "approaches": [
        {
            "name": "VORD13",
            "fixes": {
                "CD13": "CD13 AT OR ABOVE 2300",
                "FD13": "FD13 2000",
                "MD13": "MD13 242 RNW 13",
                "BCS": "BCS",
                "D130D": "OVERFLY D130D TRK 075 INTERCEPT RADIAL 105 TO",
                "D105I": "D105I SPEED 185 D105I 2500 HOLD AT D105I RIGHT TURN INBOUNDCOURSE 285 ALT 2500 SPEED 185 LEGDIST 3 FAF FD13 MAP MD13"
            },
            "transitions": [
                {
                    "name": "BCS1",
                    "fixes": {
                        "BCS": "BCS AT OR ABOVE 4000 TRK 336 UNTIL 10.0 FROM BCS"
                    }
                },
                {
                    "name": "BCS2",
                    "fixes": {
                        "BCS": "BCS AT OR ABOVE 4000 TRK 319 UNTIL 10.0 FROM BCS"
                    }
                },
                {
                    "name": "LOMEF",
                    "fixes": {
                        "LOMEF": "LOMEF AT OR ABOVE 3000"
                    }
                }
            ]
        },
        {
            "name": "VORD31",
            "fixes": {
                "CD31": "CD31 AT OR ABOVE 2350",
                "FD31": "FD31 2350",
                "41VOR": "41VOR AT OR ABOVE 1380",
                "MD31": "MD31 307 RNW 31",
                "LOMEF": "LOMEF 2500 HOLD AT LOMEF LEFT TURN INBOUNDCOURSE 130 ALT 2500 SPEED 200 LEGDIST 3 FAF FD31 MAP MD31"
            },
            "transitions": [
                {
                    "name": "ARBIP",
                    "fixes": {
                        "ARBIP": "ARBIP AT OR ABOVE 3500"
                    }
                },
                {
                    "name": "BCS1",
                    "fixes": {
                        "BCS": "BCS AT OR ABOVE 4000 TRK 123 UNTIL 12.0 FROM BCS SPEED 210 TURN RIGHT DIRECT",
                        "ARBIP": "ARBIP AT OR ABOVE 3500"
                    }
                },
                {
                    "name": "BCS2",
                    "fixes": {
                        "BCS": "BCS AT OR ABOVE 4000 TRK 130 UNTIL 12.0 FROM BCS SPEED 140 TURN RIGHT DIRECT",
                        "ARBIP": "ARBIP AT OR ABOVE 3500"
                    }
                }
            ]
        },
        {
            "name": "ILS31",
            "fixes": {
                "CI31": "CI31 AT OR ABOVE 2350",
                "FI31": "FI31 2000 RNW 31 TRK 313 INTERCEPT RADIAL 310 TO",
                "LOMEF": "LOMEF LOMEF 2500 HOLD AT LOMEF LEFT TURN INBOUNDCOURSE 130 ALT 2500 SPEED 200 LEGDIST 3 FAF FI31 MAP RNW 31"
            },
            "transitions": [
                {
                    "name": "BCS1",
                    "fixes": {
                        "BCS": "BCS AT OR ABOVE 4000 TRK 119 UNTIL 12.7 FROM BCS SPEED 210 TURN RIGHT DIRECT",
                        "NOGLU": "NOGLU AT OR ABOVE 3500"
                    }
                },
                {
                    "name": "BCS2",
                    "fixes": {
                        "BCS": "BCS AT OR ABOVE 4000 TRK 126 UNTIL 12.7 FROM BCS SPEED 140 TURN RIGHT DIRECT",
                        "NOGLU": "NOGLU AT OR ABOVE 3500"
                    }
                },
                {
                    "name": "NOGLU",
                    "fixes": {
                        "NOGLU": "NOGLU AT OR ABOVE 3500"
                    }
                }
            ]
        },
        {
            "name": "RNAV13",
            "fixes": {
                "BR514": "BR514 AT OR ABOVE 2500",
                "BR516": "BR516 2500 RNW 13",
                "KAPPO": "KAPPO AT OR ABOVE 1200 SPEED 185",
                "BR511": "OVERFLY BR511 AT OR ABOVE 2500 SPEED 185 HOLD AT BR511 RIGHT TURN INBOUNDCOURSE 265 ALT 2500 SPEED 185 LEGDIST 3 FAF BR516 MAP RNW 13"
            },
            "transitions": [
                {
                    "name": "BCS",
                    "fixes": {
                        "BCS": "BCS AT OR ABOVE 4000",
                        "BR506": "BR506 AT OR ABOVE 3500",
                        "BR507": "BR507 SPEED 200",
                        "GODUB": "GODUB AT OR ABOVE 2500 SPEED 200"
                    }
                },
                {
                    "name": "GODUB",
                    "fixes": {
                        "GODUB": "GODUB AT OR ABOVE 3000"
                    }
                }
            ]
        },
        {
            "name": "RNAV31",
            "fixes": {
                "BR503": "BR503 AT OR ABOVE 2500",
                "BR513": "BR513 2500 RNW 31",
                "BR512": "BR512 AT OR ABOVE 2500 SPEED 185 HOLD AT BR512 RIGHT TURN INBOUNDCOURSE 133 ALT 2500 SPEED 185 LEGDIST 3 FAF BR513 MAP RNW 31"
            },
            "transitions": [
                {
                    "name": "BCS",
                    "fixes": {
                        "BCS": "BCS AT OR ABOVE 4000",
                        "BR501": "BR501",
                        "BR502": "BR502 SPEED 200",
                        "NOGLU": "NOGLU AT OR ABOVE 3500 SPEED 200"
                    }
                },
                {
                    "name": "NOGLU",
                    "fixes": {
                        "NOGLU": "NOGLU AT OR ABOVE 3500"
                    }
                }
            ]
        }
    ]
}