{
    "fixes": [
        {
            "name": "35VOR",
            "lat": 40.85739721666667,
            "lon": 9.437541666666666
        },
        {
            "name": "50VOR",
            "lat": 40.84338888333333,
            "lon": 9.410247216666667
        },
        {
            "name": "AF001",
            "lat": 40.964716616666664,
            "lon": 9.74685275
        },
        {
            "name": "AF002",
            "lat": 40.92449181666667,
            "lon": 9.761956366666666
        },
        {
            "name": "AF003",
            "lat": 40.88277381666666,
            "lon": 9.7656497
        },
        {
            "name": "AF004",
            "lat": 40.78238113333333,
            "lon": 9.724044916666667
        },
        {
            "name": "AF005",
            "lat": 40.734507066666666,
            "lon": 9.667381933333333
        },
        {
            "name": "AF006",
            "lat": 40.7026842,
            "lon": 9.593667983333333
        },
        {
            "name": "AF007",
            "lat": 40.714272916666665,
            "lon": 9.207722650000001
        },
        {
            "name": "AF008",
            "lat": 40.67118431666667,
            "lon": 9.26366285
        },
        {
            "name": "AF009",
            "lat": 40.63804088333333,
            "lon": 9.330318466666666
        },
        {
            "name": "AF010",
            "lat": 40.94642255,
            "lon": 9.021808366666667
        },
        {
            "name": "AF011",
            "lat": 40.863467766666666,
            "lon": 9.017621216666667
        },
        {
            "name": "AF012",
            "lat": 40.781925683333334,
            "lon": 9.038195416666667
        },
        {
            "name": "AF013",
            "lat": 40.94958345,
            "lon": 9.022466416666667
        },
        {
            "name": "AF014",
            "lat": 40.86985298333333,
            "lon": 9.017057916666667
        },
        {
            "name": "AF015",
            "lat": 40.79112678333333,
            "lon": 9.034583266666667
        },
        {
            "name": "AF016",
            "lat": 40.900985166666665,
            "lon": 9.8758259
        },
        {
            "name": "AF017",
            "lat": 40.966003666666666,
            "lon": 9.862565533333333
        },
        {
            "name": "AF018",
            "lat": 40.9499955,
            "lon": 9.867757083333334
        },
        {
            "name": "AF019",
            "lat": 40.98952033333333,
            "lon": 9.852484583333334
        },
        {
            "name": "AF020",
            "lat": 40.55155956666667,
            "lon": 9.315311216666666
        },
        {
            "name": "AF021",
            "lat": 40.59432051666667,
            "lon": 9.215181966666666
        },
        {
            "name": "AF022",
            "lat": 40.83298618333333,
            "lon": 9.868234183333334
        },
        {
            "name": "AF023",
            "lat": 40.89933773333333,
            "lon": 9.875899016666667
        },
        {
            "name": "AF024",
            "lat": 40.965208866666664,
            "lon": 9.8628544
        },
        {
            "name": "AF025",
            "lat": 41.012768683333334,
            "lon": 9.935275033333333
        },
        {
            "name": "AF026",
            "lat": 40.93381865,
            "lon": 9.960779966666667
        },
        {
            "name": "AGMIK",
            "lat": 40.69833333333333,
            "lon": 9.408611116666666
        },
        {
            "name": "ALG52",
            "lat": 40.956133333333334,
            "lon": 9.300205566666667
        },
        {
            "name": "ATNET",
            "lat": 40.76527778333333,
            "lon": 10.135555566666667
        },
        {
            "name": "BATOX",
            "lat": 41.21277778333334,
            "lon": 10.156388883333333
        },
        {
            "name": "BEBGI",
            "lat": 40.74638888333333,
            "lon": 8.961666666666666
        },
        {
            "name": "BEXIB",
            "lat": 40.79416666666667,
            "lon": 9.051666666666666
        },
        {
            "name": "BOLOT",
            "lat": 40.35666666666667,
            "lon": 8.893888883333334
        },
        {
            "name": "BRIVE",
            "lat": 41.01416666666667,
            "lon": 9.468611116666667
        },
        {
            "name": "CD23",
            "lat": 40.99246111666667,
            "lon": 9.701994433333333
        },
        {
            "name": "CI05",
            "lat": 40.77168888333333,
            "lon": 9.276177783333333
        },
        {
            "name": "CORSI",
            "lat": 41.333333333333336,
            "lon": 8.812222216666667
        },
        {
            "name": "D010C",
            "lat": 40.93880278333334,
            "lon": 9.516116666666667
        },
        {
            "name": "D010E",
            "lat": 40.9713,
            "lon": 9.526025
        },
        {
            "name": "D047Y",
            "lat": 41.15727221666667,
            "lon": 9.923844433333333
        },
        {
            "name": "D053S",
            "lat": 41.06671943333333,
            "lon": 9.848361116666666
        },
        {
            "name": "D058Q",
            "lat": 41.027036116666665,
            "lon": 9.828702783333334
        },
        {
            "name": "D083S",
            "lat": 40.914233333333335,
            "lon": 9.917677783333334
        },
        {
            "name": "D093U",
            "lat": 40.852533333333334,
            "lon": 9.959986116666666
        },
        {
            "name": "D101L",
            "lat": 40.841355566666664,
            "lon": 9.756966666666667
        },
        {
            "name": "D112S",
            "lat": 40.76053888333333,
            "lon": 9.881977783333333
        },
        {
            "name": "D175L",
            "lat": 40.69004721666667,
            "lon": 9.510452783333333
        },
        {
            "name": "D186L",
            "lat": 40.69201388333333,
            "lon": 9.463336116666667
        },
        {
            "name": "D186O",
            "lat": 40.6425,
            "lon": 9.453886116666666
        },
        {
            "name": "D186T",
            "lat": 40.55997778333333,
            "lon": 9.438166666666667
        },
        {
            "name": "D186X",
            "lat": 40.49395556666666,
            "lon": 9.425622216666667
        },
        {
            "name": "D192Q",
            "lat": 40.61615833333333,
            "lon": 9.404980566666667
        },
        {
            "name": "D221E",
            "lat": 40.830047216666664,
            "lon": 9.425016666666666
        },
        {
            "name": "D221K",
            "lat": 40.757969433333336,
            "lon": 9.333686116666666
        },
        {
            "name": "D227V",
            "lat": 40.65362221666667,
            "lon": 9.132227783333333
        },
        {
            "name": "D237V",
            "lat": 40.70584721666667,
            "lon": 9.083733333333333
        },
        {
            "name": "D259G",
            "lat": 40.873675,
            "lon": 9.348986116666667
        },
        {
            "name": "D285G",
            "lat": 40.924986116666666,
            "lon": 9.354455566666667
        },
        {
            "name": "D285H",
            "lat": 40.92855556666667,
            "lon": 9.3394
        },
        {
            "name": "D289X",
            "lat": 41.038947216666664,
            "lon": 9.011155566666666
        },
        {
            "name": "D307L",
            "lat": 41.020127783333336,
            "lon": 9.300616666666667
        },
        {
            "name": "D339G",
            "lat": 41.00252221666667,
            "lon": 9.453036116666667
        },
        {
            "name": "DOGGA",
            "lat": 40.69388888333334,
            "lon": 9.398055566666667
        },
        {
            "name": "EKPOD",
            "lat": 40.442777783333334,
            "lon": 9.191388883333333
        },
        {
            "name": "EKROB",
            "lat": 40.83388888333333,
            "lon": 9.911388883333334
        },
        {
            "name": "EMDEK",
            "lat": 41.02972221666667,
            "lon": 10.0425
        },
        {
            "name": "EO412",
            "lat": 40.993208333333335,
            "lon": 9.698805566666667
        },
        {
            "name": "EO422",
            "lat": 40.84727778333333,
            "lon": 9.009888883333334
        },
        {
            "name": "EO460",
            "lat": 40.88994443333333,
            "lon": 8.963638883333333
        },
        {
            "name": "EO462",
            "lat": 41.12225,
            "lon": 9.018027783333334
        },
        {
            "name": "EO463",
            "lat": 40.953555566666665,
            "lon": 9.897277783333333
        },
        {
            "name": "EO464",
            "lat": 40.985388883333336,
            "lon": 9.144083333333333
        },
        {
            "name": "EO465",
            "lat": 40.85927778333333,
            "lon": 9.715861116666666
        },
        {
            "name": "EO466",
            "lat": 40.937055566666665,
            "lon": 9.322333333333333
        },
        {
            "name": "EO467",
            "lat": 40.74577778333333,
            "lon": 9.498833333333334
        },
        {
            "name": "EO468",
            "lat": 40.507361116666665,
            "lon": 9.315888883333333
        },
        {
            "name": "EO469",
            "lat": 40.602277783333335,
            "lon": 9.495805566666666
        },
        {
            "name": "EO470",
            "lat": 40.69691666666667,
            "lon": 9.676194433333333
        },
        {
            "name": "EO471",
            "lat": 40.83125,
            "lon": 9.273333333333333
        },
        {
            "name": "EO472",
            "lat": 41.02286111666667,
            "lon": 9.098444433333333
        },
        {
            "name": "EO473",
            "lat": 40.883916666666664,
            "lon": 10.033388883333334
        },
        {
            "name": "EO474",
            "lat": 40.885722216666665,
            "lon": 9.22375
        },
        {
            "name": "EO475",
            "lat": 40.836944433333336,
            "lon": 9.942638883333334
        },
        {
            "name": "EO476",
            "lat": 41.17538888333333,
            "lon": 9.777055566666666
        },
        {
            "name": "EO477",
            "lat": 40.98280556666667,
            "lon": 9.951472216666666
        },
        {
            "name": "EO478",
            "lat": 41.269666666666666,
            "lon": 9.959361116666667
        },
        {
            "name": "EO479",
            "lat": 41.07669443333333,
            "lon": 10.133555566666667
        },
        {
            "name": "EO480",
            "lat": 41.17277778333333,
            "lon": 10.046972216666667
        },
        {
            "name": "EO481",
            "lat": 41.07952778333333,
            "lon": 9.864055566666666
        },
        {
            "name": "EO487",
            "lat": 40.55261111666667,
            "lon": 9.2815
        },
        {
            "name": "EO489",
            "lat": 40.52711111666667,
            "lon": 9.401472216666667
        },
        {
            "name": "EO507",
            "lat": 40.79869443333333,
            "lon": 9.327277783333333
        },
        {
            "name": "EO521",
            "lat": 40.98833333333333,
            "lon": 9.689222216666666
        },
        {
            "name": "EO522",
            "lat": 40.846861116666666,
            "lon": 9.817277783333333
        },
        {
            "name": "EO603",
            "lat": 40.98535,
            "lon": 9.681138883333333
        },
        {
            "name": "EO620",
            "lat": 41.22469443333333,
            "lon": 9.331305566666666
        },
        {
            "name": "EO621",
            "lat": 41.15958333333333,
            "lon": 9.202972216666666
        },
        {
            "name": "EO622",
            "lat": 40.82388888333333,
            "lon": 9.839694433333333
        },
        {
            "name": "EO623",
            "lat": 40.492888883333336,
            "lon": 9.590305566666666
        },
        {
            "name": "EO630",
            "lat": 40.820472216666666,
            "lon": 9.368611116666667
        },
        {
            "name": "EO631",
            "lat": 40.76261111666667,
            "lon": 9.258805566666666
        },
        {
            "name": "EO632",
            "lat": 40.78783333333333,
            "lon": 9.080805566666667
        },
        {
            "name": "EO633",
            "lat": 41.03277778333333,
            "lon": 9.232027783333333
        },
        {
            "name": "EO634",
            "lat": 40.60072221666667,
            "lon": 9.321055566666667
        },
        {
            "name": "EO635",
            "lat": 40.66833333333334,
            "lon": 9.720555566666667
        },
        {
            "name": "EO722",
            "lat": 40.89004443333334,
            "lon": 9.501277783333334
        },
        {
            "name": "ERPAV",
            "lat": 41.2225,
            "lon": 9.868055566666667
        },
        {
            "name": "FD05",
            "lat": 40.824702783333336,
            "lon": 9.373869433333333
        },
        {
            "name": "FD23",
            "lat": 40.96735833333334,
            "lon": 9.652669433333333
        },
        {
            "name": "GEKNU",
            "lat": 40.8225,
            "lon": 9.643055566666666
        },
        {
            "name": "GITRI",
            "lat": 40.9275,
            "lon": 10.158055566666667
        },
        {
            "name": "GOKLO",
            "lat": 41.08055556666667,
            "lon": 9.325
        },
        {
            "name": "GOLMU",
            "lat": 40.60333333333333,
            "lon": 9.228611116666666
        },
        {
            "name": "INDUM",
            "lat": 40.979722216666666,
            "lon": 8.851388883333334
        },
        {
            "name": "IPKOV",
            "lat": 40.98444443333333,
            "lon": 9.412777783333333
        },
        {
            "name": "KILLI",
            "lat": 40.80611111666666,
            "lon": 9.891666666666667
        },
        {
            "name": "KOLUS",
            "lat": 40.71805556666666,
            "lon": 9.441111116666667
        },
        {
            "name": "KUGAG",
            "lat": 40.84194443333333,
            "lon": 9.141666666666667
        },
        {
            "name": "LABOM",
            "lat": 40.38222221666667,
            "lon": 9.404444433333333
        },
        {
            "name": "LIDNU",
            "lat": 41.126111116666664,
            "lon": 9.955555566666666
        },
        {
            "name": "MD05",
            "lat": 40.880727783333334,
            "lon": 9.483061116666667
        },
        {
            "name": "MD23",
            "lat": 40.918019433333335,
            "lon": 9.555955566666666
        },
        {
            "name": "MILIS",
            "lat": 41.03277778333333,
            "lon": 9.772777783333334
        },
        {
            "name": "MINKA",
            "lat": 40.81916666666667,
            "lon": 8.855555566666666
        },
        {
            "name": "NUTTU",
            "lat": 40.793055566666666,
            "lon": 9.589166666666667
        },
        {
            "name": "OBIMI",
            "lat": 40.69888888333333,
            "lon": 9.140555566666666
        },
        {
            "name": "ODOGI",
            "lat": 40.935833333333335,
            "lon": 9.860555566666667
        },
        {
            "name": "OKBAD",
            "lat": 40.65083333333333,
            "lon": 9.318611116666666
        },
        {
            "name": "OKIVA",
            "lat": 41.333333333333336,
            "lon": 9.106388883333333
        },
        {
            "name": "OLBEK",
            "lat": 41.258888883333334,
            "lon": 9.853888883333333
        },
        {
            "name": "PIGEG",
            "lat": 41.12833333333333,
            "lon": 9.686111116666666
        },
        {
            "name": "POZZO",
            "lat": 40.94583333333333,
            "lon": 9.266388883333333
        },
        {
            "name": "RIPTO",
            "lat": 40.55555556666667,
            "lon": 9.138888883333333
        },
        {
            "name": "RW05",
            "lat": 40.893661116666664,
            "lon": 9.508075
        },
        {
            "name": "RW23",
            "lat": 40.90641943333333,
            "lon": 9.532455566666666
        },
        {
            "name": "SENAL",
            "lat": 40.74555556666667,
            "lon": 9.231111116666666
        },
        {
            "name": "SME",
            "lat": 40.89005556666667,
            "lon": 9.501277783333334
        },
        {
            "name": "SME30",
            "lat": 40.60898888333333,
            "lon": 8.957005566666666
        },
        {
            "name": "SME31",
            "lat": 41.17775278333333,
            "lon": 10.068527783333334
        },
        {
            "name": "SME33",
            "lat": 40.625872216666664,
            "lon": 8.879716666666667
        },
        {
            "name": "SME34",
            "lat": 41.123238883333336,
            "lon": 8.834525
        },
        {
            "name": "SME36",
            "lat": 40.49769166666667,
            "lon": 8.891255566666667
        },
        {
            "name": "SUKUN",
            "lat": 40.75055556666667,
            "lon": 9.911111116666667
        },
        {
            "name": "SUTAD",
            "lat": 40.59611111666667,
            "lon": 8.968333333333334
        },
        {
            "name": "TEREZ",
            "lat": 41.333333333333336,
            "lon": 9.036944433333334
        },
        {
            "name": "TUBTU",
            "lat": 41.17944443333333,
            "lon": 9.5125
        },
        {
            "name": "TUKLU",
            "lat": 41.08083333333333,
            "lon": 9.595277783333334
        },
        {
            "name": "TULLE",
            "lat": 40.88944443333333,
            "lon": 9.231944433333334
        },
        {
            "name": "UNBID",
            "lat": 40.58444443333333,
            "lon": 9.5275
        },
        {
            "name": "VAGVU",
            "lat": 40.59527778333333,
            "lon": 9.763055566666667
        },
        {
            "name": "VAVAX",
            "lat": 40.65694443333334,
            "lon": 9.543888883333333
        },
        {
            "name": "VOR10",
            "lat": 40.796652783333336,
            "lon": 9.319344433333333
        },
        {
            "name": "XITLI",
            "lat": 40.651944433333334,
            "lon": 9.049444433333333
        },
        {
            "name": "XULNU",
            "lat": 40.88861111666667,
            "lon": 9.77
        }
    ],
    "rnws": [
        "RNW 05",
        "RNW 23"
    ],
    "sids": [
        {
            "name": "ATNE7K",
            "rnw": "05",
            "fixes": {
                "EO603": "EO603 AT OR ABOVE 3500 SPEED 230",
                "ATNET": "ATNET AT OR ABOVE 9500"
            },
            "sub_fixes": [],
            "transitions": []
        },
        {
            "name": "ATNE8Q",
            "rnw": "23",
            "fixes": {
                "EO630": "EO630 AT OR ABOVE 3000",
                "EO631": "EO631 AT OR ABOVE 5000",
                "EO634": "EO634 AT OR ABOVE 7000",
                "UNBID": "UNBID",
                "EO635": "EO635 AT OR ABOVE 9000",
                "SUKUN": "SUKUN",
                "ATNET": "ATNET AT OR ABOVE 9500"
            },
            "sub_fixes": [],
            "transitions": []
        },
        {
            "name": "BATO6K",
            "rnw": "05",
            "fixes": {
                "EO603": "EO603 AT OR ABOVE 3500 SPEED 230",
                "BATOX": "BATOX AT OR ABOVE 9500"
            },
            "sub_fixes": [],
            "transitions": []
        },
        {
            "name": "BATO7A",
            "rnw": "05",
            "fixes": {
                "SME": "SME",
                "SME31": "SME31 AT OR ABOVE 8500",
                "BATOX": "BATOX"
            },
            "sub_fixes": [],
            "transitions": []
        },
        {
            "name": "BATO7B",
            "rnw": "23",
            "fixes": {
                "SME": "SME",
                "SME31": "SME31 AT OR ABOVE 8500",
                "BATOX": "BATOX"
            },
            "sub_fixes": [],
            "transitions": []
        },
        {
            "name": "BATO8Q",
            "rnw": "23",
            "fixes": {
                "EO630": "EO630 AT OR ABOVE 3000 SPEED 220 TURN RIGHT DIRECT",
                "EO633": "EO633 AT OR ABOVE 6000",
                "TUBTU": "TUBTU AT OR ABOVE 9000",
                "BATOX": "BATOX AT OR ABOVE 9500"
            },
            "sub_fixes": [],
            "transitions": []
        },
        {
            "name": "INDU7K",
            "rnw": "05",
            "fixes": {
                "EO603": "EO603 AT OR ABOVE 3500 SPEED 230",
                "TUKLU": "TUKLU",
                "EO620": "EO620 AT OR ABOVE 8000",
                "EO621": "EO621",
                "INDUM": "INDUM AT OR ABOVE 9500"
            },
            "sub_fixes": [],
            "transitions": []
        },
        {
            "name": "INDU8Q",
            "rnw": "23",
            "fixes": {
                "EO630": "EO630 AT OR ABOVE 3000",
                "EO631": "EO631 AT OR ABOVE 5000",
                "EO632": "EO632 AT OR ABOVE 7000",
                "EO422": "EO422",
                "INDUM": "INDUM AT OR ABOVE 9500"
            },
            "sub_fixes": [],
            "transitions": []
        },
        {
            "name": "KOLU8A",
            "rnw": "05",
            "fixes": {
                "SME": "SME AT OR ABOVE 6000",
                "D010E": "D010E AT OR ABOVE 5000",
                "KOLUS": "KOLUS AT OR ABOVE 10000"
            },
            "sub_fixes": [],
            "transitions": []
        },
        {
            "name": "KOLU8B",
            "rnw": "23",
            "fixes": {
                "SME": "SME TURN LEFT DIRECT",
                "D221E": "OVERFLY D221E TURN RIGHT DIRECT",
                "KOLUS": "KOLUS AT OR ABOVE 10000"
            },
            "sub_fixes": [],
            "transitions": []
        },
        {
            "name": "LABO6B",
            "rnw": "05",
            "fixes": {
                "SME": "SME",
                "AF001": "AF001",
                "AF002": "AF002",
                "AF003": "AF003",
                "D101L": "D101L AT OR ABOVE 6000",
                "AF004": "AF004",
                "AF005": "AF005",
                "AF006": "AF006",
                "D175L": "D175L AT OR ABOVE 10000",
                "LABOM": "LABOM"
            },
            "sub_fixes": [],
            "transitions": []
        },
        {
            "name": "LABO6D",
            "rnw": "23",
            "fixes": {
                "SME": "SME",
                "AF007": "AF007",
                "AF008": "AF008",
                "AF009": "AF009",
                "D192Q": "D192Q",
                "D186T": "D186T AT OR ABOVE 10000",
                "LABOM": "LABOM"
            },
            "sub_fixes": [],
            "transitions": []
        },
        {
            "name": "LABO7A",
            "rnw": "05",
            "fixes": {
                "SME": "SME AT OR ABOVE 6000",
                "D010E": "D010E AT OR ABOVE 5000",
                "D186L": "D186L AT OR ABOVE 10000",
                "LABOM": "LABOM"
            },
            "sub_fixes": [],
            "transitions": []
        },
        {
            "name": "LABO7C",
            "rnw": "23",
            "fixes": {
                "SME": "SME TURN LEFT DIRECT",
                "D221E": "OVERFLY D221E TURN RIGHT DIRECT",
                "D186T": "D186T AT OR ABOVE 10000",
                "LABOM": "LABOM"
            },
            "sub_fixes": [],
            "transitions": []
        },
        {
            "name": "LABO7K",
            "rnw": "05",
            "fixes": {
                "EO603": "EO603 AT OR ABOVE 3500 SPEED 230",
                "EO622": "EO622 AT OR ABOVE 6000",
                "VAGVU": "VAGVU",
                "EO623": "EO623 AT OR ABOVE 11000",
                "LABOM": "LABOM"
            },
            "sub_fixes": [],
            "transitions": []
        },
        {
            "name": "LABO8Q",
            "rnw": "23",
            "fixes": {
                "EO630": "EO630 AT OR ABOVE 3000",
                "EO631": "EO631 AT OR ABOVE 5000",
                "EO634": "EO634 AT OR ABOVE 7000",
                "LABOM": "LABOM AT OR ABOVE 10500"
            },
            "sub_fixes": [],
            "transitions": []
        },
        {
            "name": "MINK6A",
            "rnw": "05",
            "fixes": {
                "SME": "SME AT OR ABOVE 6000",
                "D010E": "D010E AT OR ABOVE 5000",
                "MINKA": "MINKA AT OR ABOVE 9000"
            },
            "sub_fixes": [],
            "transitions": []
        },
        {
            "name": "MINK6B",
            "rnw": "23",
            "fixes": {
                "SME": "SME HDG 289 INTERCEPT RADIAL 259 TO",
                "MINKA": "MINKA AT OR ABOVE 9000"
            },
            "sub_fixes": [],
            "transitions": []
        },
        {
            "name": "OKIV7K",
            "rnw": "05",
            "fixes": {
                "EO603": "EO603 AT OR ABOVE 3500 SPEED 230",
                "TUKLU": "TUKLU AT OR ABOVE 5000",
                "EO620": "EO620 AT OR ABOVE 8000",
                "OKIVA": "OKIVA AT OR ABOVE 8500"
            },
            "sub_fixes": [],
            "transitions": []
        },
        {
            "name": "OKIV8Q",
            "rnw": "23",
            "fixes": {
                "EO630": "EO630 AT OR ABOVE 3000 SPEED 220 TURN RIGHT DIRECT",
                "EO633": "EO633 AT OR ABOVE 6000",
                "OKIVA": "OKIVA AT OR ABOVE 8500"
            },
            "sub_fixes": [],
            "transitions": []
        },
        {
            "name": "OLBE6K",
            "rnw": "05",
            "fixes": {
                "EO603": "EO603 AT OR ABOVE 3500 SPEED 230",
                "OLBEK": "OLBEK AT OR ABOVE 9500"
            },
            "sub_fixes": [],
            "transitions": []
        },
        {
            "name": "OLBE7A",
            "rnw": "05",
            "fixes": {
                "SME": "SME HDG 003 INTERCEPT RADIAL 033 TO",
                "OLBEK": "OLBEK AT OR ABOVE 10000"
            },
            "sub_fixes": [],
            "transitions": []
        },
        {
            "name": "OLBE7B",
            "rnw": "23",
            "fixes": {
                "SME": "SME",
                "OLBEK": "OLBEK AT OR ABOVE 10000"
            },
            "sub_fixes": [],
            "transitions": []
        },
        {
            "name": "OLBE8Q",
            "rnw": "23",
            "fixes": {
                "EO630": "EO630 AT OR ABOVE 3000 SPEED 220 TURN RIGHT DIRECT",
                "EO633": "EO633 AT OR ABOVE 6000",
                "TUBTU": "TUBTU AT OR ABOVE 9000",
                "OLBEK": "OLBEK AT OR ABOVE 9500"
            },
            "sub_fixes": [],
            "transitions": []
        },
        {
            "name": "POZO6D",
            "rnw": "05",
            "fixes": {
                "SME": "SME TURN LEFT HDG 235 INTERCEPT RADIAL 190 TO",
                "D010C": "D010C AT OR ABOVE 5500 HDG 255 INTERCEPT RADIAL 285 TO",
                "POZZO": "POZZO AT OR ABOVE 8500"
            },
            "sub_fixes": [],
            "transitions": []
        },
        {
            "name": "POZO8A",
            "rnw": "05",
            "fixes": {
                "SME": "SME TURN LEFT HDG 275 INTERCEPT RADIAL 245 TO",
                "D339G": "D339G AT OR ABOVE 6000",
                "POZZO": "POZZO AT OR ABOVE 8500"
            },
            "sub_fixes": [],
            "transitions": []
        },
        {
            "name": "POZO8B",
            "rnw": "23",
            "fixes": {
                "SME": "SME TURN LEFT DIRECT",
                "D221E": "D221E HDG 315 INTERCEPT RADIAL 285 TO",
                "POZZO": "POZZO AT OR ABOVE 8500"
            },
            "sub_fixes": [],
            "transitions": []
        },
        {
            "name": "SUKU6B",
            "rnw": "05",
            "fixes": {
                "SME": "SME",
                "AF001": "AF001",
                "AF002": "AF002",
                "AF003": "AF003",
                "D101L": "D101L AT OR ABOVE 6000 HDG 142 INTERCEPT RADIAL 112 TO",
                "SUKUN": "SUKUN AT OR ABOVE 10000"
            },
            "sub_fixes": [],
            "transitions": []
        },
        {
            "name": "SUKU6K",
            "rnw": "05",
            "fixes": {
                "EO603": "EO603 AT OR ABOVE 3500 SPEED 230",
                "EO622": "EO622 AT OR ABOVE 6000",
                "SUKUN": "SUKUN AT OR ABOVE 9500"
            },
            "sub_fixes": [],
            "transitions": []
        },
        {
            "name": "SUKU7A",
            "rnw": "05",
            "fixes": {
                "SME": "SME TURN LEFT HDG 235 INTERCEPT RADIAL 190 TO",
                "D010E": "D010E AT OR ABOVE 5000 HDG 142 INTERCEPT RADIAL 112 TO",
                "SUKUN": "SUKUN AT OR ABOVE 10000"
            },
            "sub_fixes": [],
            "transitions": []
        },
        {
            "name": "SUKU7C",
            "rnw": "23",
            "fixes": {
                "SME": "SME TURN LEFT DIRECT",
                "D221E": "D221E HDG 082 INTERCEPT RADIAL 112 TO",
                "SUKUN": "SUKUN AT OR ABOVE 10000"
            },
            "sub_fixes": [],
            "transitions": []
        },
        {
            "name": "SUKU8D",
            "rnw": "23",
            "fixes": {
                "SME": "SME TURN LEFT DIRECT",
                "KOLUS": "KOLUS AT OR ABOVE 8500",
                "SUKUN": "SUKUN AT OR ABOVE 10000"
            },
            "sub_fixes": [],
            "transitions": []
        },
        {
            "name": "SUKU8Q",
            "rnw": "23",
            "fixes": {
                "EO630": "EO630 AT OR ABOVE 3000",
                "EO631": "EO631 AT OR ABOVE 5000",
                "EO634": "EO634 AT OR ABOVE 7000",
                "UNBID": "UNBID",
                "EO635": "EO635 AT OR ABOVE 9000",
                "SUKUN": "SUKUN AT OR ABOVE 9500"
            },
            "sub_fixes": [],
            "transitions": []
        },
        {
            "name": "SUTA7K",
            "rnw": "05",
            "fixes": {
                "EO603": "EO603 AT OR ABOVE 3500 SPEED 230",
                "EO622": "EO622 AT OR ABOVE 6000",
                "VAGVU": "VAGVU",
                "EO623": "EO623",
                "EO468": "EO468",
                "SUTAD": "SUTAD AT OR ABOVE 9500"
            },
            "sub_fixes": [],
            "transitions": []
        },
        {
            "name": "SUTA8Q",
            "rnw": "23",
            "fixes": {
                "EO630": "EO630 AT OR ABOVE 3000",
                "EO631": "EO631 AT OR ABOVE 5000",
                "SUTAD": "SUTAD AT OR ABOVE 9500"
            },
            "sub_fixes": [],
            "transitions": []
        },
        {
            "name": "TERE7A",
            "rnw": "05",
            "fixes": {
                "SME": "SME TURN LEFT HDG 275 INTERCEPT RADIAL 245 TO",
                "D339G": "D339G AT OR ABOVE 6000",
                "ALG52": "OVERFLY ALG52 AT OR ABOVE 8500",
                "TEREZ": "TEREZ AT OR BELOW 14000 AT OR ABOVE 11000"
            },
            "sub_fixes": [],
            "transitions": []
        },
        {
            "name": "TERE7B",
            "rnw": "23",
            "fixes": {
                "SME": "SME TURN LEFT DIRECT",
                "D221K": "OVERFLY D221K",
                "POZZO": "POZZO AT OR ABOVE 8500",
                "TEREZ": "TEREZ AT OR BELOW 14000 AT OR ABOVE 11000"
            },
            "sub_fixes": [],
            "transitions": []
        },
        {
            "name": "TERE7D",
            "rnw": "05",
            "fixes": {
                "SME": "SME TURN LEFT HDG 235 INTERCEPT RADIAL 190 TO",
                "D010C": "D010C AT OR ABOVE 5500 HDG 255 INTERCEPT RADIAL 285 TO",
                "D285H": "OVERFLY D285H AT OR ABOVE 8500 HDG 303 INTERCEPT RADIAL 333 TO",
                "TEREZ": "TEREZ AT OR BELOW 14000 AT OR ABOVE 11000"
            },
            "sub_fixes": [],
            "transitions": []
        },
        {
            "name": "TERE7K",
            "rnw": "05",
            "fixes": {
                "EO603": "EO603 AT OR ABOVE 3500 SPEED 230",
                "TUKLU": "TUKLU AT OR ABOVE 5000",
                "EO620": "EO620 AT OR ABOVE 8000",
                "TEREZ": "TEREZ AT OR ABOVE 8500"
            },
            "sub_fixes": [],
            "transitions": []
        },
        {
            "name": "TERE8Q",
            "rnw": "23",
            "fixes": {
                "EO630": "EO630 AT OR ABOVE 3000 SPEED 220 TURN RIGHT DIRECT",
                "EO633": "EO633 AT OR ABOVE 6000",
                "TEREZ": "TEREZ AT OR ABOVE 8500"
            },
            "sub_fixes": [],
            "transitions": []
        },
        {
            "name": "VAVA7A",
            "rnw": "05",
            "fixes": {
                "SME": "SME AT OR ABOVE 6000",
                "D010E": "D010E AT OR ABOVE 5000",
                "VAVAX": "VAVAX AT OR ABOVE 10000"
            },
            "sub_fixes": [],
            "transitions": []
        },
        {
            "name": "VAVA7B",
            "rnw": "23",
            "fixes": {
                "SME": "SME TURN LEFT DIRECT",
                "D221E": "OVERFLY D221E TURN RIGHT DIRECT",
                "VAVAX": "VAVAX AT OR ABOVE 10000"
            },
            "sub_fixes": [],
            "transitions": []
        }
    ],
    "stars": [
        {
            "name": "ATNE2R",
            "runway": "RNW 05",
            "fixes": {
                "ATNET": "ATNET",
                "SUKUN": "SUKUN",
                "EO465": "EO465 AT OR BELOW 13000 AT OR ABOVE 9000 SPEED 230",
                "NUTTU": "NUTTU SPEED 230",
                "EO467": "EO467 SPEED 230",
                "AGMIK": "AGMIK SPEED 230",
                "OKBAD": "OKBAD SPEED 220",
                "GOLMU": "GOLMU SPEED 220",
                "RIPTO": "RIPTO SPEED 220",
                "XITLI": "XITLI SPEED 210 TURN RIGHT DIRECT",
                "OBIMI": "OBIMI SPEED 210",
                "SENAL": "SENAL SPEED 210"
            }
        },
        {
            "name": "ATNE4L",
            "runway": "RNW 23",
            "fixes": {
                "ATNET": "ATNET",
                "EO475": "EO475 AT OR BELOW 9000 AT OR ABOVE 6000 SPEED 230",
                "ODOGI": "ODOGI AT OR BELOW 6000 AT OR ABOVE 4000 SPEED 220",
                "EO477": "EO477 SPEED 220",
                "EMDEK": "EMDEK SPEED 220",
                "EO479": "EO479 SPEED 220",
                "EO480": "EO480 SPEED 210",
                "LIDNU": "LIDNU SPEED 210",
                "EO481": "EO481 SPEED 210",
                "MILIS": "MILIS SPEED 210"
            }
        },
        {
            "name": "BATO1Q",
            "runway": "RNW 05",
            "fixes": {
                "BATOX": "BATOX",
                "NUTTU": "NUTTU SPEED 230",
                "EO467": "EO467 SPEED 230",
                "AGMIK": "AGMIK SPEED 230",
                "OKBAD": "OKBAD SPEED 220",
                "GOLMU": "GOLMU SPEED 220 TURN RIGHT DIRECT",
                "OBIMI": "OBIMI SPEED 210",
                "SENAL": "SENAL SPEED 210"
            }
        },
        {
            "name": "BATO1T",
            "runway": "RNW 05",
            "fixes": {
                "BATOX": "BATOX",
                "IPKOV": "IPKOV SPEED 230",
                "EO466": "EO466 SPEED 230",
                "TULLE": "TULLE SPEED 230",
                "KUGAG": "KUGAG SPEED 220",
                "BEXIB": "BEXIB SPEED 220",
                "OBIMI": "OBIMI SPEED 210",
                "SENAL": "SENAL SPEED 210"
            }
        },
        {
            "name": "BATO2R",
            "runway": "RNW 05",
            "fixes": {
                "BATOX": "BATOX",
                "EO463": "EO463",
                "EO465": "EO465 AT OR BELOW 13000 AT OR ABOVE 9000 SPEED 230",
                "NUTTU": "NUTTU SPEED 230",
                "EO467": "EO467 SPEED 230",
                "AGMIK": "AGMIK SPEED 230",
                "OKBAD": "OKBAD SPEED 220",
                "GOLMU": "GOLMU SPEED 220",
                "RIPTO": "RIPTO SPEED 220",
                "XITLI": "XITLI SPEED 210 TURN RIGHT DIRECT",
                "OBIMI": "OBIMI SPEED 210",
                "SENAL": "SENAL SPEED 210"
            }
        },
        {
            "name": "BATO3A",
            "runway": "RNW 05 RNW 23",
            "fixes": {
                "BATOX": "BATOX",
                "SME31": "SME31",
                "MILIS": "MILIS",
                "SME": "SME"
            }
        },
        {
            "name": "BATO4B",
            "runway": "RNW 05 RNW 23",
            "fixes": {
                "BATOX": "BATOX",
                "SME31": "SME31",
                "D053S": "D053S",
                "MILIS": "MILIS"
            }
        },
        {
            "name": "BATO4L",
            "runway": "RNW 23",
            "fixes": {
                "BATOX": "BATOX",
                "GITRI": "GITRI AT OR BELOW 12000 AT OR ABOVE 9000",
                "EO473": "EO473",
                "EO475": "EO475 AT OR BELOW 9000 AT OR ABOVE 6000 SPEED 230 TURN RIGHT DIRECT",
                "ODOGI": "ODOGI AT OR BELOW 6000 AT OR ABOVE 4000 SPEED 220",
                "EO477": "EO477 SPEED 220",
                "EMDEK": "EMDEK SPEED 220",
                "EO479": "EO479 SPEED 220",
                "EO480": "EO480 SPEED 210",
                "LIDNU": "LIDNU SPEED 210",
                "EO481": "EO481 SPEED 210",
                "MILIS": "MILIS SPEED 210"
            }
        },
        {
            "name": "BOLO3B",
            "runway": "RNW 05 RNW 23",
            "fixes": {
                "BOLOT": "BOLOT",
                "SME36": "OVERFLY SME36",
                "SME30": "SME30",
                "OBIMI": "OBIMI",
                "SENAL": "SENAL"
            }
        },
        {
            "name": "BOLO4A",
            "runway": "RNW 05 RNW 23",
            "fixes": {
                "BOLOT": "BOLOT",
                "SME36": "OVERFLY SME36",
                "SME30": "SME30",
                "OBIMI": "OBIMI",
                "SENAL": "SENAL",
                "FD05": "FD05",
                "SME": "SME"
            }
        },
        {
            "name": "CORS2G",
            "runway": "RNW 05 RNW 23",
            "fixes": {
                "CORSI": "CORSI",
                "D307L": "D307L",
                "SME": "SME"
            }
        },
        {
            "name": "CORS2R",
            "runway": "RNW 05",
            "fixes": {
                "CORSI": "CORSI",
                "EO462": "EO462",
                "EO464": "EO464 AT OR BELOW 13000 AT OR ABOVE 9000",
                "GOKLO": "GOKLO SPEED 230",
                "IPKOV": "IPKOV SPEED 230",
                "EO466": "EO466 SPEED 230",
                "TULLE": "TULLE SPEED 230",
                "KUGAG": "KUGAG SPEED 220",
                "BEXIB": "BEXIB SPEED 220",
                "BEBGI": "BEBGI SPEED 220",
                "XITLI": "XITLI SPEED 210",
                "OBIMI": "OBIMI SPEED 210",
                "SENAL": "SENAL SPEED 210"
            }
        },
        {
            "name": "CORS3H",
            "runway": "RNW 05 RNW 23",
            "fixes": {
                "CORSI": "CORSI",
                "SME34": "SME34",
                "D289X": "D289X",
                "AF010": "AF010",
                "AF011": "AF011",
                "AF012": "AF012",
                "D237V": "D237V",
                "OBIMI": "OBIMI",
                "SENAL": "SENAL",
                "FD05": "FD05",
                "SME": "SME"
            }
        },
        {
            "name": "CORS3J",
            "runway": "RNW 05 RNW 23",
            "fixes": {
                "CORSI": "CORSI",
                "SME34": "SME34",
                "D289X": "D289X",
                "AF013": "AF013",
                "AF014": "AF014",
                "AF015": "AF015",
                "D237V": "D237V",
                "OBIMI": "OBIMI",
                "SENAL": "SENAL"
            }
        },
        {
            "name": "CORS3M",
            "runway": "RNW 23",
            "fixes": {
                "CORSI": "CORSI",
                "EO472": "EO472",
                "EO474": "EO474",
                "BRIVE": "BRIVE AT OR BELOW 9000 AT OR ABOVE 6000 SPEED 230",
                "TUKLU": "TUKLU SPEED 230",
                "PIGEG": "PIGEG AT OR BELOW 6000 AT OR ABOVE 4000 SPEED 220",
                "EO476": "EO476 SPEED 220",
                "ERPAV": "ERPAV SPEED 220",
                "EO478": "EO478 SPEED 220",
                "EO480": "EO480 SPEED 210",
                "LIDNU": "LIDNU SPEED 210",
                "EO481": "EO481 SPEED 210",
                "MILIS": "MILIS SPEED 210"
            }
        },
        {
            "name": "CORS4L",
            "runway": "RNW 23",
            "fixes": {
                "CORSI": "CORSI",
                "EO472": "EO472",
                "EO474": "EO474",
                "EO471": "EO471",
                "DOGGA": "DOGGA AT OR BELOW 12000 AT OR ABOVE 9000",
                "GEKNU": "GEKNU AT OR BELOW 9000 AT OR ABOVE 6000 SPEED 230",
                "XULNU": "XULNU SPEED 230",
                "ODOGI": "ODOGI AT OR BELOW 6000 AT OR ABOVE 4000 SPEED 220",
                "EO477": "EO477 SPEED 220",
                "EMDEK": "EMDEK SPEED 220",
                "EO479": "EO479 SPEED 220",
                "EO480": "EO480 SPEED 210",
                "LIDNU": "LIDNU SPEED 210",
                "EO481": "EO481 SPEED 210",
                "MILIS": "MILIS SPEED 210"
            }
        },
        {
            "name": "EKPO2R",
            "runway": "RNW 05",
            "fixes": {
                "EKPOD": "EKPOD",
                "EO468": "EO468",
                "EO469": "EO469 AT OR BELOW 13000 AT OR ABOVE 9000",
                "EO470": "EO470 SPEED 230",
                "NUTTU": "NUTTU SPEED 230",
                "EO467": "EO467 SPEED 230",
                "AGMIK": "AGMIK SPEED 230",
                "OKBAD": "OKBAD SPEED 220",
                "GOLMU": "GOLMU SPEED 220",
                "RIPTO": "RIPTO SPEED 220",
                "XITLI": "XITLI SPEED 210 TURN RIGHT DIRECT",
                "OBIMI": "OBIMI SPEED 210",
                "SENAL": "SENAL SPEED 210"
            }
        },
        {
            "name": "EKPO4L",
            "runway": "RNW 23",
            "fixes": {
                "EKPOD": "EKPOD",
                "EO487": "EO487",
                "DOGGA": "DOGGA AT OR BELOW 12000 AT OR ABOVE 9000",
                "GEKNU": "GEKNU AT OR BELOW 9000 AT OR ABOVE 6000 SPEED 230",
                "XULNU": "XULNU SPEED 230",
                "ODOGI": "ODOGI AT OR BELOW 6000 AT OR ABOVE 4000 SPEED 220",
                "EO477": "EO477 SPEED 220",
                "EMDEK": "EMDEK SPEED 220",
                "EO479": "EO479 SPEED 220",
                "EO480": "EO480 SPEED 210",
                "LIDNU": "LIDNU SPEED 210",
                "EO481": "EO481 SPEED 210",
                "MILIS": "MILIS SPEED 210"
            }
        },
        {
            "name": "EKRO2A",
            "runway": "RNW 05 RNW 23",
            "fixes": {
                "EKROB": "EKROB",
                "SME": "SME"
            }
        },
        {
            "name": "EKRO3B",
            "runway": "RNW 05 RNW 23",
            "fixes": {
                "EKROB": "EKROB",
                "AF016": "AF016",
                "AF017": "AF017",
                "D058Q": "D058Q",
                "MILIS": "MILIS"
            }
        },
        {
            "name": "GITR2R",
            "runway": "RNW 05",
            "fixes": {
                "GITRI": "GITRI",
                "EO463": "EO463",
                "EO465": "EO465 AT OR BELOW 13000 AT OR ABOVE 9000 SPEED 230",
                "NUTTU": "NUTTU SPEED 230",
                "EO467": "EO467 SPEED 230",
                "AGMIK": "AGMIK SPEED 230",
                "OKBAD": "OKBAD SPEED 220",
                "GOLMU": "GOLMU SPEED 220",
                "RIPTO": "RIPTO SPEED 220",
                "XITLI": "XITLI SPEED 210 TURN RIGHT DIRECT",
                "OBIMI": "OBIMI SPEED 210",
                "SENAL": "SENAL SPEED 210"
            }
        },
        {
            "name": "GITR3A",
            "runway": "RNW 05 RNW 23",
            "fixes": {
                "GITRI": "GITRI",
                "SME": "SME"
            }
        },
        {
            "name": "GITR4B",
            "runway": "RNW 05 RNW 23",
            "fixes": {
                "GITRI": "GITRI",
                "D083S": "D083S",
                "AF018": "AF018",
                "AF019": "AF019",
                "D058Q": "D058Q",
                "MILIS": "MILIS"
            }
        },
        {
            "name": "GITR4L",
            "runway": "RNW 23",
            "fixes": {
                "GITRI": "GITRI",
                "EO473": "EO473",
                "EO475": "EO475 AT OR BELOW 9000 AT OR ABOVE 6000 SPEED 230 TURN RIGHT DIRECT",
                "ODOGI": "ODOGI AT OR BELOW 6000 AT OR ABOVE 4000 SPEED 220",
                "EO477": "EO477 SPEED 220",
                "EMDEK": "EMDEK SPEED 220",
                "EO479": "EO479 SPEED 220",
                "EO480": "EO480 SPEED 210",
                "LIDNU": "LIDNU SPEED 210",
                "EO481": "EO481 SPEED 210",
                "MILIS": "MILIS SPEED 210"
            }
        },
        {
            "name": "LABO2R",
            "runway": "RNW 05",
            "fixes": {
                "LABOM": "LABOM",
                "EO469": "EO469 AT OR BELOW 13000 AT OR ABOVE 9000",
                "EO470": "EO470 SPEED 230",
                "NUTTU": "NUTTU SPEED 230",
                "EO467": "EO467 SPEED 230",
                "AGMIK": "AGMIK SPEED 230",
                "OKBAD": "OKBAD SPEED 220",
                "GOLMU": "GOLMU SPEED 220",
                "RIPTO": "RIPTO SPEED 220",
                "XITLI": "XITLI SPEED 210 TURN RIGHT DIRECT",
                "OBIMI": "OBIMI SPEED 210",
                "SENAL": "SENAL SPEED 210"
            }
        },
        {
            "name": "LABO3A",
            "runway": "RNW 05 RNW 23",
            "fixes": {
                "LABOM": "LABOM",
                "D186O": "D186O",
                "SME": "SME"
            }
        },
        {
            "name": "LABO4B",
            "runway": "RNW 05 RNW 23",
            "fixes": {
                "LABOM": "LABOM",
                "D186X": "D186X",
                "AF020": "AF020",
                "AF021": "AF021",
                "D227V": "D227V",
                "OBIMI": "OBIMI",
                "SENAL": "SENAL"
            }
        },
        {
            "name": "LABO4L",
            "runway": "RNW 23",
            "fixes": {
                "LABOM": "LABOM",
                "EO489": "EO489",
                "DOGGA": "DOGGA AT OR BELOW 12000 AT OR ABOVE 9000",
                "GEKNU": "GEKNU AT OR BELOW 9000 AT OR ABOVE 6000 SPEED 230",
                "XULNU": "XULNU SPEED 230",
                "ODOGI": "ODOGI AT OR BELOW 6000 AT OR ABOVE 4000 SPEED 220",
                "EO477": "EO477 SPEED 220",
                "EMDEK": "EMDEK SPEED 220",
                "EO479": "EO479 SPEED 220",
                "EO480": "EO480 SPEED 210",
                "LIDNU": "LIDNU SPEED 210",
                "EO481": "EO481 SPEED 210",
                "MILIS": "MILIS SPEED 210"
            }
        },
        {
            "name": "MINK2C",
            "runway": "RNW 05 RNW 23",
            "fixes": {
                "MINKA": "MINKA",
                "D259G": "D259G",
                "SME": "SME"
            }
        },
        {
            "name": "MINK3B",
            "runway": "RNW 05 RNW 23",
            "fixes": {
                "MINKA": "MINKA",
                "SME33": "OVERFLY SME33 TURN LEFT DIRECT",
                "SME30": "SME30",
                "OBIMI": "OBIMI",
                "SENAL": "SENAL"
            }
        },
        {
            "name": "MINK3M",
            "runway": "RNW 23",
            "fixes": {
                "MINKA": "MINKA",
                "EO422": "EO422",
                "EO474": "EO474",
                "BRIVE": "BRIVE AT OR BELOW 9000 AT OR ABOVE 6000 SPEED 230",
                "TUKLU": "TUKLU SPEED 230",
                "PIGEG": "PIGEG AT OR BELOW 6000 AT OR ABOVE 4000 SPEED 220",
                "EO476": "EO476 SPEED 220",
                "ERPAV": "ERPAV SPEED 220",
                "EO478": "EO478 SPEED 220 TURN RIGHT DIRECT",
                "EO480": "EO480 SPEED 210",
                "LIDNU": "LIDNU SPEED 210",
                "EO481": "EO481 SPEED 210",
                "MILIS": "MILIS SPEED 210"
            }
        },
        {
            "name": "MINK3R",
            "runway": "RNW 05",
            "fixes": {
                "MINKA": "MINKA",
                "EO460": "EO460",
                "EO464": "EO464 AT OR BELOW 13000 AT OR ABOVE 9000",
                "GOKLO": "GOKLO SPEED 230",
                "IPKOV": "IPKOV SPEED 230",
                "EO466": "EO466 SPEED 230",
                "TULLE": "TULLE SPEED 230",
                "KUGAG": "KUGAG SPEED 220",
                "BEXIB": "BEXIB SPEED 220",
                "BEBGI": "BEBGI SPEED 220",
                "XITLI": "XITLI SPEED 210",
                "OBIMI": "OBIMI SPEED 210",
                "SENAL": "SENAL SPEED 210"
            }
        },
        {
            "name": "MINK4L",
            "runway": "RNW 23",
            "fixes": {
                "MINKA": "MINKA",
                "EO471": "EO471",
                "DOGGA": "DOGGA AT OR BELOW 12000 AT OR ABOVE 9000",
                "GEKNU": "GEKNU AT OR BELOW 9000 AT OR ABOVE 6000 SPEED 230",
                "XULNU": "XULNU SPEED 230",
                "ODOGI": "ODOGI AT OR BELOW 6000 AT OR ABOVE 4000 SPEED 220",
                "EO477": "EO477 SPEED 220",
                "EMDEK": "EMDEK SPEED 220",
                "EO479": "EO479 SPEED 220",
                "EO480": "EO480 SPEED 210",
                "LIDNU": "LIDNU SPEED 210",
                "EO481": "EO481 SPEED 210",
                "MILIS": "MILIS SPEED 210"
            }
        },
        {
            "name": "OLBE3A",
            "runway": "RNW 05 RNW 23",
            "fixes": {
                "OLBEK": "OLBEK",
                "SME": "SME"
            }
        },
        {
            "name": "OLBE3B",
            "runway": "RNW 05 RNW 23",
            "fixes": {
                "OLBEK": "OLBEK",
                "D047Y": "D047Y",
                "D053S": "D053S",
                "MILIS": "MILIS"
            }
        },
        {
            "name": "POZO4A",
            "runway": "RNW 05 RNW 23",
            "fixes": {
                "POZZO": "POZZO",
                "D285G": "D285G",
                "SME": "SME"
            }
        },
        {
            "name": "SUKU2R",
            "runway": "RNW 05",
            "fixes": {
                "SUKUN": "SUKUN",
                "EO465": "EO465 AT OR BELOW 13000 AT OR ABOVE 9000 SPEED 230",
                "NUTTU": "NUTTU SPEED 230",
                "EO467": "EO467 SPEED 230",
                "AGMIK": "AGMIK SPEED 230",
                "OKBAD": "OKBAD SPEED 220",
                "GOLMU": "GOLMU SPEED 220",
                "RIPTO": "RIPTO SPEED 220",
                "XITLI": "XITLI SPEED 210 TURN RIGHT DIRECT",
                "OBIMI": "OBIMI SPEED 210",
                "SENAL": "SENAL SPEED 210"
            }
        },
        {
            "name": "SUKU3A",
            "runway": "RNW 05 RNW 23",
            "fixes": {
                "SUKUN": "SUKUN",
                "SME": "SME"
            }
        },
        {
            "name": "SUKU4B",
            "runway": "RNW 05 RNW 23",
            "fixes": {
                "SUKUN": "SUKUN",
                "D112S": "D112S",
                "AF022": "AF022",
                "AF023": "AF023",
                "AF024": "AF024",
                "D058Q": "D058Q",
                "MILIS": "MILIS"
            }
        },
        {
            "name": "SUKU5L",
            "runway": "RNW 23",
            "fixes": {
                "SUKUN": "SUKUN",
                "EO475": "EO475 AT OR BELOW 9000 AT OR ABOVE 6000 SPEED 230",
                "ODOGI": "ODOGI AT OR BELOW 6000 AT OR ABOVE 4000 SPEED 220",
                "EO477": "EO477 SPEED 220",
                "EMDEK": "EMDEK SPEED 220",
                "EO479": "EO479 SPEED 220",
                "EO480": "EO480 SPEED 210",
                "LIDNU": "LIDNU SPEED 210",
                "EO481": "EO481 SPEED 210",
                "MILIS": "MILIS SPEED 210"
            }
        },
        {
            "name": "VAVA3A",
            "runway": "RNW 05 RNW 23",
            "fixes": {
                "VAVAX": "VAVAX",
                "SME": "SME"
            }
        }
    ],
    "approaches": [
        {
            "name": "VORD05",
            "fixes": {
                "SENAL": "SENAL AT OR ABOVE 5200",
                "VOR10": "VOR10 AT OR ABOVE 3950",
                "FD05": "FD05 2830",
                "50VOR": "50VOR AT OR ABOVE 2090",
                "35VOR": "35VOR AT OR ABOVE 1530",
                "MD05": "MD05 597 RNW 05 TRK 053 UNTIL 19.0 FROM",
                "SME": "SME",
                "AF025": "AF025",
                "AF026": "AF026",
                "D093U": "D093U",
                "EKROB": "EKROB 5000 HOLD AT EKROB LEFT TURN INBOUNDCOURSE 278 ALT 5000 SPEED 210 LEGDIST 4 FAF FD05 MAP MD05"
            },
            "transitions": [
                {
                    "name": "SME1",
                    "fixes": {
                        "SME": "SME AT OR ABOVE 6000 SPEED 210 TRK 219 UNTIL 15.0 FROM SME"
                    }
                },
                {
                    "name": "SME2",
                    "fixes": {
                        "SME": "SME AT OR ABOVE 6000 SPEED 140 TRK 226 UNTIL 15.0 FROM SME"
                    }
                }
            ]
        },
        {
            "name": "VORD23",
            "fixes": {
                "CD23": "CD23 AT OR ABOVE 3000",
                "FD23": "FD23 2150",
                "MD23": "MD23 485 RNW 23",
                "SME": "OVERFLY SME TURN LEFT TRK 067 INTERCEPT RADIAL 098 TO",
                "EKROB": "EKROB SPEED 185 EKROB 5000 HOLD AT EKROB LEFT TURN INBOUNDCOURSE 278 ALT 5000 SPEED 210 LEGDIST 4 FAF FD23 MAP MD23"
            },
            "transitions": [
                {
                    "name": "MILIS",
                    "fixes": {
                        "MILIS": "MILIS AT OR ABOVE 3000"
                    }
                },
                {
                    "name": "SME1",
                    "fixes": {
                        "SME": "SME AT OR ABOVE 5000 SPEED 210 TRK 036 UNTIL 11.0 FROM SME"
                    }
                },
                {
                    "name": "SME2",
                    "fixes": {
                        "SME": "SME AT OR ABOVE 5000 SPEED 140 TRK 044 UNTIL 11.0 FROM SME"
                    }
                }
            ]
        },
        {
            "name": "ILS05",
            "fixes": {
                "CI05": "CI05 AT OR ABOVE 4000",
                "EO507": "EO507 3800 RNW 05 TRK 053 UNTIL 19.0 FROM",
                "SME": "SME",
                "AF025": "AF025",
                "AF026": "AF026",
                "D093U": "D093U",
                "EKROB": "EKROB 5000 HOLD AT EKROB LEFT TURN INBOUNDCOURSE 278 ALT 5000 SPEED 210 LEGDIST 4 FAF EO507 MAP RNW 05"
            },
            "transitions": [
                {
                    "name": "OBIMI",
                    "fixes": {
                        "OBIMI": "OBIMI AT OR ABOVE 6000",
                        "SENAL": "SENAL AT OR ABOVE 5200"
                    }
                },
                {
                    "name": "SENL1",
                    "fixes": {}
                },
                {
                    "name": "SENL2",
                    "fixes": {
                        "SENAL": "SENAL AT OR ABOVE 5200"
                    }
                },
                {
                    "name": "SME1",
                    "fixes": {
                        "SME": "SME AT OR ABOVE 6000 SPEED 210 TRK 219 UNTIL 15.0 FROM SME TURN RIGHT DIRECT",
                        "SENAL": "SENAL AT OR ABOVE 5200"
                    }
                },
                {
                    "name": "SME2",
                    "fixes": {
                        "SME": "SME AT OR ABOVE 6000 SPEED 140 TRK 226 UNTIL 15.0 FROM SME TURN RIGHT DIRECT",
                        "SENAL": "SENAL AT OR ABOVE 5200"
                    }
                }
            ]
        },
        {
            "name": "ILS23",
            "fixes": {
                "MILIS": "MILIS AT OR ABOVE 3000",
                "EO412": "EO412 3000 RNW 23",
                "SME": "OVERFLY SME TURN LEFT TRK 067 INTERCEPT RADIAL 098 TO",
                "EKROB": "EKROB SPEED 185 EKROB 5000 HOLD AT EKROB LEFT TURN INBOUNDCOURSE 278 ALT 5000 SPEED 210 LEGDIST 4 FAF EO412 MAP RNW 23"
            },
            "transitions": [
                {
                    "name": "MILIS",
                    "fixes": {
                        "MILIS": "MILIS LEFT TURN INBOUNDCOURSE 233 ALT 3000 SPEED 210 LEGDIST 4"
                    }
                },
                {
                    "name": "SME1",
                    "fixes": {
                        "SME": "SME AT OR ABOVE 5000 SPEED 210 TRK 041 UNTIL 15.0 FROM SME"
                    }
                },
                {
                    "name": "SME2",
                    "fixes": {
                        "SME": "SME AT OR ABOVE 5000 SPEED 140 TRK 047 UNTIL 15.0 FROM SME"
                    }
                }
            ]
        },
        {
            "name": "RNAV05",
            "fixes": {
                "SENAL": "SENAL AT OR ABOVE 5000",
                "EO507": "EO507 3800 RNW 05",
                "EO521": "EO521 AT OR ABOVE 2000",
                "EO522": "EO522",
                "EKROB": "EKROB AT OR ABOVE 4000 HOLD AT EKROB LEFT TURN INBOUNDCOURSE 278 ALT 4000 SPEED 210 LEGDIST 3 FAF EO507 MAP RNW 05"
            },
            "transitions": []
        },
        {
            "name": "RNAVW23",
            "fixes": {
                "EO412": "EO412 3000 RNW 23 TRK 233 UNTIL 795",
                "EO722": "OVERFLY EO722 AT OR ABOVE 1000 SPEED 185 TURN LEFT TRK 073 INTERCEPT RADIAL 103 TO",
                "KILLI": "KILLI SPEED 185 OVERFLY KILLI AT OR ABOVE 5000 SPEED 185 HOLD AT KILLI LEFT TURN INBOUNDCOURSE 103 ALT 5000 SPEED 210 LEGDIST 3 FAF EO412 MAP RNW 23"
            },
            "transitions": [
                {
                    "name": "MILIS",
                    "fixes": {
                        "MILIS": "MILIS AT OR ABOVE 3000"
                    }
                }
            ]
        },
        {
            "name": "RNAVZ23",
            "fixes": {
                "EO412": "EO412 3000 RNW 23 TRK 233 UNTIL 1050 TURN LEFT TRK 073 INTERCEPT RADIAL 103 TO",
                "KILLI": "KILLI SPEED 185 OVERFLY KILLI AT OR ABOVE 5000 SPEED 185 HOLD AT KILLI LEFT TURN INBOUNDCOURSE 103 ALT 5000 SPEED 210 LEGDIST 3 FAF EO412 MAP RNW 23"
            },
            "transitions": [
                {
                    "name": "MILIS",
                    "fixes": {
                        "MILIS": "MILIS AT OR ABOVE 3000"
                    }
                }
            ]
        }
    ]
}