{
    "fixes": [
        {
            "name": "ABNNB",
            "lat": 44.05597221666667,
            "lon": 8.221
        },
        {
            "name": "ALB",
            "lat": 44.04816666666667,
            "lon": 8.127611116666667
        },
        {
            "name": "ANAKI",
            "lat": 44.20111111666667,
            "lon": 8.725555566666667
        },
        {
            "name": "BERAB",
            "lat": 44.05083333333334,
            "lon": 8.405277783333334
        },
        {
            "name": "D087P",
            "lat": 44.048513883333335,
            "lon": 8.497361116666667
        },
        {
            "name": "D090N",
            "lat": 44.04739166666667,
            "lon": 8.543575
        },
        {
            "name": "D090Z",
            "lat": 44.039594433333335,
            "lon": 8.810719433333333
        },
        {
            "name": "D172W",
            "lat": 44.037788883333334,
            "lon": 8.869669433333334
        },
        {
            "name": "D182W",
            "lat": 44.04058333333333,
            "lon": 8.777944433333333
        },
        {
            "name": "D267A",
            "lat": 44.049136116666666,
            "lon": 8.104538883333333
        },
        {
            "name": "DORAV",
            "lat": 44.32638888333334,
            "lon": 8.852222216666666
        },
        {
            "name": "FL27",
            "lat": 44.050055566666664,
            "lon": 8.26625
        },
        {
            "name": "GEN",
            "lat": 44.424444433333335,
            "lon": 9.082333333333333
        },
        {
            "name": "IXITO",
            "lat": 44.13472221666667,
            "lon": 8.803611116666668
        },
        {
            "name": "LAGEN",
            "lat": 44.39416666666666,
            "lon": 8.498055566666666
        },
        {
            "name": "ML27",
            "lat": 44.04977778333333,
            "lon": 8.220027783333334
        },
        {
            "name": "RW09",
            "lat": 44.050866666666664,
            "lon": 8.119569433333334
        },
        {
            "name": "UNITA",
            "lat": 43.94444443333333,
            "lon": 9.025
        },
        {
            "name": "USANO",
            "lat": 43.73425,
            "lon": 7.713861116666667
        }
    ],
    "rnws": [
        "RNW 09",
        "RNW 27"
    ],
    "sids": [
        {
            "name": "GEN8T",
            "rnw": "09",
            "fixes": {
                "ABNNB": "ABNNB AT OR ABOVE 1500",
                "DORAV": "DORAV AT OR ABOVE 7000",
                "GEN": "GEN"
            },
            "sub_fixes": [],
            "transitions": []
        },
        {
            "name": "LAGE7T",
            "rnw": "09",
            "fixes": {
                "ABNNB": "ABNNB",
                "D182W": "OVERFLY D182W AT OR ABOVE 6000 TURN LEFT DIRECT",
                "IXITO": "IXITO",
                "ANAKI": "ANAKI",
                "LAGEN": "LAGEN"
            },
            "sub_fixes": [],
            "transitions": []
        },
        {
            "name": "UNIT7T",
            "rnw": "09",
            "fixes": {
                "ABNNB": "ABNNB",
                "D182W": "D182W AT OR ABOVE 6000",
                "D172W": "OVERFLY D172W",
                "UNITA": "UNITA"
            },
            "sub_fixes": [],
            "transitions": []
        }
    ],
    "stars": [
        {
            "name": "GEN5L",
            "runway": "RNW 09 RNW 27",
            "fixes": {
                "GEN": "GEN",
                "ABNNB": "ABNNB"
            }
        },
        {
            "name": "IXIT4L",
            "runway": "RNW 09 RNW 27",
            "fixes": {
                "IXITO": "IXITO TRK 137 INTERCEPT RADIAL 204 FROM",
                "GEN": "GEN TURN RIGHT DIRECT",
                "BERAB": "BERAB",
                "ABNNB": "ABNNB"
            }
        },
        {
            "name": "IXIT4M",
            "runway": "RNW 09 RNW 27",
            "fixes": {
                "IXITO": "IXITO TRK 137 INTERCEPT RADIAL 204 FROM",
                "GEN": "GEN TURN RIGHT DIRECT",
                "D090N": "D090N",
                "BERAB": "BERAB"
            }
        },
        {
            "name": "UNIT5L",
            "runway": "RNW 09 RNW 27",
            "fixes": {
                "UNITA": "UNITA TRK 317 INTERCEPT RADIAL 191 FROM",
                "GEN": "GEN",
                "D090Z": "D090Z",
                "BERAB": "BERAB",
                "ABNNB": "ABNNB"
            }
        },
        {
            "name": "UNIT5M",
            "runway": "RNW 09 RNW 27",
            "fixes": {
                "UNITA": "UNITA TRK 317 INTERCEPT RADIAL 191 FROM",
                "GEN": "GEN",
                "D090Z": "D090Z",
                "D090N": "D090N",
                "BERAB": "BERAB"
            }
        },
        {
            "name": "USAN2L",
            "runway": "RNW 09 RNW 27",
            "fixes": {
                "USANO": "USANO",
                "ABNNB": "ABNNB"
            }
        }
    ],
    "approaches": [
        {
            "name": "LOC27",
            "fixes": {
                "BERAB": "BERAB AT OR ABOVE 4000 BERAB FAF FL27 MAP ML27",
                "FL27": "FL27 2250",
                "ML27": "ML27 1501 RNW 27",
                "D267A": "OVERFLY D267A AT OR ABOVE 2300 TURN LEFT DIRECT",
                "ABNNB": "ABNNB 4000 SPEED 160"
            },
            "transitions": [
                {
                    "name": "ABN1",
                    "fixes": {
                        "ABNNB": "ABNNB AT OR ABOVE 6000 TRK 075 UNTIL 16.0 FROM",
                        "ALB": "ALB SPEED 185 TURN RIGHT DIRECT",
                        "D087P": "D087P AT OR ABOVE 4000"
                    }
                },
                {
                    "name": "ABN2",
                    "fixes": {
                        "ABNNB": "ABNNB AT OR ABOVE 6000 TRK 080 UNTIL 16.0 FROM",
                        "ALB": "ALB SPEED 140 TURN RIGHT DIRECT",
                        "D087P": "D087P AT OR ABOVE 4000"
                    }
                }
            ]
        }
    ]
}