{
    "fixes": [
        {
            "name": "AVI",
            "lat": 46.027869433333336,
            "lon": 12.586877783333334
        },
        {
            "name": "CHI",
            "lat": 45.071083333333334,
            "lon": 12.281444433333334
        },
        {
            "name": "CT06",
            "lat": 45.91640556666667,
            "lon": 12.891983333333334
        },
        {
            "name": "D068T",
            "lat": 45.74521943333333,
            "lon": 12.126266666666666
        },
        {
            "name": "D144Y",
            "lat": 45.681944433333335,
            "lon": 12.919277783333333
        },
        {
            "name": "D191H",
            "lat": 45.865941666666664,
            "lon": 13.044775
        },
        {
            "name": "D211J",
            "lat": 45.854058333333334,
            "lon": 12.962688883333334
        },
        {
            "name": "D211L",
            "lat": 45.82698056666667,
            "lon": 12.934652783333334
        },
        {
            "name": "D211Q",
            "lat": 45.75480833333334,
            "lon": 12.875080566666666
        },
        {
            "name": "D211T",
            "lat": 45.712252783333334,
            "lon": 12.837630566666666
        },
        {
            "name": "D223L",
            "lat": 45.857525,
            "lon": 12.881513883333334
        },
        {
            "name": "D224O",
            "lat": 45.821811116666666,
            "lon": 12.831238883333333
        },
        {
            "name": "D237K",
            "lat": 45.903852783333335,
            "lon": 12.861022216666667
        },
        {
            "name": "D237M",
            "lat": 45.8871,
            "lon": 12.819763883333334
        },
        {
            "name": "D237N",
            "lat": 45.87871666666667,
            "lon": 12.799144433333334
        },
        {
            "name": "D238B",
            "lat": 45.91674166666667,
            "lon": 12.893975
        },
        {
            "name": "D238E",
            "lat": 45.898133333333334,
            "lon": 12.845986116666667
        },
        {
            "name": "D250X",
            "lat": 45.877488883333335,
            "lon": 12.540863883333333
        },
        {
            "name": "FT06",
            "lat": 45.92895278333334,
            "lon": 12.922958333333334
        },
        {
            "name": "ISA",
            "lat": 45.68752778333333,
            "lon": 12.117083333333333
        },
        {
            "name": "ISA33",
            "lat": 45.91563333333333,
            "lon": 12.832419433333333
        },
        {
            "name": "ISA36",
            "lat": 45.93614721666667,
            "lon": 12.897738883333334
        },
        {
            "name": "MARTE",
            "lat": 45.83675278333333,
            "lon": 12.696138883333333
        },
        {
            "name": "MT06",
            "lat": 45.97071111666666,
            "lon": 13.026305566666666
        },
        {
            "name": "RI30A",
            "lat": 45.58855,
            "lon": 12.673908333333333
        },
        {
            "name": "RI30B",
            "lat": 45.74410556666667,
            "lon": 12.470069433333334
        },
        {
            "name": "RISOM",
            "lat": 46.068055566666665,
            "lon": 12.960833333333333
        },
        {
            "name": "RIV",
            "lat": 45.995722216666664,
            "lon": 13.088388883333334
        },
        {
            "name": "RIVNB",
            "lat": 45.93533333333333,
            "lon": 12.942
        },
        {
            "name": "ROSKA",
            "lat": 45.314166666666665,
            "lon": 12.861666666666666
        },
        {
            "name": "RULFE",
            "lat": 45.496461116666666,
            "lon": 12.922697216666666
        },
        {
            "name": "VIC",
            "lat": 45.63730556666667,
            "lon": 11.676361116666667
        }
    ],
    "rnws": [
        "RNW 06",
        "RNW 24"
    ],
    "sids": [
        {
            "name": "CHI1C",
            "rnw": "24",
            "fixes": {
                "D211J": "D211J",
                "D211Q": "D211Q AT OR ABOVE 4000",
                "D211T": "D211T AT OR ABOVE 9000",
                "CHI": "CHI"
            },
            "sub_fixes": [],
            "transitions": []
        },
        {
            "name": "CHI1D",
            "rnw": "06",
            "fixes": {
                "D211J": "D211J",
                "D211Q": "D211Q AT OR ABOVE 4000",
                "D211T": "D211T AT OR ABOVE 9000",
                "CHI": "CHI"
            },
            "sub_fixes": [],
            "transitions": []
        },
        {
            "name": "CHI1E",
            "rnw": "24",
            "fixes": {
                "D224O": "OVERFLY D224O AT OR ABOVE 5500",
                "D144Y": "D144Y AT OR ABOVE 9000 TRK 144 INTERCEPT RADIAL 194 TO",
                "RULFE": "RULFE AT OR ABOVE 9000",
                "CHI": "CHI"
            },
            "sub_fixes": [],
            "transitions": []
        },
        {
            "name": "CHI1F",
            "rnw": "06",
            "fixes": {
                "RIV": "RIV",
                "D224O": "OVERFLY D224O AT OR ABOVE 5500",
                "D144Y": "D144Y AT OR ABOVE 9000 TRK 144 INTERCEPT RADIAL 194 TO",
                "RULFE": "RULFE AT OR ABOVE 9000",
                "CHI": "CHI"
            },
            "sub_fixes": [],
            "transitions": []
        },
        {
            "name": "CHI1G",
            "rnw": "24",
            "fixes": {
                "RIVNB": "RIVNB",
                "D211L": "D211L AT OR ABOVE 9000",
                "RULFE": "RULFE AT OR ABOVE 9000",
                "CHI": "CHI"
            },
            "sub_fixes": [],
            "transitions": []
        },
        {
            "name": "CHI1H",
            "rnw": "06",
            "fixes": {
                "RIVNB": "RIVNB",
                "D211L": "D211L AT OR ABOVE 9000",
                "RULFE": "RULFE AT OR ABOVE 9000",
                "CHI": "CHI"
            },
            "sub_fixes": [],
            "transitions": []
        },
        {
            "name": "ISA1A",
            "rnw": "24",
            "fixes": {
                "ISA33": "ISA33 AT OR ABOVE 5000",
                "ISA": "ISA"
            },
            "sub_fixes": [],
            "transitions": []
        },
        {
            "name": "ISA1B",
            "rnw": "06",
            "fixes": {
                "ISA36": "ISA36",
                "ISA33": "ISA33 AT OR ABOVE 5000",
                "ISA": "ISA"
            },
            "sub_fixes": [],
            "transitions": []
        },
        {
            "name": "RISO5C",
            "rnw": "24",
            "fixes": {
                "D250X": "OVERFLY D250X TURN RIGHT DIRECT",
                "AVI": "AVI",
                "RISOM": "RISOM AT OR ABOVE 13000"
            },
            "sub_fixes": [],
            "transitions": []
        },
        {
            "name": "RISO5D",
            "rnw": "06",
            "fixes": {
                "D250X": "OVERFLY D250X TURN RIGHT DIRECT",
                "AVI": "AVI",
                "RISOM": "RISOM AT OR ABOVE 13000"
            },
            "sub_fixes": [],
            "transitions": []
        },
        {
            "name": "RISO5G",
            "rnw": "24",
            "fixes": {
                "RIVNB": "RIVNB TRK 254 UNTIL 24.0 FROM",
                "RIV": "RIV TURN RIGHT DIRECT",
                "RISOM": "RISOM AT OR ABOVE 13000 SPEED 260"
            },
            "sub_fixes": [],
            "transitions": []
        },
        {
            "name": "RISO5H",
            "rnw": "06",
            "fixes": {
                "RIVNB": "RIVNB SPEED 220 TRK 254 UNTIL 24.0 FROM",
                "RIV": "RIV TURN RIGHT DIRECT",
                "RISOM": "RISOM AT OR ABOVE 13000 SPEED 260"
            },
            "sub_fixes": [],
            "transitions": []
        },
        {
            "name": "ROSK1C",
            "rnw": "24",
            "fixes": {
                "D191H": "D191H AT OR ABOVE 4000",
                "RULFE": "RULFE AT OR ABOVE 9000",
                "ROSKA": "ROSKA"
            },
            "sub_fixes": [],
            "transitions": []
        },
        {
            "name": "ROSK1D",
            "rnw": "06",
            "fixes": {
                "D191H": "D191H AT OR ABOVE 4000",
                "RULFE": "RULFE AT OR ABOVE 9000",
                "ROSKA": "ROSKA"
            },
            "sub_fixes": [],
            "transitions": []
        },
        {
            "name": "VIC5G",
            "rnw": "24",
            "fixes": {
                "RIVNB": "RIVNB",
                "VIC": "VIC"
            },
            "sub_fixes": [],
            "transitions": []
        },
        {
            "name": "VIC5H",
            "rnw": "06",
            "fixes": {
                "RIVNB": "RIVNB SPEED 220",
                "VIC": "VIC"
            },
            "sub_fixes": [],
            "transitions": []
        }
    ],
    "stars": [
        {
            "name": "CHI1N",
            "runway": "RNW 06 RNW 24",
            "fixes": {
                "CHI": "CHI",
                "RI30A": "RI30A",
                "D223L": "D223L",
                "RIVNB": "RIVNB"
            }
        },
        {
            "name": "VIC1D",
            "runway": "RNW 06 RNW 24",
            "fixes": {
                "VIC": "VIC",
                "D068T": "D068T",
                "RIVNB": "RIVNB"
            }
        }
    ],
    "approaches": [
        {
            "name": "NDB06",
            "fixes": {
                "RIVNB": "RIVNB 1500 RNW 06 TRK 058 UNTIL 580 TURN LEFT DIRECT RIVNB 2500 FAF RIVNB MAP RNW 06"
            },
            "transitions": [
                {
                    "name": "RIV1",
                    "fixes": {
                        "RIVNB": "RIVNB AT OR ABOVE 4000 TRK 209 UNTIL 4.6 FROM RIVNB TURN RIGHT DIRECT",
                        "D238E": "D238E AT OR ABOVE 2500"
                    }
                },
                {
                    "name": "RIV2",
                    "fixes": {
                        "RIVNB": "RIVNB AT OR ABOVE 4000 TRK 220 UNTIL 2.3 FROM RIVNB TURN RIGHT DIRECT",
                        "D238B": "D238B AT OR ABOVE 2500"
                    }
                }
            ]
        },
        {
            "name": "VOR06",
            "fixes": {
                "CT06": "CT06 AT OR ABOVE 2100",
                "FT06": "FT06 2100",
                "MT06": "MT06 352 RNW 06 TRK 057 UNTIL 580 TURN RIGHT TRK 273 INTERCEPT RADIAL 237 TO",
                "D237N": "D237N D237N AT OR ABOVE 3000 HOLD AT D237N RIGHT TURN INBOUNDCOURSE 057 ALT 4000 SPEED 230 LEGDIST 5 FAF FT06 MAP MT06"
            },
            "transitions": [
                {
                    "name": "MARTE",
                    "fixes": {
                        "MARTE": "MARTE AT OR ABOVE 4000",
                        "D237M": "D237M AT OR ABOVE 3100",
                        "D237K": "D237K AT OR ABOVE 2600"
                    }
                },
                {
                    "name": "RI30B",
                    "fixes": {
                        "RI30B": "RI30B AT OR ABOVE 10000",
                        "MARTE": "MARTE AT OR ABOVE 3100",
                        "D237K": "D237K AT OR ABOVE 2600"
                    }
                }
            ]
        }
    ]
}