{
    "fixes": [
        {
            "name": "ABIRI",
            "lat": 46.76250278333333,
            "lon": 14.967572216666667
        },
        {
            "name": "ARNOS",
            "lat": 46.54125556666666,
            "lon": 13.569311116666666
        },
        {
            "name": "BERTA",
            "lat": 46.449708333333334,
            "lon": 14.625236116666667
        },
        {
            "name": "D091B",
            "lat": 46.622233333333334,
            "lon": 14.582338883333334
        },
        {
            "name": "D283H",
            "lat": 46.675319433333335,
            "lon": 14.174047216666667
        },
        {
            "name": "DIPSA",
            "lat": 46.609605566666666,
            "lon": 14.922244433333333
        },
        {
            "name": "EVAXI",
            "lat": 46.776666666666664,
            "lon": 13.519722216666667
        },
        {
            "name": "FF28R",
            "lat": 46.60281388333333,
            "lon": 14.534030566666667
        },
        {
            "name": "INGID",
            "lat": 47.26853611666667,
            "lon": 13.685186116666667
        },
        {
            "name": "KFT",
            "lat": 46.59758611666667,
            "lon": 14.562322216666667
        },
        {
            "name": "KFTNB",
            "lat": 46.625086116666665,
            "lon": 14.534155566666668
        },
        {
            "name": "KINB",
            "lat": 46.63352221666667,
            "lon": 14.382380566666667
        },
        {
            "name": "KLAGY",
            "lat": 46.5143,
            "lon": 14.775169433333334
        },
        {
            "name": "MOKEG",
            "lat": 46.63351111666667,
            "lon": 14.382361116666667
        },
        {
            "name": "REKTI",
            "lat": 46.58453888333333,
            "lon": 13.897447216666666
        },
        {
            "name": "TISMA",
            "lat": 46.90881388333333,
            "lon": 14.159627783333333
        },
        {
            "name": "VILAK",
            "lat": 46.69639166666666,
            "lon": 13.914644433333333
        },
        {
            "name": "WK503",
            "lat": 46.633744433333334,
            "lon": 13.770305566666666
        },
        {
            "name": "WK610",
            "lat": 46.62108611666667,
            "lon": 14.443780566666666
        },
        {
            "name": "WK611",
            "lat": 46.829377783333335,
            "lon": 14.283191666666667
        },
        {
            "name": "WK612",
            "lat": 46.667475,
            "lon": 14.218252783333334
        },
        {
            "name": "WK614",
            "lat": 46.84281943333333,
            "lon": 14.053786116666666
        },
        {
            "name": "WK802",
            "lat": 46.70437221666667,
            "lon": 14.0278
        },
        {
            "name": "WK804",
            "lat": 46.71856388333333,
            "lon": 13.955930566666666
        },
        {
            "name": "WK806",
            "lat": 46.76541111666667,
            "lon": 14.157222216666666
        },
        {
            "name": "WK807",
            "lat": 46.725380566666665,
            "lon": 14.140361116666666
        },
        {
            "name": "WK808",
            "lat": 46.68537778333334,
            "lon": 14.123533333333333
        },
        {
            "name": "WK809",
            "lat": 46.678038883333336,
            "lon": 14.160386116666666
        },
        {
            "name": "WK810",
            "lat": 46.66775556666666,
            "lon": 14.211897216666667
        },
        {
            "name": "WK812",
            "lat": 46.57671666666667,
            "lon": 14.666775
        },
        {
            "name": "WK820",
            "lat": 46.675308333333334,
            "lon": 14.174094433333334
        },
        {
            "name": "WK823",
            "lat": 46.729630566666664,
            "lon": 14.886322216666667
        },
        {
            "name": "WK824",
            "lat": 46.684958333333334,
            "lon": 14.776291666666667
        },
        {
            "name": "WK825",
            "lat": 46.638702783333336,
            "lon": 14.662805566666666
        },
        {
            "name": "WK827",
            "lat": 46.59758333333333,
            "lon": 14.562322216666667
        },
        {
            "name": "WK830",
            "lat": 46.713458333333335,
            "lon": 14.416447216666667
        },
        {
            "name": "WK831",
            "lat": 46.668205566666664,
            "lon": 14.642869433333333
        },
        {
            "name": "WK832",
            "lat": 46.588275,
            "lon": 14.608738883333332
        },
        {
            "name": "WK833",
            "lat": 46.615538883333336,
            "lon": 14.471333333333334
        }
    ],
    "rnws": [
        "RNW 10L",
        "RNW 28R"
    ],
    "sids": [
        {
            "name": "ABIR1L",
            "rnw": "10L",
            "fixes": {
                "KFT": "OVERFLY KFT SPEED 205",
                "ABIRI": "ABIRI AT OR ABOVE 9000"
            },
            "sub_fixes": [],
            "transitions": []
        },
        {
            "name": "ABIR1R",
            "rnw": "28R",
            "fixes": {
                "WK612": "OVERFLY WK612 SPEED 205 TURN LEFT DIRECT",
                "KFT": "OVERFLY KFT",
                "ABIRI": "ABIRI AT OR ABOVE 9000"
            },
            "sub_fixes": [],
            "transitions": []
        },
        {
            "name": "BERT1L",
            "rnw": "10L",
            "fixes": {
                "KFT": "OVERFLY KFT SPEED 205",
                "BERTA": "BERTA AT OR ABOVE 11000"
            },
            "sub_fixes": [],
            "transitions": []
        },
        {
            "name": "BERT1R",
            "rnw": "28R",
            "fixes": {
                "WK612": "OVERFLY WK612 SPEED 205 TURN LEFT DIRECT",
                "KFT": "OVERFLY KFT",
                "BERTA": "BERTA AT OR ABOVE 11000"
            },
            "sub_fixes": [],
            "transitions": []
        },
        {
            "name": "INGI2L",
            "rnw": "10L",
            "fixes": {
                "WK610": "OVERFLY WK610 SPEED 205 TURN LEFT DIRECT",
                "WK611": "WK611 AT OR ABOVE 10000",
                "INGID": "INGID AT OR ABOVE 11500"
            },
            "sub_fixes": [],
            "transitions": []
        },
        {
            "name": "INGI2R",
            "rnw": "28R",
            "fixes": {
                "WK612": "OVERFLY WK612 SPEED 205",
                "WK614": "WK614 AT OR ABOVE 10000",
                "INGID": "INGID AT OR ABOVE 11500"
            },
            "sub_fixes": [],
            "transitions": []
        },
        {
            "name": "KFT1L",
            "rnw": "10L",
            "fixes": {
                "KFT": "KFT RIGHT TURN INBOUNDCOURSE 236 ALT 8500 LEGTIME 1"
            },
            "sub_fixes": [],
            "transitions": []
        },
        {
            "name": "KFT2R",
            "rnw": "28R",
            "fixes": {
                "WK612": "OVERFLY WK612 AT OR ABOVE 3000 SPEED 205 TURN LEFT DIRECT",
                "KFT": "KFT RIGHT TURN INBOUNDCOURSE 236 ALT 8500 LEGTIME 1"
            },
            "sub_fixes": [],
            "transitions": []
        },
        {
            "name": "KLAG1L",
            "rnw": "10L",
            "fixes": {
                "KFT": "OVERFLY KFT SPEED 205",
                "KLAGY": "KLAGY AT OR ABOVE 10000"
            },
            "sub_fixes": [],
            "transitions": []
        },
        {
            "name": "KLAG1R",
            "rnw": "28R",
            "fixes": {
                "WK612": "OVERFLY WK612 SPEED 205 TURN LEFT DIRECT",
                "KFT": "OVERFLY KFT",
                "KLAGY": "KLAGY AT OR ABOVE 10000"
            },
            "sub_fixes": [],
            "transitions": []
        },
        {
            "name": "REKT1L",
            "rnw": "10L",
            "fixes": {
                "WK610": "OVERFLY WK610 SPEED 205 TURN LEFT DIRECT",
                "WK612": "OVERFLY WK612 AT OR ABOVE 8000",
                "REKTI": "REKTI AT OR ABOVE 11000"
            },
            "sub_fixes": [],
            "transitions": []
        },
        {
            "name": "REKT1R",
            "rnw": "28R",
            "fixes": {
                "WK612": "OVERFLY WK612 SPEED 205",
                "REKTI": "REKTI AT OR ABOVE 11000"
            },
            "sub_fixes": [],
            "transitions": []
        },
        {
            "name": "VILA1L",
            "rnw": "10L",
            "fixes": {
                "WK610": "OVERFLY WK610 SPEED 205 TURN LEFT DIRECT",
                "WK612": "OVERFLY WK612 AT OR ABOVE 8000",
                "VILAK": "VILAK AT OR ABOVE 10000"
            },
            "sub_fixes": [],
            "transitions": []
        },
        {
            "name": "VILA1R",
            "rnw": "28R",
            "fixes": {
                "WK612": "OVERFLY WK612 SPEED 205",
                "VILAK": "VILAK AT OR ABOVE 10000"
            },
            "sub_fixes": [],
            "transitions": []
        }
    ],
    "stars": [
        {
            "name": "ABIR3A",
            "runway": "RNW 10L RNW 28R",
            "fixes": {
                "ABIRI": "ABIRI AT OR ABOVE 9000",
                "WK824": "WK824 AT OR ABOVE 8000",
                "WK827": "WK827 AT OR ABOVE 8000",
                "MOKEG": "MOKEG AT OR ABOVE 8000"
            }
        },
        {
            "name": "ABIR3T",
            "runway": "RNW 10L RNW 28R",
            "fixes": {
                "ABIRI": "ABIRI AT OR ABOVE 9000",
                "WK823": "WK823 AT OR ABOVE 8000",
                "WK824": "WK824 AT OR ABOVE 6500",
                "WK825": "WK825 AT OR ABOVE 5200",
                "WK827": "WK827 AT OR ABOVE 4000"
            }
        },
        {
            "name": "ARNO1T",
            "runway": "RNW 10L RNW 28R",
            "fixes": {
                "ARNOS": "ARNOS AT OR ABOVE 11500",
                "WK503": "WK503 AT OR ABOVE 8500",
                "WK804": "WK804 AT OR ABOVE 8000"
            }
        },
        {
            "name": "ARNO4A",
            "runway": "RNW 10L RNW 28R",
            "fixes": {
                "ARNOS": "ARNOS AT OR ABOVE 11500",
                "WK503": "WK503 AT OR ABOVE 8500",
                "WK804": "WK804 AT OR ABOVE 8000",
                "MOKEG": "MOKEG AT OR ABOVE 8000"
            }
        },
        {
            "name": "BERT2A",
            "runway": "RNW 10L RNW 28R",
            "fixes": {
                "BERTA": "BERTA AT OR ABOVE 10000",
                "WK827": "WK827 AT OR ABOVE 8000",
                "MOKEG": "MOKEG AT OR ABOVE 8000"
            }
        },
        {
            "name": "DIPS3A",
            "runway": "RNW 10L RNW 28R",
            "fixes": {
                "DIPSA": "DIPSA AT OR ABOVE 9000",
                "WK827": "WK827 AT OR ABOVE 8000",
                "MOKEG": "MOKEG AT OR ABOVE 8000"
            }
        },
        {
            "name": "EVAX1T",
            "runway": "RNW 10L RNW 28R",
            "fixes": {
                "EVAXI": "EVAXI AT OR ABOVE 15000",
                "WK804": "WK804 AT OR ABOVE 8000"
            }
        },
        {
            "name": "EVAX2A",
            "runway": "RNW 10L RNW 28R",
            "fixes": {
                "EVAXI": "EVAXI AT OR ABOVE 15000",
                "WK804": "WK804 AT OR ABOVE 8000",
                "MOKEG": "MOKEG AT OR ABOVE 8000"
            }
        },
        {
            "name": "KLAG2A",
            "runway": "RNW 10L RNW 28R",
            "fixes": {
                "KLAGY": "KLAGY AT OR ABOVE 10000",
                "WK827": "WK827 AT OR ABOVE 8100",
                "MOKEG": "MOKEG AT OR ABOVE 8000"
            }
        },
        {
            "name": "TISM1T",
            "runway": "RNW 10L RNW 28R",
            "fixes": {
                "TISMA": "TISMA AT OR ABOVE 10000",
                "WK806": "WK806 AT OR ABOVE 6300"
            }
        },
        {
            "name": "TISM2A",
            "runway": "RNW 10L RNW 28R",
            "fixes": {
                "TISMA": "TISMA AT OR ABOVE 12000",
                "WK806": "WK806 AT OR ABOVE 8000",
                "MOKEG": "MOKEG AT OR ABOVE 8000"
            }
        }
    ],
    "approaches": [
        {
            "name": "ILS28R",
            "fixes": {
                "KFT": "KFT AT OR ABOVE 4000 OVERFLY KFT TURN LEFT DIRECT",
                "FF28R": "FF28R 4000 RNW 28R",
                "D283H": "OVERFLY D283H SPEED 210 TURN LEFT DIRECT",
                "KINB": "KINB OVERFLY KINB 8000 HOLD AT KINB RIGHT TURN INBOUNDCOURSE 283 LEGTIME 1 FAF FF28R MAP RNW 28R"
            },
            "transitions": []
        },
        {
            "name": "NDB28R",
            "fixes": {
                "KFTNB": "KFTNB 4000 OVERFLY KFTNB TURN LEFT DIRECT",
                "KINB": "KINB 1899 RNW 28R TRK 283 UNTIL 4000 TURN LEFT DIRECT KINB SPEED 185 OVERFLY KINB AT OR ABOVE 8000 HOLD AT KINB RIGHT TURN INBOUNDCOURSE 283 LEGTIME 1 FAF KFTNB MAP KI"
            },
            "transitions": [
                {
                    "name": "KFT",
                    "fixes": {
                        "KFTNB": "KFTNB AT OR ABOVE 8500 KFTNB AT OR ABOVE 4600 TRK 055 UNTIL 3.1 FROM KFTNB TURN RIGHT DIRECT",
                        "KINB": "KINB SPEED 185 TRK 330 UNTIL 3.1 FROM KINB TURN LEFT DIRECT KINB AT OR ABOVE 5100",
                        "D091B": "D091B AT OR ABOVE 4600"
                    }
                },
                {
                    "name": "KI",
                    "fixes": {
                        "KINB": "KINB AT OR ABOVE 6000 SPEED 185 TRK 330 UNTIL 3.1 FROM KINB TURN LEFT DIRECT KINB AT OR ABOVE 5100",
                        "KFTNB": "KFTNB AT OR ABOVE 4600 TRK 055 UNTIL 3.1 FROM KFTNB TURN RIGHT DIRECT",
                        "D091B": "D091B AT OR ABOVE 4600"
                    }
                }
            ]
        },
        {
            "name": "RNAV10L",
            "fixes": {
                "WK808": "WK808 AT OR ABOVE 4500",
                "WK809": "WK809 AT OR ABOVE 4000",
                "WK810": "WK810 3300 RNW 10L",
                "WK812": "OVERFLY WK812 TURN LEFT DIRECT",
                "WK824": "OVERFLY WK824 TURN LEFT DIRECT",
                "WK830": "WK830",
                "MOKEG": "OVERFLY MOKEG AT OR ABOVE 8000 SPEED 230 HOLD AT MOKEG RIGHT TURN INBOUNDCOURSE 282 ALT 8000 SPEED 230 LEGTIME 1 FAF WK810 MAP RNW 10L"
            },
            "transitions": [
                {
                    "name": "MOK1W",
                    "fixes": {
                        "MOKEG": "MOKEG AT OR ABOVE 8000",
                        "WK830": "WK830 AT OR ABOVE 7000",
                        "WK806": "WK806 AT OR ABOVE 6300 SPEED 185",
                        "WK807": "WK807 AT OR ABOVE 5500 SPEED 185"
                    }
                },
                {
                    "name": "WK804",
                    "fixes": {
                        "WK804": "WK804 AT OR ABOVE 8000",
                        "WK802": "WK802 AT OR ABOVE 6500"
                    }
                },
                {
                    "name": "WK806",
                    "fixes": {
                        "WK806": "WK806 AT OR ABOVE 6300",
                        "WK807": "WK807 AT OR ABOVE 5500 SPEED 185"
                    }
                }
            ]
        },
        {
            "name": "RNAV28R",
            "fixes": {
                "WK827": "WK827 AT OR ABOVE 4000 SPEED 185",
                "WK833": "WK833 3100 RNW 28R",
                "WK820": "OVERFLY WK820 TURN LEFT DIRECT",
                "MOKEG": "MOKEG SPEED 210 OVERFLY MOKEG AT OR ABOVE 8000 HOLD AT MOKEG RIGHT TURN INBOUNDCOURSE 282 ALT 8000 SPEED 230 LEGTIME 1 FAF WK833 MAP RNW 28R",
                "WK812": "OVERFLY WK812 TURN LEFT DIRECT"
            },
            "transitions": [
                {
                    "name": "MOK2E",
                    "fixes": {
                        "MOKEG": "MOKEG AT OR ABOVE 8000",
                        "WK830": "WK830 AT OR ABOVE 7000",
                        "WK831": "WK831 AT OR ABOVE 5500 SPEED 185",
                        "WK832": "WK832 AT OR ABOVE 4000"
                    }
                },
                {
                    "name": "WK824",
                    "fixes": {
                        "WK824": "WK824 AT OR ABOVE 6500"
                    }
                }
            ]
        }
    ]
}