{
    "fixes": [
        {
            "name": "50TAC",
            "lat": 40.97026388333333,
            "lon": 8.651061116666666
        },
        {
            "name": "ABGOD",
            "lat": 40.65833333333333,
            "lon": 8.6175
        },
        {
            "name": "BEFIT",
            "lat": 40.74333333333333,
            "lon": 8.773611116666666
        },
        {
            "name": "CI361",
            "lat": 40.740036116666666,
            "lon": 8.630202783333333
        },
        {
            "name": "CI362",
            "lat": 40.720069433333336,
            "lon": 8.628422216666667
        },
        {
            "name": "CT18",
            "lat": 41.020172216666666,
            "lon": 8.655675
        },
        {
            "name": "CT36",
            "lat": 40.72071388333333,
            "lon": 8.628097216666667
        },
        {
            "name": "D178K",
            "lat": 40.70407778333333,
            "lon": 8.626572216666666
        },
        {
            "name": "DURNI",
            "lat": 40.97444443333333,
            "lon": 8.776388883333333
        },
        {
            "name": "FI361",
            "lat": 40.823233333333334,
            "lon": 8.637638883333333
        },
        {
            "name": "FI362",
            "lat": 40.803266666666666,
            "lon": 8.635852783333334
        },
        {
            "name": "FT18",
            "lat": 40.9869,
            "lon": 8.6526
        },
        {
            "name": "FT36",
            "lat": 40.8039,
            "lon": 8.635733333333333
        },
        {
            "name": "LUXIE",
            "lat": 40.6375,
            "lon": 8.62
        },
        {
            "name": "MT18",
            "lat": 40.935327783333335,
            "lon": 8.647836116666667
        },
        {
            "name": "MT36",
            "lat": 40.89706388333333,
            "lon": 8.644308333333333
        },
        {
            "name": "OFPAC",
            "lat": 40.39638888333333,
            "lon": 8.582222216666667
        },
        {
            "name": "OVR",
            "lat": 40.88708333333334,
            "lon": 8.643388883333333
        },
        {
            "name": "PRT32",
            "lat": 40.739425,
            "lon": 8.675586116666667
        }
    ],
    "rnws": [
        "RNW 18",
        "RNW 36"
    ],
    "sids": [
        {
            "name": "OFPA1S",
            "rnw": "18",
            "fixes": {
                "OVR": "OVR",
                "OFPAC": "OFPAC AT OR ABOVE 4000"
            },
            "sub_fixes": [],
            "transitions": []
        }
    ],
    "stars": [],
    "approaches": [
        {
            "name": "ILS136",
            "fixes": {
                "CI361": "CI361 AT OR ABOVE 2000",
                "FI361": "FI361 1675 RNW 36 HDG 358 VECTORS FAF FI361 MAP RNW 36"
            },
            "transitions": [
                {
                    "name": "ABGOD",
                    "fixes": {
                        "ABGOD": "ABGOD AT OR ABOVE 3000"
                    }
                },
                {
                    "name": "BEFIT",
                    "fixes": {
                        "BEFIT": "BEFIT AT OR ABOVE 3000",
                        "PRT32": "PRT32 AT OR ABOVE 2000"
                    }
                }
            ]
        },
        {
            "name": "ILS236",
            "fixes": {
                "CI362": "CI362 AT OR ABOVE 2500",
                "FI362": "FI362 2081 RNW 36 HDG 358 VECTORS FAF FI362 MAP RNW 36"
            },
            "transitions": [
                {
                    "name": "LUXIE",
                    "fixes": {
                        "LUXIE": "LUXIE AT OR ABOVE 3000",
                        "D178K": "D178K"
                    }
                }
            ]
        },
        {
            "name": "VOR18",
            "fixes": {
                "CT18": "CT18 AT OR ABOVE 1500",
                "FT18": "FT18 1200",
                "50TAC": "50TAC AT OR ABOVE 960",
                "MT18": "MT18 263 RNW 18 TRK 178 UNTIL 460 TURN RIGHT DIRECT",
                "DURNI": "DURNI 3500 FAF FT18 MAP MT18"
            },
            "transitions": [
                {
                    "name": "DURNI",
                    "fixes": {
                        "DURNI": "DURNI AT OR ABOVE 3500"
                    }
                }
            ]
        },
        {
            "name": "VOR36",
            "fixes": {
                "CT36": "CT36 AT OR ABOVE 2500",
                "FT36": "FT36 2000",
                "MT36": "MT36 262 RNW 36 HDG 358 VECTORS FAF FT36 MAP MT36"
            },
            "transitions": [
                {
                    "name": "LUXIE",
                    "fixes": {
                        "LUXIE": "LUXIE AT OR ABOVE 3000",
                        "D178K": "D178K"
                    }
                }
            ]
        }
    ]
}