{
    "fixes": [
        {
            "name": "96VOR",
            "lat": 46.76705556666667,
            "lon": 23.559555566666667
        },
        {
            "name": "ABIMO",
            "lat": 46.82144443333333,
            "lon": 23.835644433333332
        },
        {
            "name": "AF001",
            "lat": 46.85799605,
            "lon": 23.240783883333332
        },
        {
            "name": "AF002",
            "lat": 46.805383983333336,
            "lon": 23.234597466666667
        },
        {
            "name": "AF003",
            "lat": 46.87567133333334,
            "lon": 23.64475321666667
        },
        {
            "name": "AF004",
            "lat": 46.90541875,
            "lon": 23.693375783333334
        },
        {
            "name": "AF005",
            "lat": 46.92137451666667,
            "lon": 23.75434275
        },
        {
            "name": "AF006",
            "lat": 46.921439516666666,
            "lon": 23.819640683333333
        },
        {
            "name": "AF007",
            "lat": 46.90560523333333,
            "lon": 23.880675616666668
        },
        {
            "name": "AF008",
            "lat": 46.90812138333333,
            "lon": 23.700186583333334
        },
        {
            "name": "AF009",
            "lat": 46.920435983333334,
            "lon": 23.747654366666666
        },
        {
            "name": "AF010",
            "lat": 46.92321388333333,
            "lon": 23.798274233333334
        },
        {
            "name": "AF011",
            "lat": 46.91623391666667,
            "lon": 23.848016383333334
        },
        {
            "name": "AF012",
            "lat": 46.900051766666664,
            "lon": 23.892922166666665
        },
        {
            "name": "AF013",
            "lat": 46.999635983333334,
            "lon": 23.316803183333334
        },
        {
            "name": "AF014",
            "lat": 46.922091716666664,
            "lon": 23.263490583333333
        },
        {
            "name": "AF015",
            "lat": 46.83834086666667,
            "lon": 23.237204233333333
        },
        {
            "name": "AKUPO",
            "lat": 47.001044433333334,
            "lon": 24.395636116666665
        },
        {
            "name": "APSAM",
            "lat": 47.092925,
            "lon": 23.365458333333333
        },
        {
            "name": "ATSOS",
            "lat": 46.99583056666667,
            "lon": 22.854191666666665
        },
        {
            "name": "AXUTA",
            "lat": 46.92138333333333,
            "lon": 23.214291666666668
        },
        {
            "name": "BOKDO",
            "lat": 47.122536116666666,
            "lon": 23.644072216666668
        },
        {
            "name": "CI25",
            "lat": 46.831980566666665,
            "lon": 23.882780566666668
        },
        {
            "name": "CL071",
            "lat": 46.732163883333335,
            "lon": 23.322791666666667
        },
        {
            "name": "CL072",
            "lat": 46.784908333333334,
            "lon": 23.210827783333333
        },
        {
            "name": "CL073",
            "lat": 46.927058333333335,
            "lon": 23.837933333333332
        },
        {
            "name": "CL074",
            "lat": 46.635522216666665,
            "lon": 24.123744433333332
        },
        {
            "name": "CL251",
            "lat": 46.93691943333334,
            "lon": 23.882133333333332
        },
        {
            "name": "CL252",
            "lat": 46.90456111666667,
            "lon": 23.737463883333334
        },
        {
            "name": "CL253",
            "lat": 46.88806111666667,
            "lon": 24.062241666666665
        },
        {
            "name": "CL551",
            "lat": 46.75540556666667,
            "lon": 23.542563883333333
        },
        {
            "name": "CL552",
            "lat": 46.728913883333334,
            "lon": 23.4261
        },
        {
            "name": "CL553",
            "lat": 46.82372778333333,
            "lon": 23.38027221666667
        },
        {
            "name": "CL554",
            "lat": 46.89474166666667,
            "lon": 23.693752783333334
        },
        {
            "name": "CL555",
            "lat": 47.0057,
            "lon": 23.291802783333335
        },
        {
            "name": "CL698",
            "lat": 46.917375,
            "lon": 23.563486116666667
        },
        {
            "name": "CL699",
            "lat": 46.807463883333334,
            "lon": 23.773294433333334
        },
        {
            "name": "CL700",
            "lat": 46.737422216666666,
            "lon": 23.463377783333332
        },
        {
            "name": "CL701",
            "lat": 46.71118056666667,
            "lon": 23.3484
        },
        {
            "name": "CL771",
            "lat": 46.84090556666666,
            "lon": 23.9228
        },
        {
            "name": "CL772",
            "lat": 47.029372216666665,
            "lon": 23.736691666666665
        },
        {
            "name": "CL773",
            "lat": 46.8534,
            "lon": 23.440419433333332
        },
        {
            "name": "CL774",
            "lat": 46.787758333333336,
            "lon": 23.330708333333334
        },
        {
            "name": "CL898",
            "lat": 46.94876943333333,
            "lon": 23.503263883333332
        },
        {
            "name": "CL899",
            "lat": 46.75091388333333,
            "lon": 23.522727783333334
        },
        {
            "name": "CLJ",
            "lat": 46.80011111666666,
            "lon": 23.78725
        },
        {
            "name": "D047G",
            "lat": 46.875922216666666,
            "lon": 23.928916666666666
        },
        {
            "name": "D059M",
            "lat": 46.891072216666664,
            "lon": 24.060272216666668
        },
        {
            "name": "D253S",
            "lat": 46.73376666666667,
            "lon": 23.339294433333333
        },
        {
            "name": "D253W",
            "lat": 46.72111111666667,
            "lon": 23.249444433333334
        },
        {
            "name": "D258W",
            "lat": 46.752738883333336,
            "lon": 23.241358333333334
        },
        {
            "name": "D282I",
            "lat": 46.84664166666666,
            "lon": 23.569405566666667
        },
        {
            "name": "D282U",
            "lat": 46.90198888333333,
            "lon": 23.307019433333334
        },
        {
            "name": "D310E",
            "lat": 46.864294433333335,
            "lon": 23.695397216666667
        },
        {
            "name": "DOKUD",
            "lat": 46.46873611666667,
            "lon": 24.955930566666666
        },
        {
            "name": "EBILO",
            "lat": 46.856344433333334,
            "lon": 23.523691666666668
        },
        {
            "name": "EDETA",
            "lat": 45.76896943333333,
            "lon": 24.931180566666665
        },
        {
            "name": "EKRAT",
            "lat": 46.44066943333333,
            "lon": 24.138688883333334
        },
        {
            "name": "ELROM",
            "lat": 46.74186666666667,
            "lon": 23.031863883333333
        },
        {
            "name": "EMBIB",
            "lat": 45.89226111666667,
            "lon": 23.637325
        },
        {
            "name": "ENITU",
            "lat": 46.911752783333334,
            "lon": 23.627277783333334
        },
        {
            "name": "ENOSO",
            "lat": 46.462586116666664,
            "lon": 24.761361116666667
        },
        {
            "name": "EPURA",
            "lat": 45.77840833333333,
            "lon": 24.505047216666668
        },
        {
            "name": "FD07",
            "lat": 46.75211111666667,
            "lon": 23.457777783333334
        },
        {
            "name": "IBAVA",
            "lat": 46.038102783333336,
            "lon": 24.250836116666665
        },
        {
            "name": "IBINU",
            "lat": 45.91803888333333,
            "lon": 23.278755566666668
        },
        {
            "name": "IPDIS",
            "lat": 46.16126666666667,
            "lon": 24.239708333333333
        },
        {
            "name": "IRLIT",
            "lat": 47.095441666666666,
            "lon": 23.220155566666666
        },
        {
            "name": "IRLOX",
            "lat": 45.63555556666667,
            "lon": 24.183888883333335
        },
        {
            "name": "IRLUP",
            "lat": 46.77535,
            "lon": 23.98715
        },
        {
            "name": "ITVAX",
            "lat": 45.823775,
            "lon": 24.473827783333334
        },
        {
            "name": "IXORI",
            "lat": 46.72018611666667,
            "lon": 23.242333333333335
        },
        {
            "name": "IXUBA",
            "lat": 46.60754166666667,
            "lon": 23.976272216666665
        },
        {
            "name": "LARMU",
            "lat": 47.25027778333333,
            "lon": 23.135833333333334
        },
        {
            "name": "MD07",
            "lat": 46.781444433333334,
            "lon": 23.656083333333335
        },
        {
            "name": "MOBRA",
            "lat": 45.86444443333333,
            "lon": 24.819444433333334
        },
        {
            "name": "OTRIX",
            "lat": 45.88248333333333,
            "lon": 24.283436116666667
        },
        {
            "name": "RW25",
            "lat": 46.79019443333333,
            "lon": 23.696461116666665
        },
        {
            "name": "SIBNB",
            "lat": 45.785,
            "lon": 24.152583333333332
        },
        {
            "name": "TGMNB",
            "lat": 46.44691666666667,
            "lon": 24.306583333333332
        },
        {
            "name": "TIPOV",
            "lat": 46.8475,
            "lon": 23.953055566666666
        },
        {
            "name": "UXULA",
            "lat": 46.033433333333335,
            "lon": 24.209986116666666
        },
        {
            "name": "VIBUD",
            "lat": 46.84188888333333,
            "lon": 23.927197216666666
        }
    ],
    "rnws": [
        "RNW 07",
        "RNW 25"
    ],
    "sids": [
        {
            "name": "AKUP1A",
            "rnw": "07",
            "fixes": {
                "CLJ": "CLJ",
                "AKUPO": "AKUPO AT OR ABOVE 10000"
            },
            "sub_fixes": [],
            "transitions": []
        },
        {
            "name": "AKUP1C",
            "rnw": "25",
            "fixes": {
                "CLJ": "CLJ AT OR ABOVE 9000",
                "AKUPO": "AKUPO AT OR ABOVE 10000"
            },
            "sub_fixes": [],
            "transitions": []
        },
        {
            "name": "AKUP1K",
            "rnw": "07",
            "fixes": {
                "CL771": "CL771 SPEED 250",
                "AKUPO": "AKUPO AT OR ABOVE 10000"
            },
            "sub_fixes": [],
            "transitions": []
        },
        {
            "name": "AKUP1M",
            "rnw": "25",
            "fixes": {
                "CL552": "CL552 SPEED 250",
                "CL553": "CL553 SPEED 250",
                "CL554": "CL554",
                "CL073": "CL073",
                "AKUPO": "AKUPO AT OR ABOVE 10000"
            },
            "sub_fixes": [],
            "transitions": []
        },
        {
            "name": "DOKU1A",
            "rnw": "07",
            "fixes": {
                "CLJ": "CLJ AT OR ABOVE 9000 SPEED 220",
                "EKRAT": "EKRAT",
                "TGMNB": "TGMNB",
                "DOKUD": "DOKUD AT OR ABOVE 10000"
            },
            "sub_fixes": [],
            "transitions": []
        },
        {
            "name": "DOKU1C",
            "rnw": "25",
            "fixes": {
                "CLJ": "CLJ AT OR ABOVE 9000",
                "EKRAT": "EKRAT",
                "TGMNB": "TGMNB",
                "DOKUD": "DOKUD AT OR ABOVE 10000"
            },
            "sub_fixes": [],
            "transitions": []
        },
        {
            "name": "DOKU1K",
            "rnw": "07",
            "fixes": {
                "CL771": "OVERFLY CL771 AT OR BELOW 7000 SPEED 250 TRK 321 UNTIL 8000 TURN LEFT DIRECT",
                "CLJ": "CLJ AT OR ABOVE 9000",
                "IXUBA": "IXUBA",
                "EKRAT": "EKRAT",
                "DOKUD": "DOKUD AT OR ABOVE 10000"
            },
            "sub_fixes": [],
            "transitions": []
        },
        {
            "name": "DOKU1M",
            "rnw": "25",
            "fixes": {
                "CL552": "CL552 SPEED 250",
                "CL553": "CL553 SPEED 250",
                "CL554": "CL554",
                "CLJ": "CLJ AT OR ABOVE 9000",
                "IXUBA": "IXUBA",
                "EKRAT": "EKRAT",
                "DOKUD": "DOKUD AT OR ABOVE 10000"
            },
            "sub_fixes": [],
            "transitions": []
        },
        {
            "name": "ELRO1A",
            "rnw": "07",
            "fixes": {
                "CLJ": "CLJ TURN LEFT HDG 229 INTERCEPT RADIAL 259 TO",
                "ELROM": "ELROM AT OR ABOVE 11000"
            },
            "sub_fixes": [],
            "transitions": []
        },
        {
            "name": "ELRO1C",
            "rnw": "25",
            "fixes": {
                "ELROM": "ELROM AT OR ABOVE 11000"
            },
            "sub_fixes": [],
            "transitions": []
        },
        {
            "name": "ELRO1K",
            "rnw": "07",
            "fixes": {
                "CL771": "CL771 SPEED 250",
                "CL772": "CL772 TURN LEFT DIRECT",
                "CL773": "CL773 AT OR ABOVE 9000",
                "CL774": "CL774",
                "ELROM": "ELROM AT OR ABOVE 11000"
            },
            "sub_fixes": [],
            "transitions": []
        },
        {
            "name": "ELRO1M",
            "rnw": "25",
            "fixes": {
                "CL551": "CL551",
                "ELROM": "ELROM AT OR ABOVE 11000"
            },
            "sub_fixes": [],
            "transitions": []
        },
        {
            "name": "IRLO1A",
            "rnw": "07",
            "fixes": {
                "CLJ": "CLJ AT OR ABOVE 9000 SPEED 220",
                "IXUBA": "IXUBA",
                "SIBNB": "SIBNB",
                "IRLOX": "IRLOX AT OR ABOVE 11000"
            },
            "sub_fixes": [],
            "transitions": []
        },
        {
            "name": "IRLO1C",
            "rnw": "25",
            "fixes": {
                "CLJ": "CLJ AT OR ABOVE 9000",
                "IXUBA": "IXUBA",
                "SIBNB": "SIBNB",
                "IRLOX": "IRLOX AT OR ABOVE 11000"
            },
            "sub_fixes": [],
            "transitions": []
        },
        {
            "name": "IRLO1K",
            "rnw": "07",
            "fixes": {
                "CL771": "OVERFLY CL771 AT OR BELOW 7000 SPEED 250 TRK 321 UNTIL 8000 TURN LEFT DIRECT",
                "CLJ": "CLJ AT OR ABOVE 9000",
                "IXUBA": "IXUBA",
                "SIBNB": "SIBNB",
                "IRLOX": "IRLOX AT OR ABOVE 11000"
            },
            "sub_fixes": [],
            "transitions": []
        },
        {
            "name": "IRLO1M",
            "rnw": "25",
            "fixes": {
                "CL552": "CL552 SPEED 250",
                "CL553": "CL553 SPEED 250",
                "CL554": "CL554",
                "CLJ": "CLJ AT OR ABOVE 9000",
                "IXUBA": "IXUBA",
                "SIBNB": "SIBNB",
                "IRLOX": "IRLOX AT OR ABOVE 11000"
            },
            "sub_fixes": [],
            "transitions": []
        },
        {
            "name": "LARM1A",
            "rnw": "07",
            "fixes": {
                "CLJ": "CLJ TURN LEFT HDG 280 INTERCEPT RADIAL 310 TO",
                "LARMU": "LARMU AT OR ABOVE 10000"
            },
            "sub_fixes": [],
            "transitions": []
        },
        {
            "name": "LARM1K",
            "rnw": "07",
            "fixes": {
                "CL771": "CL771 SPEED 250",
                "CL772": "CL772",
                "BOKDO": "BOKDO",
                "LARMU": "LARMU AT OR ABOVE 10000"
            },
            "sub_fixes": [],
            "transitions": []
        },
        {
            "name": "LARM1M",
            "rnw": "25",
            "fixes": {
                "CL552": "CL552 SPEED 250",
                "CL553": "CL553",
                "CL555": "CL555",
                "LARMU": "LARMU AT OR ABOVE 10000"
            },
            "sub_fixes": [],
            "transitions": []
        }
    ],
    "stars": [
        {
            "name": "AKUP1E",
            "runway": "RNW 07",
            "fixes": {
                "AKUPO": "AKUPO",
                "CLJ": "CLJ",
                "EBILO": "EBILO",
                "D282U": "D282U",
                "AF001": "AF001",
                "AF002": "AF002",
                "D258W": "D258W",
                "D253W": "D253W",
                "D253S": "D253S",
                "FD07": "FD07"
            }
        },
        {
            "name": "AKUP1F",
            "runway": "RNW 25",
            "fixes": {
                "AKUPO": "AKUPO",
                "D059M": "D059M",
                "CI25": "CI25"
            }
        },
        {
            "name": "AKUP1U",
            "runway": "RNW 07",
            "fixes": {
                "AKUPO": "AKUPO AT OR ABOVE 10000",
                "CL073": "CL073",
                "EBILO": "EBILO AT OR BELOW 12000 AT OR ABOVE 6300",
                "CL072": "CL072 SPEED 210"
            }
        },
        {
            "name": "AKUP1X",
            "runway": "RNW 25",
            "fixes": {
                "AKUPO": "AKUPO AT OR ABOVE 10000",
                "CL253": "CL253 AT OR ABOVE 3100",
                "VIBUD": "VIBUD SPEED 210"
            }
        },
        {
            "name": "ATSO1E",
            "runway": "RNW 07",
            "fixes": {
                "ATSOS": "ATSOS",
                "AXUTA": "AXUTA",
                "AF001": "AF001",
                "AF002": "AF002",
                "D258W": "D258W",
                "D253W": "D253W",
                "D253S": "D253S",
                "FD07": "FD07"
            }
        },
        {
            "name": "ATSO1F",
            "runway": "RNW 25",
            "fixes": {
                "ATSOS": "ATSOS",
                "AXUTA": "AXUTA",
                "EBILO": "EBILO",
                "D282I": "D282I",
                "AF003": "AF003",
                "AF004": "AF004",
                "AF005": "AF005",
                "AF006": "AF006",
                "AF007": "AF007",
                "D047G": "D047G",
                "TIPOV": "TIPOV SPEED 210 TURN RIGHT DIRECT",
                "CI25": "CI25"
            }
        },
        {
            "name": "ATSO1U",
            "runway": "RNW 07",
            "fixes": {
                "ATSOS": "ATSOS AT OR ABOVE 8000",
                "AXUTA": "AXUTA AT OR ABOVE 8000",
                "CL072": "CL072 SPEED 210"
            }
        },
        {
            "name": "ATSO1X",
            "runway": "RNW 25",
            "fixes": {
                "ATSOS": "ATSOS AT OR ABOVE 8000",
                "AXUTA": "AXUTA AT OR ABOVE 8000",
                "EBILO": "EBILO AT OR ABOVE 6300",
                "CL252": "CL252 AT OR ABOVE 3400",
                "CL251": "CL251",
                "VIBUD": "VIBUD SPEED 210"
            }
        },
        {
            "name": "DOKU1E",
            "runway": "RNW 07",
            "fixes": {
                "DOKUD": "DOKUD",
                "TGMNB": "TGMNB SPEED 250",
                "IRLUP": "IRLUP",
                "CLJ": "CLJ",
                "EBILO": "EBILO",
                "D282U": "D282U",
                "AF001": "AF001",
                "AF002": "AF002",
                "D258W": "D258W",
                "D253W": "D253W",
                "D253S": "D253S",
                "FD07": "FD07"
            }
        },
        {
            "name": "DOKU1F",
            "runway": "RNW 25",
            "fixes": {
                "DOKUD": "DOKUD",
                "TGMNB": "TGMNB",
                "IRLUP": "IRLUP",
                "CLJ": "CLJ",
                "D310E": "D310E",
                "AF008": "AF008",
                "AF009": "AF009",
                "AF010": "AF010",
                "AF011": "AF011",
                "AF012": "AF012",
                "D047G": "D047G",
                "TIPOV": "TIPOV SPEED 210 TURN RIGHT DIRECT",
                "CI25": "CI25"
            }
        },
        {
            "name": "DOKU1U",
            "runway": "RNW 07",
            "fixes": {
                "DOKUD": "DOKUD AT OR ABOVE 10000",
                "ENOSO": "ENOSO",
                "CL074": "CL074",
                "IRLUP": "IRLUP",
                "CLJ": "CLJ AT OR BELOW 12000 AT OR ABOVE 9000",
                "EBILO": "EBILO AT OR BELOW 12000 AT OR ABOVE 6300",
                "CL072": "CL072 SPEED 210"
            }
        },
        {
            "name": "DOKU1X",
            "runway": "RNW 25",
            "fixes": {
                "DOKUD": "DOKUD AT OR ABOVE 10000",
                "ENOSO": "ENOSO",
                "CL074": "CL074",
                "IRLUP": "IRLUP",
                "CLJ": "CLJ AT OR BELOW 12000 AT OR ABOVE 9000",
                "CL252": "CL252 AT OR ABOVE 3000",
                "CL251": "CL251",
                "VIBUD": "VIBUD SPEED 210"
            }
        },
        {
            "name": "EDET1E",
            "runway": "RNW 07",
            "fixes": {
                "EDETA": "EDETA",
                "EPURA": "EPURA",
                "SIBNB": "SIBNB SPEED 250",
                "UXULA": "UXULA",
                "IPDIS": "IPDIS",
                "TGMNB": "TGMNB SPEED 250",
                "IRLUP": "IRLUP",
                "CLJ": "CLJ",
                "EBILO": "EBILO",
                "D282U": "D282U",
                "AF001": "AF001",
                "AF002": "AF002",
                "D258W": "D258W",
                "D253W": "D253W",
                "D253S": "D253S",
                "FD07": "FD07"
            }
        },
        {
            "name": "EDET1F",
            "runway": "RNW 25",
            "fixes": {
                "EDETA": "EDETA",
                "EPURA": "EPURA",
                "SIBNB": "SIBNB SPEED 250",
                "UXULA": "UXULA",
                "IPDIS": "IPDIS",
                "TGMNB": "TGMNB SPEED 250",
                "IRLUP": "IRLUP",
                "CLJ": "CLJ",
                "D310E": "D310E",
                "AF008": "AF008",
                "AF009": "AF009",
                "AF010": "AF010",
                "AF011": "AF011",
                "AF012": "AF012",
                "D047G": "D047G",
                "TIPOV": "TIPOV SPEED 210 TURN RIGHT DIRECT",
                "CI25": "CI25"
            }
        },
        {
            "name": "EDET1U",
            "runway": "RNW 07",
            "fixes": {
                "EDETA": "EDETA AT OR ABOVE 11000",
                "MOBRA": "MOBRA AT OR ABOVE 11000",
                "OTRIX": "OTRIX SPEED 250",
                "IBAVA": "IBAVA AT OR ABOVE 9000 SPEED 250",
                "CL074": "CL074",
                "IRLUP": "IRLUP",
                "CLJ": "CLJ AT OR BELOW 12000 AT OR ABOVE 9000",
                "EBILO": "EBILO AT OR BELOW 12000 AT OR ABOVE 6300",
                "CL072": "CL072 SPEED 210"
            }
        },
        {
            "name": "EDET1X",
            "runway": "RNW 25",
            "fixes": {
                "EDETA": "EDETA AT OR ABOVE 11000",
                "MOBRA": "MOBRA AT OR ABOVE 11000",
                "OTRIX": "OTRIX SPEED 250",
                "IBAVA": "IBAVA AT OR ABOVE 9000 SPEED 250",
                "CL074": "CL074",
                "IRLUP": "IRLUP",
                "CLJ": "CLJ AT OR BELOW 12000 AT OR ABOVE 9000",
                "CL252": "CL252 AT OR ABOVE 3000",
                "CL251": "CL251",
                "VIBUD": "VIBUD SPEED 210"
            }
        },
        {
            "name": "IBIN1E",
            "runway": "RNW 07",
            "fixes": {
                "IBINU": "IBINU",
                "SIBNB": "SIBNB SPEED 250",
                "UXULA": "UXULA",
                "IPDIS": "IPDIS",
                "TGMNB": "TGMNB SPEED 250",
                "IRLUP": "IRLUP",
                "CLJ": "CLJ",
                "EBILO": "EBILO",
                "D282U": "D282U",
                "AF001": "AF001",
                "AF002": "AF002",
                "D258W": "D258W",
                "D253W": "D253W",
                "D253S": "D253S",
                "FD07": "FD07"
            }
        },
        {
            "name": "IBIN1F",
            "runway": "RNW 25",
            "fixes": {
                "IBINU": "IBINU",
                "SIBNB": "SIBNB SPEED 250",
                "UXULA": "UXULA",
                "IPDIS": "IPDIS",
                "TGMNB": "TGMNB SPEED 250",
                "IRLUP": "IRLUP",
                "CLJ": "CLJ",
                "D310E": "D310E",
                "AF008": "AF008",
                "AF009": "AF009",
                "AF010": "AF010",
                "AF011": "AF011",
                "AF012": "AF012",
                "D047G": "D047G",
                "TIPOV": "TIPOV SPEED 210 TURN RIGHT DIRECT",
                "CI25": "CI25"
            }
        },
        {
            "name": "IBIN1U",
            "runway": "RNW 07",
            "fixes": {
                "IBINU": "IBINU AT OR ABOVE 11000",
                "EMBIB": "EMBIB",
                "OTRIX": "OTRIX SPEED 250",
                "IBAVA": "IBAVA AT OR ABOVE 9000 SPEED 250",
                "CL074": "CL074",
                "IRLUP": "IRLUP",
                "CLJ": "CLJ AT OR BELOW 12000 AT OR ABOVE 9000",
                "EBILO": "EBILO AT OR BELOW 12000 AT OR ABOVE 6300",
                "CL072": "CL072 SPEED 210"
            }
        },
        {
            "name": "IBIN1X",
            "runway": "RNW 25",
            "fixes": {
                "IBINU": "IBINU AT OR ABOVE 11000",
                "EMBIB": "EMBIB",
                "OTRIX": "OTRIX SPEED 250",
                "IBAVA": "IBAVA AT OR ABOVE 9000 SPEED 250",
                "CL074": "CL074",
                "IRLUP": "IRLUP",
                "CLJ": "CLJ AT OR BELOW 12000 AT OR ABOVE 9000",
                "CL252": "CL252 AT OR ABOVE 3000",
                "CL251": "CL251",
                "VIBUD": "VIBUD SPEED 210"
            }
        },
        {
            "name": "LARM1E",
            "runway": "RNW 07",
            "fixes": {
                "LARMU": "LARMU",
                "APSAM": "APSAM",
                "AF013": "AF013",
                "AF014": "AF014",
                "AF015": "AF015",
                "D258W": "D258W",
                "D253W": "D253W",
                "D253S": "D253S",
                "FD07": "FD07"
            }
        },
        {
            "name": "LARM1F",
            "runway": "RNW 25",
            "fixes": {
                "LARMU": "LARMU",
                "APSAM": "APSAM",
                "ENITU": "ENITU",
                "AF008": "AF008",
                "AF009": "AF009",
                "AF010": "AF010",
                "AF011": "AF011",
                "AF012": "AF012",
                "D047G": "D047G",
                "TIPOV": "TIPOV SPEED 210 TURN RIGHT DIRECT",
                "CI25": "CI25"
            }
        },
        {
            "name": "LARM1U",
            "runway": "RNW 07",
            "fixes": {
                "LARMU": "LARMU AT OR ABOVE 10000",
                "APSAM": "APSAM AT OR ABOVE 6300",
                "CL072": "CL072 SPEED 210"
            }
        },
        {
            "name": "LARM1X",
            "runway": "RNW 25",
            "fixes": {
                "LARMU": "LARMU AT OR ABOVE 10000",
                "APSAM": "APSAM AT OR ABOVE 6300",
                "ENITU": "ENITU AT OR ABOVE 6300",
                "CL252": "CL252 AT OR ABOVE 3000",
                "CL251": "CL251",
                "VIBUD": "VIBUD SPEED 210"
            }
        },
        {
            "name": "MOBR1E",
            "runway": "RNW 07",
            "fixes": {
                "MOBRA": "MOBRA",
                "ITVAX": "ITVAX",
                "SIBNB": "SIBNB SPEED 250",
                "UXULA": "UXULA",
                "IPDIS": "IPDIS",
                "TGMNB": "TGMNB SPEED 250",
                "IRLUP": "IRLUP",
                "CLJ": "CLJ",
                "EBILO": "EBILO",
                "D282U": "D282U",
                "AF001": "AF001",
                "AF002": "AF002",
                "D258W": "D258W",
                "D253W": "D253W",
                "D253S": "D253S",
                "FD07": "FD07"
            }
        },
        {
            "name": "MOBR1F",
            "runway": "RNW 25",
            "fixes": {
                "MOBRA": "MOBRA",
                "ITVAX": "ITVAX",
                "SIBNB": "SIBNB SPEED 250",
                "UXULA": "UXULA",
                "IPDIS": "IPDIS",
                "TGMNB": "TGMNB SPEED 250",
                "IRLUP": "IRLUP",
                "CLJ": "CLJ",
                "D310E": "D310E",
                "AF008": "AF008",
                "AF009": "AF009",
                "AF010": "AF010",
                "AF011": "AF011",
                "AF012": "AF012",
                "D047G": "D047G",
                "TIPOV": "TIPOV SPEED 210 TURN RIGHT DIRECT",
                "CI25": "CI25"
            }
        },
        {
            "name": "MOBR1U",
            "runway": "RNW 07",
            "fixes": {
                "MOBRA": "MOBRA AT OR ABOVE 11000",
                "OTRIX": "OTRIX SPEED 250",
                "IBAVA": "IBAVA AT OR ABOVE 9000 SPEED 250",
                "CL074": "CL074",
                "IRLUP": "IRLUP",
                "CLJ": "CLJ AT OR BELOW 12000 AT OR ABOVE 9000",
                "EBILO": "EBILO AT OR BELOW 12000 AT OR ABOVE 6300",
                "CL072": "CL072 SPEED 210"
            }
        },
        {
            "name": "MOBR1X",
            "runway": "RNW 25",
            "fixes": {
                "MOBRA": "MOBRA AT OR ABOVE 11000",
                "OTRIX": "OTRIX SPEED 250",
                "IBAVA": "IBAVA AT OR ABOVE 9000 SPEED 250",
                "CL074": "CL074",
                "IRLUP": "IRLUP",
                "CLJ": "CLJ AT OR BELOW 12000 AT OR ABOVE 9000",
                "CL252": "CL252 AT OR ABOVE 3000",
                "CL251": "CL251",
                "VIBUD": "VIBUD SPEED 210"
            }
        }
    ],
    "approaches": [
        {
            "name": "VORD07",
            "fixes": {
                "FD07": "FD07 4000",
                "96VOR": "96VOR AT OR ABOVE 2640",
                "MD07": "MD07 1333 RNW 07",
                "CLJ": "OVERFLY CLJ TURN LEFT TRK 272 INTERCEPT RADIAL 302 TO",
                "IRLIT": "IRLIT SPEED 230 OVERFLY IRLIT 6300 TURN RIGHT DIRECT",
                "APSAM": "APSAM HOLD AT APSAM RIGHT TURN INBOUNDCOURSE 130 SPEED 230 LEGDIST 4 FAF FD07 MAP MD07"
            },
            "transitions": [
                {
                    "name": "CL072",
                    "fixes": {
                        "CL072": "CL072 AT OR ABOVE 6300 SPEED 210",
                        "IXORI": "IXORI AT OR ABOVE 6300 SPEED 210",
                        "CL071": "CL071 AT OR ABOVE 5300"
                    }
                }
            ]
        },
        {
            "name": "ILS25",
            "fixes": {
                "CI25": "CI25 AT OR ABOVE 3000",
                "ABIMO": "ABIMO 3000 RNW 25 TRK 247 UNTIL 11.3 FROM",
                "CLJ": "CLJ TURN RIGHT TRK 026 INTERCEPT RADIAL 302 TO",
                "IRLIT": "IRLIT SPEED 230 OVERFLY IRLIT 6300 TURN RIGHT DIRECT",
                "APSAM": "APSAM 6300 HOLD AT APSAM RIGHT TURN INBOUNDCOURSE 130 SPEED 230 LEGDIST 4 FAF ABIMO MAP RNW 25"
            },
            "transitions": []
        },
        {
            "name": "RNAV07",
            "fixes": {
                "CL701": "CL701 AT OR ABOVE 5100 SPEED 210",
                "CL700": "CL700 4000 RNW 07",
                "CL699": "OVERFLY CL699 TURN LEFT DIRECT",
                "CL698": "CL698 AT OR BELOW 5300",
                "IRLIT": "OVERFLY IRLIT AT OR ABOVE 6300 TURN RIGHT DIRECT",
                "APSAM": "APSAM 6300 HOLD AT APSAM RIGHT TURN INBOUNDCOURSE 130 SPEED 230 LEGDIST 4 FAF CL700 MAP RNW 07"
            },
            "transitions": [
                {
                    "name": "CL072",
                    "fixes": {
                        "CL072": "CL072 SPEED 210",
                        "IXORI": "IXORI AT OR ABOVE 6300 SPEED 210"
                    }
                }
            ]
        },
        {
            "name": "RNAV25",
            "fixes": {
                "VIBUD": "VIBUD SPEED 210",
                "ABIMO": "ABIMO 3000 RNW 25",
                "CL899": "OVERFLY CL899 TURN RIGHT DIRECT",
                "CL898": "CL898",
                "IRLIT": "OVERFLY IRLIT AT OR ABOVE 6300 TURN RIGHT DIRECT",
                "APSAM": "APSAM 6300 HOLD AT APSAM RIGHT TURN INBOUNDCOURSE 130 SPEED 230 LEGDIST 4 FAF ABIMO MAP RNW 25"
            },
            "transitions": []
        }
    ]
}