{
    "fixes": [
        {
            "name": "50DME",
            "lat": 46.488694433333336,
            "lon": 24.52025
        },
        {
            "name": "AKUPO",
            "lat": 47.001044433333334,
            "lon": 24.395636116666665
        },
        {
            "name": "APSAM",
            "lat": 47.092925,
            "lon": 23.365458333333333
        },
        {
            "name": "ATSOS",
            "lat": 46.99583056666667,
            "lon": 22.854191666666665
        },
        {
            "name": "AXUTA",
            "lat": 46.92138333333333,
            "lon": 23.214291666666668
        },
        {
            "name": "BAI60",
            "lat": 46.459925,
            "lon": 24.682888883333334
        },
        {
            "name": "BOKDO",
            "lat": 47.122536116666666,
            "lon": 23.644072216666668
        },
        {
            "name": "CLJ",
            "lat": 46.80011111666666,
            "lon": 23.78725
        },
        {
            "name": "D249J",
            "lat": 46.401102783333336,
            "lon": 24.074669433333334
        },
        {
            "name": "DOKUD",
            "lat": 46.46873611666667,
            "lon": 24.955930566666666
        },
        {
            "name": "DOTEV",
            "lat": 46.39088056666667,
            "lon": 24.023294433333334
        },
        {
            "name": "EBILO",
            "lat": 46.856344433333334,
            "lon": 23.523691666666668
        },
        {
            "name": "EDETA",
            "lat": 45.76896943333333,
            "lon": 24.931180566666665
        },
        {
            "name": "EKRAT",
            "lat": 46.44066943333333,
            "lon": 24.138688883333334
        },
        {
            "name": "ELROM",
            "lat": 46.74186666666667,
            "lon": 23.031863883333333
        },
        {
            "name": "EMBIB",
            "lat": 45.89226111666667,
            "lon": 23.637325
        },
        {
            "name": "ENITU",
            "lat": 46.911752783333334,
            "lon": 23.627277783333334
        },
        {
            "name": "ENOSO",
            "lat": 46.462586116666664,
            "lon": 24.761361116666667
        },
        {
            "name": "EPURA",
            "lat": 45.77840833333333,
            "lon": 24.505047216666668
        },
        {
            "name": "ETEPA",
            "lat": 46.527738883333335,
            "lon": 24.722113883333332
        },
        {
            "name": "FF07",
            "lat": 46.429777783333336,
            "lon": 24.219416666666667
        },
        {
            "name": "FQ25",
            "lat": 46.505305566666664,
            "lon": 24.605888883333332
        },
        {
            "name": "IBAVA",
            "lat": 46.038102783333336,
            "lon": 24.250836116666665
        },
        {
            "name": "IBINU",
            "lat": 45.91803888333333,
            "lon": 23.278755566666668
        },
        {
            "name": "IPDIS",
            "lat": 46.16126666666667,
            "lon": 24.239708333333333
        },
        {
            "name": "IPTOL",
            "lat": 46.29116666666667,
            "lon": 24.044794433333333
        },
        {
            "name": "IRLOX",
            "lat": 45.63555556666667,
            "lon": 24.183888883333335
        },
        {
            "name": "IRLUP",
            "lat": 46.77535,
            "lon": 23.98715
        },
        {
            "name": "ITM",
            "lat": 46.46505556666666,
            "lon": 24.404555566666666
        },
        {
            "name": "ITVAX",
            "lat": 45.823775,
            "lon": 24.473827783333334
        },
        {
            "name": "IXUBA",
            "lat": 46.60754166666667,
            "lon": 23.976272216666665
        },
        {
            "name": "KEGAD",
            "lat": 46.918802783333334,
            "lon": 24.335486116666665
        },
        {
            "name": "LARMU",
            "lat": 47.25027778333333,
            "lon": 23.135833333333334
        },
        {
            "name": "MA07",
            "lat": 46.46155556666667,
            "lon": 24.380972216666667
        },
        {
            "name": "MOBRA",
            "lat": 45.86444443333333,
            "lon": 24.819444433333334
        },
        {
            "name": "OKAXA",
            "lat": 46.81969443333333,
            "lon": 23.943641666666668
        },
        {
            "name": "OTRIX",
            "lat": 45.88248333333333,
            "lon": 24.283436116666667
        },
        {
            "name": "PINUB",
            "lat": 46.32026388333333,
            "lon": 24.1912
        },
        {
            "name": "RUTUV",
            "lat": 46.40686111666667,
            "lon": 24.103638883333332
        },
        {
            "name": "RW07",
            "lat": 46.465280566666664,
            "lon": 24.400069433333332
        },
        {
            "name": "SIBNB",
            "lat": 45.785,
            "lon": 24.152583333333332
        },
        {
            "name": "TGMNB",
            "lat": 46.44691666666667,
            "lon": 24.306583333333332
        },
        {
            "name": "TM071",
            "lat": 46.38383056666667,
            "lon": 23.987958333333335
        },
        {
            "name": "TM072",
            "lat": 46.2878,
            "lon": 24.027927783333332
        },
        {
            "name": "TM073",
            "lat": 46.31079166666667,
            "lon": 24.143422216666668
        },
        {
            "name": "TM074",
            "lat": 46.279663883333335,
            "lon": 24.199822216666668
        },
        {
            "name": "TM075",
            "lat": 46.52908333333333,
            "lon": 24.052794433333332
        },
        {
            "name": "TM251",
            "lat": 46.43143333333333,
            "lon": 24.760919433333335
        },
        {
            "name": "TM252",
            "lat": 46.359569433333334,
            "lon": 24.390719433333334
        },
        {
            "name": "TM253",
            "lat": 46.61005556666667,
            "lon": 24.688825
        },
        {
            "name": "TM551",
            "lat": 46.43053333333334,
            "lon": 24.223197216666666
        },
        {
            "name": "TM552",
            "lat": 46.33441388333333,
            "lon": 24.262797216666666
        },
        {
            "name": "TM771",
            "lat": 46.505263883333335,
            "lon": 24.605611116666665
        },
        {
            "name": "TM772",
            "lat": 46.409002783333335,
            "lon": 24.644602783333333
        },
        {
            "name": "TOMPU",
            "lat": 46.75318888333334,
            "lon": 23.452658333333332
        },
        {
            "name": "UXULA",
            "lat": 46.033433333333335,
            "lon": 24.209986116666666
        }
    ],
    "rnws": [
        "RNW 07",
        "RNW 25"
    ],
    "sids": [
        {
            "name": "DOKU1B",
            "rnw": "07",
            "fixes": {
                "DOKUD": "DOKUD AT OR ABOVE 10000"
            },
            "sub_fixes": [],
            "transitions": []
        },
        {
            "name": "DOKU1D",
            "rnw": "25",
            "fixes": {
                "TGMNB": "TGMNB TURN LEFT HDG 052 INTERCEPT RADIAL 082 TO",
                "DOKUD": "DOKUD AT OR ABOVE 10000"
            },
            "sub_fixes": [],
            "transitions": []
        },
        {
            "name": "DOKU1L",
            "rnw": "07",
            "fixes": {
                "TM771": "TM771 AT OR ABOVE 2600",
                "ENOSO": "ENOSO",
                "DOKUD": "DOKUD AT OR ABOVE 10000"
            },
            "sub_fixes": [],
            "transitions": []
        },
        {
            "name": "DOKU1N",
            "rnw": "25",
            "fixes": {
                "TM551": "TM551 AT OR ABOVE 3000 SPEED 250",
                "TM552": "TM552 SPEED 260",
                "DOKUD": "DOKUD AT OR ABOVE 10000"
            },
            "sub_fixes": [],
            "transitions": []
        },
        {
            "name": "ELRO1B",
            "rnw": "07",
            "fixes": {
                "TGMNB": "TGMNB AT OR ABOVE 9000 SPEED 270",
                "IRLUP": "IRLUP",
                "CLJ": "CLJ",
                "ELROM": "ELROM AT OR ABOVE 11000"
            },
            "sub_fixes": [],
            "transitions": []
        },
        {
            "name": "ELRO1D",
            "rnw": "25",
            "fixes": {
                "TGMNB": "OVERFLY TGMNB",
                "IRLUP": "IRLUP",
                "CLJ": "CLJ",
                "ELROM": "ELROM AT OR ABOVE 11000"
            },
            "sub_fixes": [],
            "transitions": []
        },
        {
            "name": "ELRO1L",
            "rnw": "07",
            "fixes": {
                "TM771": "TM771 AT OR ABOVE 2800 SPEED 250",
                "TM772": "TM772 SPEED 260",
                "TM252": "TM252 AT OR ABOVE 9000",
                "OKAXA": "OKAXA",
                "TOMPU": "TOMPU",
                "ELROM": "ELROM AT OR ABOVE 11000"
            },
            "sub_fixes": [],
            "transitions": []
        },
        {
            "name": "ELRO1N",
            "rnw": "25",
            "fixes": {
                "TGMNB": "OVERFLY TGMNB AT OR ABOVE 2200",
                "OKAXA": "OKAXA",
                "TOMPU": "TOMPU",
                "ELROM": "ELROM AT OR ABOVE 11000"
            },
            "sub_fixes": [],
            "transitions": []
        },
        {
            "name": "IRLO1B",
            "rnw": "07",
            "fixes": {
                "TGMNB": "TGMNB AT OR ABOVE 9000 SPEED 270",
                "D249J": "OVERFLY D249J HDG 196 INTERCEPT RADIAL 166 TO",
                "SIBNB": "SIBNB",
                "IRLOX": "IRLOX AT OR ABOVE 11000"
            },
            "sub_fixes": [],
            "transitions": []
        },
        {
            "name": "IRLO1D",
            "rnw": "25",
            "fixes": {
                "TGMNB": "TGMNB",
                "D249J": "OVERFLY D249J HDG 196 INTERCEPT RADIAL 166 TO",
                "SIBNB": "SIBNB",
                "IRLOX": "IRLOX AT OR ABOVE 11000"
            },
            "sub_fixes": [],
            "transitions": []
        },
        {
            "name": "IRLO1L",
            "rnw": "07",
            "fixes": {
                "TM771": "TM771 AT OR ABOVE 2800 SPEED 250",
                "TM772": "TM772 SPEED 260",
                "TM252": "TM252 AT OR ABOVE 9000",
                "IPTOL": "IPTOL",
                "SIBNB": "SIBNB",
                "IRLOX": "IRLOX AT OR ABOVE 11000"
            },
            "sub_fixes": [],
            "transitions": []
        },
        {
            "name": "IRLO1N",
            "rnw": "25",
            "fixes": {
                "TM551": "TM551 AT OR ABOVE 3000",
                "DOTEV": "DOTEV",
                "SIBNB": "SIBNB",
                "IRLOX": "IRLOX AT OR ABOVE 11000"
            },
            "sub_fixes": [],
            "transitions": []
        },
        {
            "name": "LARM1B",
            "rnw": "07",
            "fixes": {
                "TGMNB": "TGMNB AT OR ABOVE 9000 SPEED 270",
                "IRLUP": "IRLUP",
                "CLJ": "CLJ",
                "LARMU": "LARMU AT OR ABOVE 10000"
            },
            "sub_fixes": [],
            "transitions": []
        },
        {
            "name": "LARM1D",
            "rnw": "25",
            "fixes": {
                "TGMNB": "OVERFLY TGMNB",
                "IRLUP": "IRLUP",
                "CLJ": "CLJ",
                "LARMU": "LARMU AT OR ABOVE 10000"
            },
            "sub_fixes": [],
            "transitions": []
        },
        {
            "name": "LARM1L",
            "rnw": "07",
            "fixes": {
                "TM771": "TM771 AT OR ABOVE 2800 SPEED 250",
                "TM772": "TM772 SPEED 260",
                "TM252": "TM252 AT OR ABOVE 9000",
                "OKAXA": "OKAXA",
                "BOKDO": "BOKDO",
                "LARMU": "LARMU AT OR ABOVE 10000"
            },
            "sub_fixes": [],
            "transitions": []
        },
        {
            "name": "LARM1N",
            "rnw": "25",
            "fixes": {
                "TGMNB": "OVERFLY TGMNB AT OR ABOVE 2200",
                "OKAXA": "OKAXA",
                "BOKDO": "BOKDO",
                "LARMU": "LARMU AT OR ABOVE 10000"
            },
            "sub_fixes": [],
            "transitions": []
        }
    ],
    "stars": [
        {
            "name": "AKUP1G",
            "runway": "RNW 07 RNW 25",
            "fixes": {
                "AKUPO": "AKUPO",
                "TGMNB": "TGMNB"
            }
        },
        {
            "name": "AKUP1V",
            "runway": "RNW 07",
            "fixes": {
                "AKUPO": "AKUPO AT OR ABOVE 10000",
                "KEGAD": "KEGAD",
                "TM075": "TM075 SPEED 220",
                "RUTUV": "RUTUV SPEED 210"
            }
        },
        {
            "name": "AKUP1Y",
            "runway": "RNW 25",
            "fixes": {
                "AKUPO": "AKUPO AT OR ABOVE 10000",
                "KEGAD": "KEGAD",
                "TM253": "TM253 SPEED 220",
                "ETEPA": "ETEPA SPEED 210"
            }
        },
        {
            "name": "ATSO1G",
            "runway": "RNW 07 RNW 25",
            "fixes": {
                "ATSOS": "ATSOS",
                "AXUTA": "AXUTA",
                "EBILO": "EBILO",
                "CLJ": "CLJ",
                "EKRAT": "EKRAT",
                "TGMNB": "TGMNB"
            }
        },
        {
            "name": "ATSO1V",
            "runway": "RNW 07",
            "fixes": {
                "ATSOS": "ATSOS AT OR ABOVE 9000",
                "AXUTA": "AXUTA AT OR ABOVE 9000",
                "EBILO": "EBILO AT OR ABOVE 9000",
                "CLJ": "CLJ",
                "TM075": "TM075 SPEED 220",
                "RUTUV": "RUTUV SPEED 210"
            }
        },
        {
            "name": "ATSO1Y",
            "runway": "RNW 25",
            "fixes": {
                "ATSOS": "ATSOS AT OR ABOVE 9000",
                "AXUTA": "AXUTA AT OR ABOVE 9000",
                "EBILO": "EBILO AT OR ABOVE 9000",
                "CLJ": "CLJ",
                "IXUBA": "IXUBA",
                "DOTEV": "DOTEV",
                "PINUB": "PINUB",
                "TM252": "TM252 AT OR ABOVE 9000",
                "TM251": "TM251 SPEED 220",
                "ETEPA": "ETEPA SPEED 210"
            }
        },
        {
            "name": "DOKU1G",
            "runway": "RNW 07 RNW 25",
            "fixes": {
                "DOKUD": "DOKUD",
                "BAI60": "BAI60",
                "TGMNB": "TGMNB"
            }
        },
        {
            "name": "DOKU1V",
            "runway": "RNW 07",
            "fixes": {
                "DOKUD": "DOKUD AT OR ABOVE 10000",
                "TM073": "TM073 SPEED 220",
                "TM072": "TM072",
                "TM071": "TM071",
                "RUTUV": "RUTUV SPEED 210"
            }
        },
        {
            "name": "DOKU1Y",
            "runway": "RNW 25",
            "fixes": {
                "DOKUD": "DOKUD AT OR ABOVE 10000",
                "TM251": "TM251 SPEED 220",
                "ETEPA": "ETEPA SPEED 210"
            }
        },
        {
            "name": "EDET1G",
            "runway": "RNW 07 RNW 25",
            "fixes": {
                "EDETA": "EDETA",
                "EPURA": "EPURA",
                "SIBNB": "SIBNB SPEED 250",
                "UXULA": "UXULA",
                "IPDIS": "IPDIS",
                "TGMNB": "TGMNB"
            }
        },
        {
            "name": "EDET1V",
            "runway": "RNW 07",
            "fixes": {
                "EDETA": "EDETA AT OR ABOVE 11000",
                "MOBRA": "MOBRA AT OR ABOVE 11000",
                "OTRIX": "OTRIX SPEED 250",
                "IBAVA": "IBAVA AT OR ABOVE 9000 SPEED 250",
                "TM074": "TM074 SPEED 220",
                "TM073": "TM073 SPEED 220",
                "TM072": "TM072",
                "TM071": "TM071",
                "RUTUV": "RUTUV SPEED 210"
            }
        },
        {
            "name": "EDET1Y",
            "runway": "RNW 25",
            "fixes": {
                "EDETA": "EDETA AT OR ABOVE 11000",
                "MOBRA": "MOBRA AT OR ABOVE 11000",
                "OTRIX": "OTRIX SPEED 250",
                "IBAVA": "IBAVA AT OR ABOVE 9000 SPEED 250",
                "PINUB": "PINUB",
                "TM252": "TM252 AT OR ABOVE 9000",
                "TM251": "TM251 SPEED 220",
                "ETEPA": "ETEPA SPEED 210"
            }
        },
        {
            "name": "IBIN1G",
            "runway": "RNW 07 RNW 25",
            "fixes": {
                "IBINU": "IBINU",
                "SIBNB": "SIBNB SPEED 250",
                "UXULA": "UXULA",
                "IPDIS": "IPDIS",
                "TGMNB": "TGMNB"
            }
        },
        {
            "name": "IBIN1V",
            "runway": "RNW 07",
            "fixes": {
                "IBINU": "IBINU AT OR ABOVE 11000",
                "EMBIB": "EMBIB",
                "OTRIX": "OTRIX SPEED 250",
                "IBAVA": "IBAVA AT OR ABOVE 9000 SPEED 250",
                "TM074": "TM074 SPEED 220",
                "TM073": "TM073 SPEED 220",
                "TM072": "TM072",
                "TM071": "TM071",
                "RUTUV": "RUTUV SPEED 210"
            }
        },
        {
            "name": "IBIN1Y",
            "runway": "RNW 25",
            "fixes": {
                "IBINU": "IBINU AT OR ABOVE 11000",
                "EMBIB": "EMBIB",
                "OTRIX": "OTRIX SPEED 250",
                "IBAVA": "IBAVA AT OR ABOVE 9000 SPEED 250",
                "PINUB": "PINUB",
                "TM252": "TM252 AT OR ABOVE 9000",
                "TM251": "TM251 SPEED 220",
                "ETEPA": "ETEPA SPEED 210"
            }
        },
        {
            "name": "LARM1G",
            "runway": "RNW 07 RNW 25",
            "fixes": {
                "LARMU": "LARMU",
                "APSAM": "APSAM",
                "ENITU": "ENITU",
                "CLJ": "CLJ",
                "EKRAT": "EKRAT",
                "TGMNB": "TGMNB"
            }
        },
        {
            "name": "LARM1V",
            "runway": "RNW 07",
            "fixes": {
                "LARMU": "LARMU AT OR ABOVE 10000",
                "APSAM": "APSAM AT OR ABOVE 9000",
                "ENITU": "ENITU AT OR ABOVE 9000",
                "CLJ": "CLJ",
                "TM075": "TM075 SPEED 220",
                "RUTUV": "RUTUV SPEED 210"
            }
        },
        {
            "name": "LARM1Y",
            "runway": "RNW 25",
            "fixes": {
                "LARMU": "LARMU AT OR ABOVE 10000",
                "APSAM": "APSAM AT OR ABOVE 9000",
                "ENITU": "ENITU AT OR ABOVE 9000",
                "CLJ": "CLJ",
                "IXUBA": "IXUBA",
                "DOTEV": "DOTEV",
                "PINUB": "PINUB",
                "TM252": "TM252 AT OR ABOVE 9000",
                "TM251": "TM251 SPEED 220",
                "ETEPA": "ETEPA SPEED 210"
            }
        },
        {
            "name": "MOBR1G",
            "runway": "RNW 07 RNW 25",
            "fixes": {
                "MOBRA": "MOBRA",
                "ITVAX": "ITVAX",
                "SIBNB": "SIBNB SPEED 250",
                "UXULA": "UXULA",
                "IPDIS": "IPDIS",
                "TGMNB": "TGMNB"
            }
        },
        {
            "name": "MOBR1V",
            "runway": "RNW 07",
            "fixes": {
                "MOBRA": "MOBRA AT OR ABOVE 11000",
                "OTRIX": "OTRIX SPEED 250",
                "IBAVA": "IBAVA AT OR ABOVE 9000 SPEED 250",
                "TM074": "TM074 SPEED 220",
                "TM073": "TM073 SPEED 220",
                "TM072": "TM072",
                "TM071": "TM071",
                "RUTUV": "RUTUV SPEED 210"
            }
        },
        {
            "name": "MOBR1Y",
            "runway": "RNW 25",
            "fixes": {
                "MOBRA": "MOBRA AT OR ABOVE 11000",
                "OTRIX": "OTRIX SPEED 250",
                "IBAVA": "IBAVA AT OR ABOVE 9000 SPEED 250",
                "PINUB": "PINUB",
                "TM252": "TM252 AT OR ABOVE 9000",
                "TM251": "TM251 SPEED 220",
                "ETEPA": "ETEPA SPEED 210"
            }
        }
    ],
    "approaches": [
        {
            "name": "ILS07",
            "fixes": {
                "RUTUV": "RUTUV AT OR ABOVE 3500",
                "FF07": "FF07 3500 RNW 07 TRK 069 UNTIL 3000 TURN RIGHT DIRECT",
                "TGMNB": "TGMNB 4000 SPEED 250 HOLD AT TGMNB RIGHT TURN INBOUNDCOURSE 249 SPEED 250 LEGTIME 1 FAF FF07 MAP RNW 07"
            },
            "transitions": [
                {
                    "name": "TGM1",
                    "fixes": {
                        "TGMNB": "TGMNB AT OR ABOVE 4000 TRK 278 UNTIL 12.7 FROM",
                        "ITM": "ITM"
                    }
                },
                {
                    "name": "TGM2",
                    "fixes": {
                        "TGMNB": "TGMNB AT OR ABOVE 4000 TRK 259 UNTIL 13.0 FROM",
                        "ITM": "ITM"
                    }
                }
            ]
        },
        {
            "name": "NDBD07",
            "fixes": {
                "RUTUV": "RUTUV AT OR ABOVE 3500",
                "FF07": "FF07 3500",
                "TGMNB": "TGMNB AT OR ABOVE 2310 TGMNB 4000 SPEED 250 HOLD AT TGMNB RIGHT TURN INBOUNDCOURSE 249 SPEED 250 LEGTIME 1 FAF FF07 MAP MA07",
                "MA07": "MA07 1279 RNW 07 TRK 069 UNTIL 3000 TURN RIGHT DIRECT"
            },
            "transitions": [
                {
                    "name": "TGM1",
                    "fixes": {
                        "TGMNB": "TGMNB AT OR ABOVE 4000 TRK 278 UNTIL 12.7 FROM",
                        "ITM": "ITM"
                    }
                },
                {
                    "name": "TGM2",
                    "fixes": {
                        "TGMNB": "TGMNB AT OR ABOVE 4000 TRK 260 UNTIL 13.0 FROM",
                        "ITM": "ITM"
                    }
                }
            ]
        },
        {
            "name": "NDBD25",
            "fixes": {
                "ETEPA": "ETEPA AT OR ABOVE 3500",
                "FQ25": "FQ25 3500",
                "50DME": "50DME AT OR ABOVE 2320 RNW 25",
                "TGMNB": "TGMNB TRK 249 UNTIL 9.6 FROM TGMNB 4000 SPEED 250 HOLD AT TGMNB LEFT TURN INBOUNDCOURSE 069 LEGTIME 1 FAF FQ25 MAP RNW 25",
                "ITM": "ITM TURN LEFT DIRECT"
            },
            "transitions": [
                {
                    "name": "TGM1",
                    "fixes": {
                        "TGMNB": "TGMNB AT OR ABOVE 4000 TRK 084 UNTIL 13.9 FROM",
                        "ITM": "ITM"
                    }
                },
                {
                    "name": "TGM2",
                    "fixes": {
                        "TGMNB": "TGMNB AT OR ABOVE 4000 TRK 074 UNTIL 13.7 FROM",
                        "ITM": "ITM"
                    }
                }
            ]
        }
    ]
}