{
    "fixes": [
        {
            "name": "40LOC",
            "lat": 46.18301388333333,
            "lon": 6.0282944333333335
        },
        {
            "name": "40VOR",
            "lat": 46.300188883333334,
            "lon": 6.201388883333333
        },
        {
            "name": "45LOC",
            "lat": 46.300675,
            "lon": 6.200986116666667
        },
        {
            "name": "60VOR",
            "lat": 46.184425,
            "lon": 6.028686116666667
        },
        {
            "name": "65NM",
            "lat": 46.45465,
            "lon": 6.427425
        },
        {
            "name": "AKITO",
            "lat": 47.21333333333333,
            "lon": 6.64875
        },
        {
            "name": "ARBOS",
            "lat": 46.98416666666667,
            "lon": 6.0263888833333334
        },
        {
            "name": "ARGIS",
            "lat": 45.97111111666667,
            "lon": 5.599166666666667
        },
        {
            "name": "BALSI",
            "lat": 45.47738888333333,
            "lon": 5.9607777833333335
        },
        {
            "name": "BANKO",
            "lat": 45.82,
            "lon": 7.054722216666667
        },
        {
            "name": "BELKA",
            "lat": 46.061138883333335,
            "lon": 5.850583333333333
        },
        {
            "name": "BELUS",
            "lat": 45.675277783333335,
            "lon": 5.593888883333333
        },
        {
            "name": "BENOT",
            "lat": 47.05769443333333,
            "lon": 7.172805566666667
        },
        {
            "name": "BEVEN",
            "lat": 45.688611116666664,
            "lon": 5.972777783333333
        },
        {
            "name": "BIVLO",
            "lat": 46.19716666666667,
            "lon": 6.253833333333334
        },
        {
            "name": "BOLGI",
            "lat": 46.667777783333335,
            "lon": 5.9383333333333335
        },
        {
            "name": "CBY",
            "lat": 45.88188888333333,
            "lon": 5.757305566666666
        },
        {
            "name": "CBY33",
            "lat": 46.24783888333333,
            "lon": 6.34685
        },
        {
            "name": "CBY45",
            "lat": 46.380147216666664,
            "lon": 6.563169433333333
        },
        {
            "name": "D028B",
            "lat": 45.910488883333336,
            "lon": 5.781797216666667
        },
        {
            "name": "D032R",
            "lat": 46.503525,
            "lon": 6.372411116666667
        },
        {
            "name": "D044B",
            "lat": 46.277058333333336,
            "lon": 6.166788883333333
        },
        {
            "name": "D044H",
            "lat": 46.34642221666667,
            "lon": 6.270672216666667
        },
        {
            "name": "D044J",
            "lat": 46.36375,
            "lon": 6.296686116666667
        },
        {
            "name": "D044Q",
            "lat": 46.45259721666667,
            "lon": 6.430472216666667
        },
        {
            "name": "D049B",
            "lat": 45.90330278333333,
            "lon": 5.793869433333334
        },
        {
            "name": "D131I",
            "lat": 46.061963883333334,
            "lon": 6.158327783333333
        },
        {
            "name": "D141I",
            "lat": 46.04318333333333,
            "lon": 6.128213883333333
        },
        {
            "name": "D141P",
            "lat": 45.94935556666667,
            "lon": 6.227616666666667
        },
        {
            "name": "D180I",
            "lat": 46.01923888333334,
            "lon": 5.992672216666667
        },
        {
            "name": "D180J",
            "lat": 45.99722778333334,
            "lon": 5.989669433333333
        },
        {
            "name": "D180V",
            "lat": 45.79741666666666,
            "lon": 5.97895
        },
        {
            "name": "D208B",
            "lat": 45.852744433333335,
            "lon": 5.734169433333333
        },
        {
            "name": "D224C",
            "lat": 46.21890833333333,
            "lon": 6.080805566666666
        },
        {
            "name": "D224H",
            "lat": 46.16123888333333,
            "lon": 5.994233333333334
        },
        {
            "name": "D224J",
            "lat": 46.143844433333335,
            "lon": 5.968413883333334
        },
        {
            "name": "D224Q",
            "lat": 46.05910278333333,
            "lon": 5.842983333333334
        },
        {
            "name": "D224R",
            "lat": 46.45435833333333,
            "lon": 6.4282861166666665
        },
        {
            "name": "DEPUL",
            "lat": 45.925,
            "lon": 5.494444433333333
        },
        {
            "name": "DEREM",
            "lat": 46.35663888333333,
            "lon": 6.17625
        },
        {
            "name": "DINIG",
            "lat": 46.495277783333336,
            "lon": 5.8905555666666665
        },
        {
            "name": "DIPIR",
            "lat": 46.66916666666667,
            "lon": 5.593055566666667
        },
        {
            "name": "DJL",
            "lat": 47.27077778333334,
            "lon": 5.097333333333333
        },
        {
            "name": "DJL30",
            "lat": 46.9454,
            "lon": 5.652947216666667
        },
        {
            "name": "ESAPI",
            "lat": 45.889888883333334,
            "lon": 6.29025
        },
        {
            "name": "ESEVA",
            "lat": 46.802111116666666,
            "lon": 7.014666666666667
        },
        {
            "name": "FD04",
            "lat": 46.09510556666667,
            "lon": 5.8962
        },
        {
            "name": "FRI",
            "lat": 46.77758333333333,
            "lon": 7.2235
        },
        {
            "name": "GG502",
            "lat": 45.953825,
            "lon": 5.8990583333333335
        },
        {
            "name": "GG503",
            "lat": 46.09571111666666,
            "lon": 5.696886116666667
        },
        {
            "name": "GG507",
            "lat": 46.44084721666667,
            "lon": 6.199875
        },
        {
            "name": "GG512",
            "lat": 46.39715278333333,
            "lon": 6.549030566666667
        },
        {
            "name": "GG514",
            "lat": 46.540205566666664,
            "lon": 6.346911116666667
        },
        {
            "name": "GG517",
            "lat": 46.93966666666667,
            "lon": 5.4394583333333335
        },
        {
            "name": "GG518",
            "lat": 46.907133333333334,
            "lon": 6.248977783333333
        },
        {
            "name": "GG519",
            "lat": 45.527355566666664,
            "lon": 6.7020277833333335
        },
        {
            "name": "GG520",
            "lat": 45.95636111666666,
            "lon": 6.768266666666666
        },
        {
            "name": "GG525",
            "lat": 46.29820278333333,
            "lon": 6.402227783333333
        },
        {
            "name": "GG602",
            "lat": 46.11632778333333,
            "lon": 6.0671694333333335
        },
        {
            "name": "GG603",
            "lat": 46.26861111666667,
            "lon": 6.057777783333333
        },
        {
            "name": "GG604",
            "lat": 46.20186388333333,
            "lon": 6.308755566666667
        },
        {
            "name": "GG605",
            "lat": 45.97589166666667,
            "lon": 6.291633333333333
        },
        {
            "name": "GG803",
            "lat": 46.142916666666665,
            "lon": 5.969694433333333
        },
        {
            "name": "GG808",
            "lat": 46.34472221666667,
            "lon": 6.265944433333333
        },
        {
            "name": "GG811",
            "lat": 46.37858333333333,
            "lon": 6.315972216666666
        },
        {
            "name": "GG852",
            "lat": 46.364666666666665,
            "lon": 6.295416666666667
        },
        {
            "name": "GLANB",
            "lat": 46.40869443333333,
            "lon": 6.24425
        },
        {
            "name": "GOLEB",
            "lat": 46.05166666666667,
            "lon": 6.5625
        },
        {
            "name": "GVA",
            "lat": 46.25391666666667,
            "lon": 6.1322222166666664
        },
        {
            "name": "IBABA",
            "lat": 46.87722221666667,
            "lon": 5.420833333333333
        },
        {
            "name": "INDIS",
            "lat": 46.024444433333336,
            "lon": 5.797
        },
        {
            "name": "KELUK",
            "lat": 46.55555556666667,
            "lon": 5.685555566666666
        },
        {
            "name": "KERAD",
            "lat": 46.23530556666667,
            "lon": 5.899297216666667
        },
        {
            "name": "KINES",
            "lat": 45.33138888333333,
            "lon": 6.755277783333334
        },
        {
            "name": "KONIL",
            "lat": 46.56844443333333,
            "lon": 6.458361116666667
        },
        {
            "name": "KOVIM",
            "lat": 46.614611116666666,
            "lon": 6.206333333333333
        },
        {
            "name": "LEGVO",
            "lat": 46.66792778333333,
            "lon": 6.285566666666667
        },
        {
            "name": "LERDU",
            "lat": 46.84080556666667,
            "lon": 5.82825
        },
        {
            "name": "LINNA",
            "lat": 45.817138883333335,
            "lon": 5.980027783333333
        },
        {
            "name": "LIRKO",
            "lat": 46.57094443333333,
            "lon": 5.8143055666666665
        },
        {
            "name": "LOC10",
            "lat": 46.112847216666665,
            "lon": 5.925838883333333
        },
        {
            "name": "LUSAR",
            "lat": 46.66888888333333,
            "lon": 5.1794722166666665
        },
        {
            "name": "MD04",
            "lat": 46.219180566666665,
            "lon": 6.080422216666666
        },
        {
            "name": "MD22",
            "lat": 46.26548888333333,
            "lon": 6.149502783333333
        },
        {
            "name": "MEDAM",
            "lat": 45.26444443333333,
            "lon": 6.9399999999999995
        },
        {
            "name": "ML04",
            "lat": 46.21923056666667,
            "lon": 6.081330566666667
        },
        {
            "name": "ML22",
            "lat": 46.265683333333335,
            "lon": 6.149505566666667
        },
        {
            "name": "MOLUS",
            "lat": 46.44388888333334,
            "lon": 6.679444433333334
        },
        {
            "name": "NEMOS",
            "lat": 46.91194443333333,
            "lon": 6.9065555666666665
        },
        {
            "name": "ODIKI",
            "lat": 45.942222216666664,
            "lon": 6.343611116666667
        },
        {
            "name": "PAS",
            "lat": 46.16369443333333,
            "lon": 5.999916666666667
        },
        {
            "name": "PAS14",
            "lat": 46.005,
            "lon": 6.246944433333334
        },
        {
            "name": "PAS27",
            "lat": 45.80255,
            "lon": 6.384733333333333
        },
        {
            "name": "PAS33",
            "lat": 45.78959166666667,
            "lon": 6.577897216666667
        },
        {
            "name": "PETAL",
            "lat": 46.36802778333333,
            "lon": 6.300361116666667
        },
        {
            "name": "PINOT",
            "lat": 45.985447216666664,
            "lon": 5.925958333333333
        },
        {
            "name": "PITOM",
            "lat": 46.09472221666667,
            "lon": 6.101944433333333
        },
        {
            "name": "RILTI",
            "lat": 45.75836111666667,
            "lon": 5.659416666666667
        },
        {
            "name": "ROCCA",
            "lat": 45.745277783333336,
            "lon": 6.645583333333334
        },
        {
            "name": "ROMOM",
            "lat": 46.68119443333333,
            "lon": 6.970527783333333
        },
        {
            "name": "RUMIL",
            "lat": 45.861888883333336,
            "lon": 5.981444433333333
        },
        {
            "name": "SALEV",
            "lat": 46.073777783333334,
            "lon": 6.065944433333334
        },
        {
            "name": "SAUNI",
            "lat": 46.623611116666666,
            "lon": 5.477777783333333
        },
        {
            "name": "SIROD",
            "lat": 46.727027783333334,
            "lon": 6.019555566666667
        },
        {
            "name": "SOVAD",
            "lat": 46.33747221666667,
            "lon": 6.048444433333334
        },
        {
            "name": "SPR",
            "lat": 46.46869443333333,
            "lon": 6.448055566666667
        },
        {
            "name": "SPR26",
            "lat": 46.84638056666667,
            "lon": 6.140016666666667
        },
        {
            "name": "SUVEL",
            "lat": 46.1515,
            "lon": 6.351055566666667
        },
        {
            "name": "TINAM",
            "lat": 46.36002778333334,
            "lon": 6.530555566666667
        },
        {
            "name": "TUTAX",
            "lat": 46.921388883333336,
            "lon": 5.246944433333334
        },
        {
            "name": "ULMES",
            "lat": 46.955027783333335,
            "lon": 7.292638883333334
        },
        {
            "name": "VADAR",
            "lat": 46.65722221666667,
            "lon": 6.753611116666667
        },
        {
            "name": "VALBU",
            "lat": 46.086027783333336,
            "lon": 6.489833333333333
        },
        {
            "name": "VANAS",
            "lat": 45.457166666666666,
            "lon": 6.7468611166666665
        },
        {
            "name": "VEROX",
            "lat": 46.7275,
            "lon": 6.573333333333333
        },
        {
            "name": "VOR12",
            "lat": 46.11367778333333,
            "lon": 5.923694433333333
        }
    ],
    "rnws": [
        "RNW 04",
        "RNW 22"
    ],
    "sids": [
        {
            "name": "ARBO8N",
            "rnw": "04",
            "fixes": {
                "D044H": "D044H",
                "D044J": "D044J AT OR ABOVE 4000 TRK 044 UNTIL 7000 TRK 014 INTERCEPT RADIAL 329 TO",
                "LEGVO": "LEGVO",
                "SPR26": "SPR26 AT OR ABOVE 20000",
                "ARBOS": "ARBOS"
            },
            "sub_fixes": [],
            "transitions": []
        },
        {
            "name": "BALS7A",
            "rnw": "22",
            "fixes": {
                "PAS": "PAS TRK 224 UNTIL 7000 TURN LEFT DIRECT",
                "D180J": "D180J AT OR ABOVE 10000",
                "RUMIL": "RUMIL AT OR ABOVE 12000",
                "D180V": "D180V AT OR ABOVE 15000",
                "BEVEN": "BEVEN",
                "BALSI": "BALSI AT OR ABOVE 20000"
            },
            "sub_fixes": [],
            "transitions": []
        },
        {
            "name": "BALS9N",
            "rnw": "04",
            "fixes": {
                "D044H": "D044H TRK 044 UNTIL 5000 TURN RIGHT TRK 184 INTERCEPT RADIAL 229 TO",
                "D180I": "D180I",
                "D180J": "D180J AT OR ABOVE 10000",
                "RUMIL": "RUMIL AT OR ABOVE 12000",
                "LINNA": "LINNA AT OR ABOVE 19000",
                "BEVEN": "BEVEN",
                "BALSI": "BALSI AT OR ABOVE 20000"
            },
            "sub_fixes": [],
            "transitions": []
        },
        {
            "name": "BELU6A",
            "rnw": "22",
            "fixes": {
                "PAS": "PAS",
                "D028B": "D028B",
                "CBY": "CBY",
                "D208B": "D208B",
                "BELUS": "BELUS"
            },
            "sub_fixes": [],
            "transitions": []
        },
        {
            "name": "BELU6N",
            "rnw": "04",
            "fixes": {
                "D044H": "D044H TRK 044 UNTIL 5000 TURN RIGHT TRK 184 INTERCEPT RADIAL 229 TO",
                "D049B": "D049B",
                "CBY": "CBY",
                "D208B": "D208B",
                "BELUS": "BELUS"
            },
            "sub_fixes": [],
            "transitions": []
        },
        {
            "name": "BELU6P",
            "rnw": "04",
            "fixes": {
                "D044B": "D044B TRK 044 UNTIL 5000 TURN LEFT DIRECT",
                "PAS": "PAS AT OR ABOVE 7000",
                "D028B": "D028B",
                "CBY": "CBY",
                "D208B": "D208B",
                "BELUS": "BELUS"
            },
            "sub_fixes": [],
            "transitions": []
        },
        {
            "name": "DEPU4A",
            "rnw": "22",
            "fixes": {
                "PAS": "PAS TRK 224 UNTIL 7000",
                "ARGIS": "ARGIS AT OR ABOVE 13000",
                "DEPUL": "DEPUL"
            },
            "sub_fixes": [],
            "transitions": []
        },
        {
            "name": "DEPU4P",
            "rnw": "04",
            "fixes": {
                "D044B": "D044B TRK 044 UNTIL 5000 TURN LEFT DIRECT",
                "PAS": "PAS AT OR ABOVE 7000",
                "ARGIS": "ARGIS",
                "DEPUL": "DEPUL"
            },
            "sub_fixes": [],
            "transitions": []
        },
        {
            "name": "DEPU4T",
            "rnw": "04",
            "fixes": {
                "D044H": "D044H TRK 044 UNTIL 5000 TURN LEFT DIRECT",
                "PAS": "PAS AT OR ABOVE 7000",
                "ARGIS": "ARGIS",
                "DEPUL": "DEPUL"
            },
            "sub_fixes": [],
            "transitions": []
        },
        {
            "name": "DIPI6A",
            "rnw": "22",
            "fixes": {
                "PAS": "PAS TRK 224 UNTIL 7000 TURN RIGHT HDG 015 INTERCEPT RADIAL 329 TO",
                "KELUK": "KELUK",
                "DIPIR": "DIPIR"
            },
            "sub_fixes": [],
            "transitions": [
                {
                    "name": "ARBOS",
                    "fixes": [
                        "LERDU",
                        "ARBOS"
                    ]
                },
                {
                    "name": "DJL",
                    "fixes": [
                        "IBABA",
                        "DJL"
                    ]
                },
                {
                    "name": "TUTAX",
                    "fixes": [
                        "IBABA",
                        "TUTAX"
                    ]
                }
            ]
        },
        {
            "name": "KONI4D",
            "rnw": "22",
            "fixes": {
                "D224C": "D224C TRK 224 UNTIL 1900 TURN RIGHT DIRECT",
                "DEREM": "DEREM SPEED 190",
                "GLANB": "GLANB AT OR ABOVE 4000",
                "D032R": "D032R AT OR ABOVE 7000",
                "KONIL": "KONIL"
            },
            "sub_fixes": [],
            "transitions": []
        },
        {
            "name": "KONI5J",
            "rnw": "22",
            "fixes": {
                "D224C": "D224C TRK 224 UNTIL 1900 TURN RIGHT DIRECT",
                "GG603": "GG603 SPEED 190",
                "DEREM": "DEREM",
                "GLANB": "GLANB AT OR ABOVE 4000",
                "D032R": "D032R AT OR ABOVE 7000",
                "KONIL": "KONIL"
            },
            "sub_fixes": [],
            "transitions": []
        },
        {
            "name": "KONI6A",
            "rnw": "22",
            "fixes": {
                "PAS": "PAS TRK 224 UNTIL 7000 TURN RIGHT DIRECT",
                "DEREM": "DEREM",
                "GLANB": "GLANB",
                "KONIL": "KONIL"
            },
            "sub_fixes": [],
            "transitions": []
        },
        {
            "name": "KONI6C",
            "rnw": "22",
            "fixes": {
                "D224C": "D224C TRK 224 UNTIL 1900 TURN RIGHT DIRECT",
                "DEREM": "DEREM SPEED 190",
                "GLANB": "GLANB AT OR ABOVE 4000",
                "D032R": "D032R AT OR ABOVE 7000",
                "KONIL": "KONIL"
            },
            "sub_fixes": [],
            "transitions": []
        },
        {
            "name": "MEDA5A",
            "rnw": "22",
            "fixes": {
                "PAS": "PAS TRK 224 UNTIL 7000 TURN LEFT DIRECT",
                "D141I": "D141I AT OR ABOVE 10000",
                "D141P": "D141P AT OR ABOVE 11000",
                "ESAPI": "ESAPI AT OR ABOVE 14000",
                "PAS27": "PAS27 AT OR ABOVE 18000",
                "VANAS": "VANAS AT OR ABOVE 20000",
                "MEDAM": "MEDAM"
            },
            "sub_fixes": [],
            "transitions": []
        },
        {
            "name": "MEDA5B",
            "rnw": "22",
            "fixes": {
                "PAS": "PAS TRK 224 UNTIL 7000 TURN LEFT DIRECT",
                "D141I": "D141I AT OR ABOVE 10000",
                "D141P": "D141P AT OR ABOVE 12000",
                "ESAPI": "ESAPI AT OR ABOVE 15000",
                "PAS27": "PAS27 AT OR ABOVE 18000",
                "VANAS": "VANAS AT OR ABOVE 20000",
                "MEDAM": "MEDAM"
            },
            "sub_fixes": [],
            "transitions": []
        },
        {
            "name": "MEDA5C",
            "rnw": "22",
            "fixes": {
                "PAS": "PAS TRK 224 UNTIL 7000 TURN LEFT DIRECT",
                "D141I": "D141I AT OR ABOVE 10000",
                "D141P": "D141P AT OR ABOVE 13000",
                "ESAPI": "ESAPI AT OR ABOVE 16000",
                "PAS27": "PAS27 AT OR ABOVE 18000",
                "VANAS": "VANAS AT OR ABOVE 20000",
                "MEDAM": "MEDAM"
            },
            "sub_fixes": [],
            "transitions": []
        },
        {
            "name": "MEDA5N",
            "rnw": "04",
            "fixes": {
                "D044H": "D044H TRK 044 UNTIL 5000 TURN RIGHT TRK 184 INTERCEPT RADIAL 229 TO",
                "GG604": "OVERFLY GG604 TRK 181 INTERCEPT RADIAL 141 TO",
                "ESAPI": "ESAPI AT OR ABOVE 14000",
                "PAS27": "PAS27 AT OR ABOVE 18000",
                "VANAS": "VANAS AT OR ABOVE 20000",
                "MEDAM": "MEDAM"
            },
            "sub_fixes": [],
            "transitions": []
        },
        {
            "name": "MEDA5P",
            "rnw": "04",
            "fixes": {
                "D044H": "D044H TRK 044 UNTIL 5000 TURN RIGHT TRK 184 INTERCEPT RADIAL 229 TO",
                "GG604": "OVERFLY GG604 TRK 181 INTERCEPT RADIAL 141 TO",
                "ESAPI": "ESAPI AT OR ABOVE 15000",
                "PAS27": "PAS27 AT OR ABOVE 18000",
                "VANAS": "VANAS AT OR ABOVE 20000",
                "MEDAM": "MEDAM"
            },
            "sub_fixes": [],
            "transitions": []
        },
        {
            "name": "MEDA5Q",
            "rnw": "04",
            "fixes": {
                "D044H": "D044H TRK 044 UNTIL 5000 TURN RIGHT TRK 184 INTERCEPT RADIAL 229 TO",
                "GG604": "OVERFLY GG604 TRK 181 INTERCEPT RADIAL 141 TO",
                "ESAPI": "ESAPI AT OR ABOVE 16000",
                "PAS27": "PAS27 AT OR ABOVE 18000",
                "VANAS": "VANAS AT OR ABOVE 20000",
                "MEDAM": "MEDAM"
            },
            "sub_fixes": [],
            "transitions": []
        },
        {
            "name": "MOLU4A",
            "rnw": "22",
            "fixes": {
                "D224H": "D224H TRK 224 UNTIL 7000 TURN LEFT DIRECT",
                "GG602": "GG602 SPEED 220",
                "TINAM": "TINAM AT OR ABOVE 10000",
                "MOLUS": "MOLUS"
            },
            "sub_fixes": [],
            "transitions": []
        },
        {
            "name": "MOLU4N",
            "rnw": "04",
            "fixes": {
                "PETAL": "PETAL AT OR ABOVE 5000",
                "MOLUS": "MOLUS AT OR ABOVE 10000"
            },
            "sub_fixes": [],
            "transitions": []
        },
        {
            "name": "OMNI1A",
            "rnw": "22",
            "fixes": {},
            "sub_fixes": [],
            "transitions": []
        },
        {
            "name": "OMNI1N",
            "rnw": "04",
            "fixes": {},
            "sub_fixes": [],
            "transitions": []
        },
        {
            "name": "PAS5P",
            "rnw": "04",
            "fixes": {
                "D044B": "D044B TRK 044 UNTIL 5000 TURN LEFT DIRECT",
                "PAS": "PAS AT OR ABOVE 7000"
            },
            "sub_fixes": [],
            "transitions": []
        },
        {
            "name": "ROCA5A",
            "rnw": "22",
            "fixes": {
                "PAS": "PAS TRK 224 UNTIL 7000 TURN LEFT DIRECT",
                "D131I": "D131I AT OR ABOVE 9000",
                "PAS14": "PAS14 AT OR ABOVE 11000",
                "ODIKI": "ODIKI AT OR ABOVE 14000",
                "PAS33": "PAS33 AT OR ABOVE 18000",
                "ROCCA": "ROCCA"
            },
            "sub_fixes": [],
            "transitions": []
        },
        {
            "name": "ROCA5B",
            "rnw": "22",
            "fixes": {
                "PAS": "PAS TRK 224 UNTIL 7000 TURN LEFT DIRECT",
                "D131I": "D131I AT OR ABOVE 10000",
                "PAS14": "PAS14 AT OR ABOVE 12000",
                "ODIKI": "ODIKI AT OR ABOVE 15000",
                "PAS33": "PAS33 AT OR ABOVE 19000",
                "ROCCA": "ROCCA"
            },
            "sub_fixes": [],
            "transitions": []
        },
        {
            "name": "ROCA5C",
            "rnw": "22",
            "fixes": {
                "PAS": "PAS TRK 224 UNTIL 7000 TURN LEFT DIRECT",
                "D131I": "D131I AT OR ABOVE 11000",
                "PAS14": "PAS14 AT OR ABOVE 13000",
                "ODIKI": "ODIKI AT OR ABOVE 16000",
                "PAS33": "PAS33 AT OR ABOVE 20000",
                "ROCCA": "ROCCA"
            },
            "sub_fixes": [],
            "transitions": []
        },
        {
            "name": "ROCA5N",
            "rnw": "04",
            "fixes": {
                "D044H": "D044H TRK 044 UNTIL 5000 TURN RIGHT TRK 184 INTERCEPT RADIAL 229 TO",
                "GG604": "OVERFLY GG604 TRK 181 INTERCEPT RADIAL 131 TO",
                "GG605": "GG605",
                "ODIKI": "ODIKI AT OR ABOVE 14000",
                "PAS33": "PAS33 AT OR ABOVE 18000",
                "ROCCA": "ROCCA"
            },
            "sub_fixes": [],
            "transitions": []
        },
        {
            "name": "ROCA5P",
            "rnw": "04",
            "fixes": {
                "D044H": "D044H TRK 044 UNTIL 5000 TURN RIGHT TRK 184 INTERCEPT RADIAL 229 TO",
                "GG604": "OVERFLY GG604 TRK 181 INTERCEPT RADIAL 131 TO",
                "GG605": "GG605",
                "ODIKI": "ODIKI AT OR ABOVE 15000",
                "PAS33": "PAS33 AT OR ABOVE 19000",
                "ROCCA": "ROCCA"
            },
            "sub_fixes": [],
            "transitions": []
        },
        {
            "name": "ROCA5Q",
            "rnw": "04",
            "fixes": {
                "D044H": "D044H TRK 044 UNTIL 5000 TURN RIGHT TRK 184 INTERCEPT RADIAL 229 TO",
                "GG604": "OVERFLY GG604 TRK 181 INTERCEPT RADIAL 131 TO",
                "GG605": "GG605",
                "ODIKI": "ODIKI AT OR ABOVE 16000",
                "PAS33": "PAS33 AT OR ABOVE 20000",
                "ROCCA": "ROCCA"
            },
            "sub_fixes": [],
            "transitions": []
        },
        {
            "name": "SIRO7N",
            "rnw": "04",
            "fixes": {
                "D044H": "D044H",
                "D044J": "D044J AT OR ABOVE 4000 TRK 044 UNTIL 7000 TRK 356 INTERCEPT RADIAL 309 TO",
                "KOVIM": "KOVIM",
                "SIROD": "SIROD"
            },
            "sub_fixes": [],
            "transitions": [
                {
                    "name": "ARBOS",
                    "fixes": [
                        "ARBOS"
                    ]
                },
                {
                    "name": "DJL",
                    "fixes": [
                        "DJL30",
                        "DJL"
                    ]
                },
                {
                    "name": "TUTAX",
                    "fixes": [
                        "IBABA",
                        "TUTAX"
                    ]
                }
            ]
        },
        {
            "name": "SPR5N",
            "rnw": "04",
            "fixes": {
                "SPR": "SPR AT OR ABOVE 7000"
            },
            "sub_fixes": [],
            "transitions": []
        }
    ],
    "stars": [
        {
            "name": "AKIT2N",
            "runway": "RNW 04",
            "fixes": {
                "AKITO": "AKITO",
                "GG518": "GG518",
                "BOLGI": "BOLGI",
                "LIRKO": "LIRKO AT OR ABOVE 8000 SPEED 250",
                "DINIG": "DINIG",
                "SOVAD": "SOVAD AT OR ABOVE 8000 SPEED 250",
                "KERAD": "KERAD",
                "GG503": "GG503 SPEED 220 TRK 223 VECTORS"
            }
        },
        {
            "name": "AKIT3R",
            "runway": "RNW 22",
            "fixes": {
                "AKITO": "AKITO",
                "GG518": "GG518",
                "BOLGI": "BOLGI",
                "LIRKO": "LIRKO AT OR ABOVE 8000 SPEED 250",
                "DINIG": "DINIG",
                "SOVAD": "SOVAD AT OR ABOVE 8000 SPEED 250",
                "GG507": "GG507",
                "GG514": "GG514 SPEED 220 TRK 044 VECTORS"
            }
        },
        {
            "name": "BANK3N",
            "runway": "RNW 04",
            "fixes": {
                "BANKO": "BANKO",
                "GG520": "GG520",
                "GOLEB": "GOLEB",
                "VALBU": "VALBU AT OR ABOVE 14000",
                "SUVEL": "SUVEL AT OR ABOVE 11000",
                "BIVLO": "BIVLO SPEED 250",
                "PITOM": "PITOM",
                "GG502": "GG502 SPEED 220 TRK 223 VECTORS"
            }
        },
        {
            "name": "BANK3R",
            "runway": "RNW 22",
            "fixes": {
                "BANKO": "BANKO",
                "GG520": "GG520",
                "GOLEB": "GOLEB",
                "VALBU": "VALBU AT OR ABOVE 14000",
                "SUVEL": "SUVEL AT OR ABOVE 11000",
                "BIVLO": "BIVLO AT OR ABOVE 7000 SPEED 250",
                "GG525": "GG525",
                "GG512": "GG512 SPEED 220 TRK 044 VECTORS"
            }
        },
        {
            "name": "BANK8S",
            "runway": "RNW 04 RNW 22",
            "fixes": {
                "BANKO": "BANKO",
                "GG520": "GG520",
                "GOLEB": "GOLEB",
                "VALBU": "VALBU AT OR ABOVE 14000",
                "SUVEL": "SUVEL AT OR ABOVE 11000",
                "GVA": "GVA AT OR ABOVE 7000"
            }
        },
        {
            "name": "BELU3N",
            "runway": "RNW 04",
            "fixes": {
                "BELUS": "BELUS AT OR BELOW 16000 SPEED 250",
                "RILTI": "RILTI",
                "CBY": "CBY AT OR ABOVE 10000",
                "INDIS": "INDIS AT OR ABOVE 7000",
                "GVA": "GVA SPEED 220",
                "BIVLO": "BIVLO SPEED 220",
                "PITOM": "PITOM",
                "GG502": "GG502 TRK 223 VECTORS"
            }
        },
        {
            "name": "BELU3R",
            "runway": "RNW 22",
            "fixes": {
                "BELUS": "BELUS",
                "RILTI": "RILTI AT OR BELOW 18000",
                "CBY": "CBY",
                "GG502": "GG502 AT OR ABOVE 10000",
                "PITOM": "PITOM AT OR BELOW 15000 AT OR ABOVE 7000",
                "BIVLO": "BIVLO AT OR ABOVE 7000",
                "GG525": "GG525",
                "GG512": "GG512 SPEED 220 TRK 044 VECTORS"
            }
        },
        {
            "name": "BELU3S.04",
            "runway": "RNW 04",
            "fixes": {
                "BELUS": "BELUS AT OR BELOW 16000 SPEED 250",
                "RILTI": "RILTI",
                "CBY": "CBY AT OR ABOVE 10000",
                "GVA": "GVA AT OR ABOVE 7000"
            }
        },
        {
            "name": "BELU3S.22",
            "runway": "RNW 22",
            "fixes": {
                "BELUS": "BELUS",
                "RILTI": "RILTI AT OR BELOW 18000",
                "CBY": "CBY AT OR ABOVE 10000",
                "GVA": "GVA AT OR ABOVE 7000"
            }
        },
        {
            "name": "BENO1N",
            "runway": "RNW 04",
            "fixes": {
                "BENOT": "BENOT",
                "NEMOS": "NEMOS",
                "GG514": "GG514 AT OR BELOW 15000",
                "SOVAD": "SOVAD",
                "KERAD": "KERAD",
                "GG503": "GG503 SPEED 220 TRK 223 VECTORS"
            }
        },
        {
            "name": "BENO1P",
            "runway": "RNW 04",
            "fixes": {
                "BENOT": "BENOT",
                "NEMOS": "NEMOS",
                "VADAR": "VADAR",
                "GG512": "GG512 AT OR BELOW 15000 SPEED 250",
                "BIVLO": "BIVLO",
                "PITOM": "PITOM",
                "GG502": "GG502 SPEED 220 TRK 223 VECTORS"
            }
        },
        {
            "name": "BENO1R",
            "runway": "RNW 22",
            "fixes": {
                "BENOT": "BENOT",
                "NEMOS": "NEMOS",
                "VADAR": "VADAR",
                "SPR": "SPR"
            }
        },
        {
            "name": "BENO1T",
            "runway": "RNW 22",
            "fixes": {
                "BENOT": "BENOT",
                "NEMOS": "NEMOS",
                "VEROX": "VEROX",
                "SPR": "SPR"
            }
        },
        {
            "name": "DJL2N",
            "runway": "RNW 04",
            "fixes": {
                "DJL": "DJL",
                "GG517": "GG517",
                "LIRKO": "LIRKO AT OR ABOVE 8000",
                "DINIG": "DINIG",
                "SOVAD": "SOVAD AT OR ABOVE 8000 SPEED 250",
                "KERAD": "KERAD",
                "GG503": "GG503 SPEED 220 TRK 223 VECTORS"
            }
        },
        {
            "name": "DJL2R",
            "runway": "RNW 22",
            "fixes": {
                "DJL": "DJL",
                "GG517": "GG517",
                "LIRKO": "LIRKO AT OR ABOVE 8000",
                "DINIG": "DINIG",
                "SOVAD": "SOVAD AT OR ABOVE 8000 SPEED 250",
                "GG507": "GG507",
                "GG514": "GG514 SPEED 220 TRK 044 VECTORS"
            }
        },
        {
            "name": "DJL7S",
            "runway": "RNW 04 RNW 22",
            "fixes": {
                "DJL": "DJL",
                "GG517": "GG517",
                "LIRKO": "LIRKO AT OR ABOVE 8000",
                "DINIG": "DINIG",
                "SOVAD": "SOVAD AT OR ABOVE 8000",
                "GVA": "GVA AT OR ABOVE 7000"
            }
        },
        {
            "name": "FRI2S",
            "runway": "RNW 04 RNW 22",
            "fixes": {
                "FRI": "FRI",
                "CBY45": "CBY45 AT OR BELOW 15000",
                "CBY33": "CBY33 AT OR ABOVE 9000",
                "SALEV": "SALEV AT OR ABOVE 7000",
                "PINOT": "OVERFLY PINOT TURN RIGHT DIRECT",
                "BELKA": "BELKA",
                "GVA": "GVA AT OR ABOVE 7000"
            }
        },
        {
            "name": "FRI2T",
            "runway": "RNW 04 RNW 22",
            "fixes": {
                "FRI": "FRI",
                "ROMOM": "ROMOM AT OR ABOVE 7000",
                "SPR": "SPR",
                "PETAL": "PETAL",
                "GVA": "GVA AT OR ABOVE 7000"
            }
        },
        {
            "name": "KINE2N",
            "runway": "RNW 04",
            "fixes": {
                "KINES": "KINES",
                "GG519": "GG519",
                "ROCCA": "ROCCA",
                "GOLEB": "GOLEB",
                "VALBU": "VALBU AT OR ABOVE 14000",
                "SUVEL": "SUVEL AT OR ABOVE 11000",
                "BIVLO": "BIVLO SPEED 250",
                "PITOM": "PITOM",
                "GG502": "GG502 SPEED 220 TRK 223 VECTORS"
            }
        },
        {
            "name": "KINE2R",
            "runway": "RNW 22",
            "fixes": {
                "KINES": "KINES",
                "GG519": "GG519",
                "ROCCA": "ROCCA",
                "GOLEB": "GOLEB",
                "VALBU": "VALBU AT OR ABOVE 14000",
                "SUVEL": "SUVEL AT OR ABOVE 11000",
                "BIVLO": "BIVLO AT OR ABOVE 7000 SPEED 250",
                "GG525": "GG525",
                "GG512": "GG512 SPEED 220 TRK 044 VECTORS"
            }
        },
        {
            "name": "LUSA2N",
            "runway": "RNW 04",
            "fixes": {
                "LUSAR": "LUSAR AT OR ABOVE 20000",
                "SAUNI": "SAUNI AT OR ABOVE 16000",
                "LIRKO": "LIRKO AT OR ABOVE 8000",
                "DINIG": "DINIG",
                "SOVAD": "SOVAD AT OR ABOVE 8000 SPEED 250",
                "KERAD": "KERAD",
                "GG503": "GG503 SPEED 220 TRK 223 VECTORS"
            }
        },
        {
            "name": "LUSA2R",
            "runway": "RNW 22",
            "fixes": {
                "LUSAR": "LUSAR AT OR ABOVE 20000",
                "SAUNI": "SAUNI AT OR ABOVE 16000",
                "LIRKO": "LIRKO AT OR ABOVE 8000",
                "DINIG": "DINIG",
                "SOVAD": "SOVAD AT OR ABOVE 8000 SPEED 250",
                "GG507": "GG507",
                "GG514": "GG514 SPEED 220 TRK 044 VECTORS"
            }
        },
        {
            "name": "ULME1N",
            "runway": "RNW 04",
            "fixes": {
                "ULMES": "ULMES",
                "ESEVA": "ESEVA",
                "VADAR": "VADAR",
                "GG514": "GG514 AT OR BELOW 15000",
                "SOVAD": "SOVAD",
                "KERAD": "KERAD",
                "GG503": "GG503 SPEED 220 TRK 223 VECTORS"
            }
        },
        {
            "name": "ULME1P",
            "runway": "RNW 04",
            "fixes": {
                "ULMES": "ULMES",
                "ESEVA": "ESEVA",
                "VADAR": "VADAR",
                "GG512": "GG512 AT OR BELOW 15000 SPEED 250",
                "BIVLO": "BIVLO",
                "PITOM": "PITOM",
                "GG502": "GG502 SPEED 220 TRK 223 VECTORS"
            }
        },
        {
            "name": "ULME1R",
            "runway": "RNW 22",
            "fixes": {
                "ULMES": "ULMES",
                "ESEVA": "ESEVA",
                "VADAR": "VADAR",
                "SPR": "SPR"
            }
        }
    ],
    "approaches": [
        {
            "name": "VORD04",
            "fixes": {
                "FD04": "FD04 6000",
                "VOR12": "VOR12 AT OR ABOVE 5380",
                "60VOR": "60VOR AT OR ABOVE 2960",
                "MD04": "MD04 1767 RNW 04",
                "GVA": "GVA TRK 044 UNTIL 9.5 FROM GVA",
                "SPR": "SPR 7000 FAF FD04 MAP MD04"
            },
            "transitions": [
                {
                    "name": "GVA",
                    "fixes": {
                        "GVA": "GVA",
                        "INDIS": "INDIS AT OR ABOVE 7000 TRK 269 UNTIL 3.0 FROM INDIS TURN LEFT DIRECT INDIS AT OR ABOVE 7000",
                        "D224Q": "D224Q AT OR ABOVE 7000"
                    }
                },
                {
                    "name": "INDIS",
                    "fixes": {
                        "INDIS": "INDIS AT OR ABOVE 7000",
                        "D224Q": "D224Q AT OR ABOVE 6000"
                    }
                }
            ]
        },
        {
            "name": "VORD22",
            "fixes": {
                "PETAL": "PETAL AT OR ABOVE 4630",
                "GG808": "GG808 4000",
                "40VOR": "40VOR AT OR ABOVE 2790",
                "MD22": "MD22 1837 RNW 22 TRK 224 UNTIL 9.5 FROM",
                "GVA": "GVA TURN LEFT DIRECT",
                "SPR": "SPR 7000 SPEED 185 FAF GG808 MAP MD22"
            },
            "transitions": [
                {
                    "name": "SPR",
                    "fixes": {
                        "SPR": "SPR AT OR ABOVE 7000 SPEED 210",
                        "D044Q": "D044Q AT OR ABOVE 7000",
                        "GG811": "GG811 AT OR ABOVE 4920"
                    }
                }
            ]
        },
        {
            "name": "ILS04",
            "fixes": {
                "BELKA": "BELKA AT OR ABOVE 6000",
                "PAS": "PAS 3210 RNW 04",
                "GVA": "GVA TRK 044 UNTIL 9.5 FROM GVA",
                "SPR": "SPR 7000 FAF PAS MAP RNW 04"
            },
            "transitions": [
                {
                    "name": "GVA",
                    "fixes": {
                        "GVA": "GVA",
                        "PAS": "PAS AT OR ABOVE 6000",
                        "PINOT": "OVERFLY PINOT AT OR ABOVE 6000"
                    }
                },
                {
                    "name": "INDIS",
                    "fixes": {
                        "INDIS": "INDIS AT OR ABOVE 7000 SPEED 220"
                    }
                }
            ]
        },
        {
            "name": "ILS22",
            "fixes": {
                "PETAL": "PETAL AT OR ABOVE 4640",
                "GG808": "GG808 4000 RNW 22",
                "D224J": "OVERFLY D224J TURN LEFT DIRECT",
                "SPR": "SPR 7000 SPEED 185 FAF GG808 MAP RNW 22"
            },
            "transitions": [
                {
                    "name": "SPR",
                    "fixes": {
                        "SPR": "SPR AT OR ABOVE 7000 SPEED 210",
                        "D224R": "D224R AT OR ABOVE 7000",
                        "GG811": "GG811 AT OR ABOVE 4930"
                    }
                }
            ]
        },
        {
            "name": "LOC04",
            "fixes": {
                "INDIS": "INDIS AT OR ABOVE 7000 SPEED 220",
                "BELKA": "BELKA 6000",
                "LOC10": "LOC10 AT OR ABOVE 4590",
                "PAS": "PAS AT OR ABOVE 3210",
                "40LOC": "40LOC AT OR ABOVE 2680",
                "ML04": "ML04 1694 RNW 04",
                "GVA": "GVA TRK 044 UNTIL 9.5 FROM GVA",
                "SPR": "SPR 7000 FAF BELKA MAP ML04"
            },
            "transitions": [
                {
                    "name": "GVA",
                    "fixes": {
                        "GVA": "GVA",
                        "PAS": "PAS AT OR ABOVE 6000",
                        "PINOT": "OVERFLY PINOT AT OR ABOVE 6000"
                    }
                }
            ]
        },
        {
            "name": "LOC22",
            "fixes": {
                "PETAL": "PETAL AT OR ABOVE 4640",
                "GG808": "GG808 4000",
                "45LOC": "45LOC AT OR ABOVE 2800",
                "ML22": "ML22 1841 RNW 22",
                "D224J": "OVERFLY D224J TURN LEFT DIRECT",
                "SPR": "SPR 7000 SPEED 185 FAF GG808 MAP ML22"
            },
            "transitions": [
                {
                    "name": "SPR",
                    "fixes": {
                        "SPR": "SPR AT OR ABOVE 7000 SPEED 210",
                        "D224R": "D224R AT OR ABOVE 7000",
                        "GG811": "GG811 AT OR ABOVE 4930"
                    }
                }
            ]
        },
        {
            "name": "RNAV04",
            "fixes": {
                "INDIS": "INDIS AT OR ABOVE 7000 SPEED 220",
                "BELKA": "BELKA 6000 RNW 04",
                "GG852": "GG852 AT OR ABOVE 4000",
                "SPR": "OVERFLY SPR AT OR ABOVE 7000 FAF BELKA MAP RNW 04"
            },
            "transitions": []
        },
        {
            "name": "RNAV22",
            "fixes": {
                "GG808": "GG808 4000 RNW 22",
                "GG803": "OVERFLY GG803 TURN LEFT DIRECT",
                "SPR": "OVERFLY SPR AT OR ABOVE 7000 SPEED 185 FAF GG808 MAP RNW 22"
            },
            "transitions": [
                {
                    "name": "SPR",
                    "fixes": {
                        "SPR": "SPR AT OR ABOVE 7000 SPEED 210",
                        "65NM": "65NM AT OR ABOVE 7000",
                        "GG811": "GG811 4930",
                        "PETAL": "PETAL 4640"
                    }
                }
            ]
        }
    ]
}