{
    "fixes": [
        {
            "name": "30LOC",
            "lat": 46.82155556666667,
            "lon": 6.879216666666666
        },
        {
            "name": "43LOC",
            "lat": 46.8072,
            "lon": 6.855597216666666
        },
        {
            "name": "56LOC",
            "lat": 46.89513888333333,
            "lon": 7.000586116666667
        },
        {
            "name": "BIRKI",
            "lat": 47.01294443333333,
            "lon": 7.376333333333333
        },
        {
            "name": "CI05",
            "lat": 46.69428611666667,
            "lon": 6.670513883333333
        },
        {
            "name": "CL23",
            "lat": 46.97662221666667,
            "lon": 7.135644433333334
        },
        {
            "name": "D047M",
            "lat": 46.97518888333333,
            "lon": 7.137455566666667
        },
        {
            "name": "D227C",
            "lat": 46.79913056666667,
            "lon": 6.842397216666667
        },
        {
            "name": "D261F",
            "lat": 46.7655,
            "lon": 7.079080566666667
        },
        {
            "name": "D261N",
            "lat": 46.74866111666667,
            "lon": 6.8867055666666666
        },
        {
            "name": "ETEKI",
            "lat": 46.736333333333334,
            "lon": 6.739277783333334
        },
        {
            "name": "FF05",
            "lat": 46.75526111666667,
            "lon": 6.7703
        },
        {
            "name": "FI23",
            "lat": 46.88410833333333,
            "lon": 6.982372216666667
        },
        {
            "name": "FRI",
            "lat": 46.77758333333333,
            "lon": 7.2235
        },
        {
            "name": "IPN",
            "lat": 46.855027783333334,
            "lon": 6.933305566666666
        },
        {
            "name": "MP401",
            "lat": 46.97661111666667,
            "lon": 7.135666666666666
        },
        {
            "name": "MP402",
            "lat": 46.799138883333335,
            "lon": 6.842333333333333
        },
        {
            "name": "MP501",
            "lat": 46.90098056666667,
            "lon": 7.0102722166666664
        },
        {
            "name": "MP502",
            "lat": 46.76550278333333,
            "lon": 7.079083333333333
        },
        {
            "name": "MP503",
            "lat": 46.74911111666667,
            "lon": 6.886627783333333
        },
        {
            "name": "MP701",
            "lat": 46.75788888333334,
            "lon": 6.902305566666667
        },
        {
            "name": "RW05",
            "lat": 46.835483333333336,
            "lon": 6.902152783333333
        },
        {
            "name": "RW23",
            "lat": 46.85086388333333,
            "lon": 6.927502783333333
        },
        {
            "name": "SPR",
            "lat": 46.46869443333333,
            "lon": 6.448055566666667
        },
        {
            "name": "VALAD",
            "lat": 46.94883333333333,
            "lon": 7.089555566666666
        }
    ],
    "rnws": [
        "RNW 05",
        "RNW 23"
    ],
    "sids": [
        {
            "name": "BIRK3M",
            "rnw": "05",
            "fixes": {
                "BIRKI": "BIRKI AT OR ABOVE 5000"
            },
            "sub_fixes": [],
            "transitions": []
        },
        {
            "name": "FRI2Q",
            "rnw": "05",
            "fixes": {
                "FRI": "FRI AT OR ABOVE 7500"
            },
            "sub_fixes": [],
            "transitions": []
        },
        {
            "name": "FRI2R",
            "rnw": "23",
            "fixes": {
                "MP701": "OVERFLY MP701 AT OR ABOVE 4800 SPEED 185",
                "FRI": "FRI AT OR ABOVE 7500"
            },
            "sub_fixes": [],
            "transitions": []
        },
        {
            "name": "FRI3M",
            "rnw": "05",
            "fixes": {
                "FRI": "FRI AT OR ABOVE 7500"
            },
            "sub_fixes": [],
            "transitions": []
        },
        {
            "name": "FRI3P",
            "rnw": "23",
            "fixes": {
                "FRI": "FRI AT OR ABOVE 7500 SPEED 185"
            },
            "sub_fixes": [],
            "transitions": []
        },
        {
            "name": "MILSID",
            "rnw": "23",
            "fixes": {},
            "sub_fixes": [
                {
                    "rwy": "RNW 05",
                    "fixes": {
                        "RNW 05": "RNW 05 TRK 047 UNTIL 1870 HDG 065 VECTORS"
                    }
                },
                {
                    "rwy": "RNW 23",
                    "fixes": {
                        "RNW 23": "RNW 23 TRK 227 UNTIL 1870 HDG 250 VECTORS"
                    }
                }
            ],
            "transitions": []
        },
        {
            "name": "SPR3P",
            "rnw": "23",
            "fixes": {
                "SPR": "SPR AT OR ABOVE 7000"
            },
            "sub_fixes": [],
            "transitions": []
        }
    ],
    "stars": [
        {
            "name": "FRI1B",
            "runway": "RNW 23",
            "fixes": {
                "FRI": "FRI AT OR ABOVE 6000",
                "VALAD": "VALAD AT OR ABOVE 5000"
            }
        },
        {
            "name": "FRI3N",
            "runway": "RNW 05",
            "fixes": {
                "FRI": "FRI AT OR ABOVE 7000",
                "D261F": "D261F AT OR ABOVE 7000",
                "D261N": "D261N",
                "ETEKI": "ETEKI"
            }
        },
        {
            "name": "FRI4A",
            "runway": "RNW 23",
            "fixes": {
                "FRI": "FRI AT OR ABOVE 6000",
                "VALAD": "VALAD AT OR BELOW 6000 AT OR ABOVE 5000"
            }
        }
    ],
    "approaches": [
        {
            "name": "ILS05",
            "fixes": {
                "CI05": "CI05 AT OR ABOVE 6000",
                "ETEKI": "ETEKI 6000 RNW 05 TRK 046 UNTIL 4.2 FROM ETEKI FAF ETEKI MAP RNW 05",
                "IPN": "IPN TURN RIGHT TRK 158 INTERCEPT RADIAL 128 TO",
                "FRI": "FRI SPEED 185 OVERFLY FRI AT OR ABOVE 7000 TRK 261 UNTIL 6.0 FROM FRI SPEED 185",
                "D261N": "D261N"
            },
            "transitions": [
                {
                    "name": "ETEKI",
                    "fixes": {
                        "ETEKI": "ETEKI RIGHT TURN INBOUNDCOURSE 046 ALT 6000 SPEED 230 LEGTIME 1"
                    }
                }
            ]
        },
        {
            "name": "ILS23",
            "fixes": {
                "VALAD": "VALAD AT OR ABOVE 5000 VALAD FAF FI23 MAP RNW 23",
                "FI23": "FI23 2690 RNW 23 TRK 227 UNTIL 1860",
                "D227C": "OVERFLY D227C SPEED 185 TURN LEFT TRK 050 INTERCEPT RADIAL 095 TO",
                "FRI": "FRI SPEED 185 FRI AT OR ABOVE 6000 SPEED 185 TURN LEFT DIRECT"
            },
            "transitions": [
                {
                    "name": "D047M",
                    "fixes": {
                        "D047M": "D047M AT OR ABOVE 6000"
                    }
                },
                {
                    "name": "VALAD",
                    "fixes": {
                        "VALAD": "VALAD RIGHT TURN INBOUNDCOURSE 227 ALT 5000 SPEED 180 LEGTIME 1"
                    }
                }
            ]
        },
        {
            "name": "LOC05",
            "fixes": {
                "ETEKI": "ETEKI AT OR ABOVE 6000 ETEKI FAF FF05 MAP RNW 05",
                "FF05": "FF05 6000",
                "43LOC": "43LOC AT OR ABOVE 3100",
                "30LOC": "30LOC AT OR ABOVE 2300 RNW 05 TRK 046 UNTIL 4.2 FROM",
                "IPN": "IPN TURN RIGHT TRK 158 INTERCEPT RADIAL 128 TO",
                "FRI": "FRI SPEED 185 OVERFLY FRI AT OR ABOVE 7000 TRK 261 UNTIL 6.0 FROM FRI",
                "D261N": "D261N"
            },
            "transitions": [
                {
                    "name": "ETEKI",
                    "fixes": {
                        "ETEKI": "ETEKI RIGHT TURN INBOUNDCOURSE 046 ALT 6000 SPEED 230 LEGTIME 1"
                    }
                }
            ]
        },
        {
            "name": "LOC23",
            "fixes": {
                "CL23": "CL23 AT OR ABOVE 5000",
                "VALAD": "VALAD 5000 VALAD FAF VALAD MAP RNW 23",
                "56LOC": "56LOC AT OR ABOVE 3080 RNW 23 TRK 227 UNTIL 1860",
                "D227C": "OVERFLY D227C SPEED 185 TURN LEFT TRK 050 INTERCEPT RADIAL 095 TO",
                "FRI": "FRI SPEED 185 FRI AT OR ABOVE 6000 SPEED 185 TURN LEFT DIRECT"
            },
            "transitions": [
                {
                    "name": "VALAD",
                    "fixes": {
                        "VALAD": "VALAD RIGHT TURN INBOUNDCOURSE 227 ALT 5000 SPEED 180 LEGTIME 1"
                    }
                }
            ]
        },
        {
            "name": "RNAV05",
            "fixes": {
                "ETEKI": "ETEKI 6000 RNW 05 ETEKI FAF ETEKI MAP RNW 05",
                "MP501": "OVERFLY MP501",
                "FRI": "OVERFLY FRI AT OR ABOVE 7000 SPEED 185 TURN RIGHT DIRECT",
                "MP502": "MP502 AT OR ABOVE 7000 SPEED 185",
                "MP503": "MP503"
            },
            "transitions": [
                {
                    "name": "ETEKI",
                    "fixes": {
                        "ETEKI": "ETEKI RIGHT TURN INBOUNDCOURSE 046 ALT 6000 SPEED 230 LEGTIME 1"
                    }
                }
            ]
        },
        {
            "name": "RNAVZ23",
            "fixes": {
                "MP401": "MP401 AT OR ABOVE 5000",
                "VALAD": "VALAD 5000 RNW 23 OVERFLY VALAD FAF VALAD MAP RNW 23",
                "MP402": "OVERFLY MP402 SPEED 185 TURN LEFT DIRECT",
                "FRI": "OVERFLY FRI AT OR ABOVE 6000 SPEED 185 TURN LEFT DIRECT"
            },
            "transitions": [
                {
                    "name": "VALAD",
                    "fixes": {
                        "VALAD": "VALAD RIGHT TURN INBOUNDCOURSE 227 ALT 5000 SPEED 180 LEGTIME 1"
                    }
                }
            ]
        }
    ]
}