{
    "fixes": [
        {
            "name": "38VOR",
            "lat": 37.39085,
            "lon": 41.988841666666666
        },
        {
            "name": "ABDIK",
            "lat": 37.68833333333333,
            "lon": 41.95527778333334
        },
        {
            "name": "AF001",
            "lat": 37.456303,
            "lon": 41.91153213333333
        },
        {
            "name": "AF002",
            "lat": 37.4799279,
            "lon": 41.939944733333334
        },
        {
            "name": "AF003",
            "lat": 37.4981029,
            "lon": 41.974143516666665
        },
        {
            "name": "AF004",
            "lat": 37.45836851666667,
            "lon": 41.913558466666665
        },
        {
            "name": "AF005",
            "lat": 37.4815957,
            "lon": 41.942487666666665
        },
        {
            "name": "AF006",
            "lat": 37.49929355,
            "lon": 41.9770823
        },
        {
            "name": "BUZUL",
            "lat": 37.464283333333334,
            "lon": 41.79641388333334
        },
        {
            "name": "CF11",
            "lat": 37.45305556666667,
            "lon": 41.81286111666667
        },
        {
            "name": "CI11",
            "lat": 37.464275,
            "lon": 41.796258333333334
        },
        {
            "name": "D289N",
            "lat": 37.4598,
            "lon": 41.79371388333333
        },
        {
            "name": "D290I",
            "lat": 37.42882221666667,
            "lon": 41.89126666666667
        },
        {
            "name": "D291I",
            "lat": 37.43079721666667,
            "lon": 41.89217778333333
        },
        {
            "name": "D341E",
            "lat": 37.44571666666667,
            "lon": 42.03519443333333
        },
        {
            "name": "D341I",
            "lat": 37.51079443333333,
            "lon": 42.01583333333333
        },
        {
            "name": "FF11",
            "lat": 37.40913333333334,
            "lon": 41.937225
        },
        {
            "name": "FI11",
            "lat": 37.411369433333334,
            "lon": 41.93572221666667
        },
        {
            "name": "MA11",
            "lat": 37.37865,
            "lon": 42.023236116666666
        },
        {
            "name": "RNA",
            "lat": 37.36508333333333,
            "lon": 42.061444433333335
        },
        {
            "name": "RNANB",
            "lat": 37.36508333333333,
            "lon": 42.061444433333335
        },
        {
            "name": "ULSAB",
            "lat": 38.1425,
            "lon": 41.13138888333334
        }
    ],
    "rnws": [
        "RNW 11",
        "RNW 29"
    ],
    "sids": [
        {
            "name": "ABDI1B",
            "rnw": "29",
            "fixes": {
                "D290I": "D290I",
                "AF001": "AF001",
                "AF002": "AF002",
                "AF003": "AF003",
                "D341I": "D341I",
                "ABDIK": "ABDIK"
            },
            "sub_fixes": [],
            "transitions": []
        },
        {
            "name": "ABDI1C",
            "rnw": "11",
            "fixes": {
                "RNA": "RNA",
                "ABDIK": "ABDIK"
            },
            "sub_fixes": [],
            "transitions": []
        },
        {
            "name": "ABDI1D",
            "rnw": "29",
            "fixes": {
                "D291I": "D291I",
                "AF004": "AF004",
                "AF005": "AF005",
                "AF006": "AF006",
                "D341I": "D341I TURN LEFT DIRECT",
                "ABDIK": "ABDIK"
            },
            "sub_fixes": [],
            "transitions": []
        },
        {
            "name": "ABDI1E",
            "rnw": "11",
            "fixes": {
                "RNANB": "RNANB SPEED 220 TRK 215 UNTIL 6000 TURN RIGHT DIRECT",
                "RNA": "RNA",
                "ABDIK": "ABDIK"
            },
            "sub_fixes": [],
            "transitions": []
        },
        {
            "name": "ULSA1A",
            "rnw": "29",
            "fixes": {
                "BUZUL": "BUZUL",
                "ULSAB": "ULSAB"
            },
            "sub_fixes": [],
            "transitions": []
        }
    ],
    "stars": [
        {
            "name": "ABDI1A",
            "runway": "RNW 11 RNW 29",
            "fixes": {
                "ABDIK": "ABDIK",
                "D341E": "D341E",
                "RNA": "RNA"
            }
        }
    ],
    "approaches": [
        {
            "name": "VORD11",
            "fixes": {
                "CF11": "CF11 AT OR ABOVE 5900",
                "FF11": "FF11 4100",
                "38VOR": "38VOR AT OR ABOVE 3100",
                "MA11": "MA11 2476 RNW 11",
                "RNA": "RNA TRK 116 UNTIL 2950 TURN RIGHT TRK 278 INTERCEPT RADIAL 248 TO RNA SPEED 185 TRK 248 UNTIL 6000 TURN RIGHT DIRECT RNA 9000 HOLD AT RNA RIGHT TURN INBOUNDCOURSE 261 LEGTIME 1 FAF FF11 MAP MA11"
            },
            "transitions": [
                {
                    "name": "RNA",
                    "fixes": {
                        "RNA": "RNA AT OR ABOVE 9000",
                        "CF11": "CF11 AT OR ABOVE 5900 TRK 244 UNTIL 4.3 FROM CF11"
                    }
                }
            ]
        },
        {
            "name": "ILSY11",
            "fixes": {
                "CI11": "CI11 AT OR ABOVE 5800",
                "FI11": "FI11 3900 RNW 11",
                "RNANB": "RNANB TRK 116 UNTIL 2950 TURN RIGHT TRK 278 INTERCEPT RADIAL 248 TO RNANB SPEED 185 TRK 248 UNTIL 6000 TURN RIGHT DIRECT RNANB 9000 HOLD AT RNANB RIGHT TURN INBOUNDCOURSE 261 ALT 9000 LEGTIME 1 FAF FI11 MAP RNW 11"
            },
            "transitions": [
                {
                    "name": "RNA",
                    "fixes": {
                        "RNANB": "RNANB AT OR ABOVE 9000",
                        "D289N": "D289N AT OR ABOVE 5800 TRK 244 UNTIL 4.3 FROM D289N"
                    }
                }
            ]
        },
        {
            "name": "ILSZ11",
            "fixes": {
                "CI11": "CI11 AT OR ABOVE 5800",
                "FI11": "FI11 3900 RNW 11",
                "RNA": "RNA TRK 116 UNTIL 2950 TURN RIGHT TRK 278 INTERCEPT RADIAL 248 TO RNA SPEED 185 TRK 248 UNTIL 6000 TURN RIGHT DIRECT RNA 9000 HOLD AT RNA RIGHT TURN INBOUNDCOURSE 261 ALT 9000 LEGTIME 1 FAF FI11 MAP RNW 11"
            },
            "transitions": [
                {
                    "name": "RNA",
                    "fixes": {
                        "RNA": "RNA AT OR ABOVE 9000",
                        "D289N": "D289N AT OR ABOVE 5800 TRK 244 UNTIL 4.3 FROM D289N"
                    }
                }
            ]
        },
        {
            "name": "NDBD11",
            "fixes": {
                "CF11": "CF11 AT OR ABOVE 5900",
                "FF11": "FF11 4100",
                "38VOR": "38VOR AT OR ABOVE 3100",
                "MA11": "MA11 2476 RNW 11",
                "RNANB": "RNANB TRK 116 UNTIL 2950 TURN RIGHT TRK 278 INTERCEPT RADIAL 248 TO RNANB SPEED 185 TRK 248 UNTIL 6000 TURN RIGHT DIRECT RNANB 9000 HOLD AT RNANB RIGHT TURN INBOUNDCOURSE 261 LEGTIME 1 FAF FF11 MAP MA11"
            },
            "transitions": [
                {
                    "name": "RNA",
                    "fixes": {
                        "RNANB": "RNANB AT OR ABOVE 9000",
                        "CF11": "CF11 AT OR ABOVE 5900 TRK 244 UNTIL 4.3 FROM CF11"
                    }
                }
            ]
        }
    ]
}