{
    "fixes": [
        {
            "name": "ATSUB",
            "lat": 36.58472221666667,
            "lon": 31.6225
        },
        {
            "name": "AYT",
            "lat": 36.920805566666665,
            "lon": 30.794472216666666
        },
        {
            "name": "BATNU",
            "lat": 36.160833333333336,
            "lon": 32.72388888333333
        },
        {
            "name": "BEPTO",
            "lat": 36.26968611666667,
            "lon": 32.0534
        },
        {
            "name": "D170J",
            "lat": 36.13811666666667,
            "lon": 32.31540556666667
        },
        {
            "name": "ELROP",
            "lat": 36.506111116666666,
            "lon": 32.653333333333336
        },
        {
            "name": "ETPUX",
            "lat": 36.08172221666667,
            "lon": 32.08764166666667
        },
        {
            "name": "EVBUM",
            "lat": 36.282783333333334,
            "lon": 32.162219433333334
        },
        {
            "name": "EVKOR",
            "lat": 36.428888883333336,
            "lon": 32.0
        },
        {
            "name": "FF070",
            "lat": 36.26406943333333,
            "lon": 32.11236111666667
        },
        {
            "name": "FG401",
            "lat": 36.28522778333333,
            "lon": 32.182619433333336
        },
        {
            "name": "FG402",
            "lat": 36.18298611666667,
            "lon": 32.201261116666664
        },
        {
            "name": "FG403",
            "lat": 36.225791666666666,
            "lon": 32.56376388333334
        },
        {
            "name": "FG404",
            "lat": 36.290108333333336,
            "lon": 32.22346388333333
        },
        {
            "name": "FG711",
            "lat": 36.43612778333333,
            "lon": 32.395863883333334
        },
        {
            "name": "FG712",
            "lat": 36.39325556666667,
            "lon": 32.23935556666667
        },
        {
            "name": "FG714",
            "lat": 36.124875,
            "lon": 32.43061111666667
        },
        {
            "name": "FG715",
            "lat": 36.10831666666667,
            "lon": 32.29803056666667
        },
        {
            "name": "FQ070",
            "lat": 36.25013056666667,
            "lon": 32.04867221666667
        },
        {
            "name": "GZPNB",
            "lat": 36.30438888333333,
            "lon": 32.2975
        },
        {
            "name": "MA08",
            "lat": 36.29496388333333,
            "lon": 32.26423056666667
        },
        {
            "name": "MQ070",
            "lat": 36.28708056666667,
            "lon": 32.21781943333333
        },
        {
            "name": "MUT",
            "lat": 36.86302778333334,
            "lon": 33.29183333333334
        },
        {
            "name": "MX08",
            "lat": 36.292977783333335,
            "lon": 32.24755556666667
        },
        {
            "name": "ROKDU",
            "lat": 36.36876111666667,
            "lon": 32.035122216666664
        },
        {
            "name": "UTUSO",
            "lat": 36.44979443333333,
            "lon": 31.710613883333334
        }
    ],
    "rnws": [
        "RNW 08",
        "RNW 26"
    ],
    "sids": [
        {
            "name": "ATSU1T",
            "rnw": "26",
            "fixes": {
                "FG404": "FG404",
                "EVKOR": "EVKOR",
                "ATSUB": "ATSUB"
            },
            "sub_fixes": [],
            "transitions": []
        },
        {
            "name": "BATN1T",
            "rnw": "26",
            "fixes": {
                "FG401": "FG401 SPEED 230",
                "FG402": "FG402 SPEED 260",
                "FG403": "FG403",
                "BATNU": "BATNU"
            },
            "sub_fixes": [],
            "transitions": []
        },
        {
            "name": "ELRO1T",
            "rnw": "26",
            "fixes": {
                "FG401": "FG401 SPEED 230",
                "FG402": "FG402 SPEED 260",
                "FG403": "FG403",
                "ELROP": "ELROP"
            },
            "sub_fixes": [],
            "transitions": []
        },
        {
            "name": "EVKO1A",
            "rnw": "26",
            "fixes": {
                "GZPNB": "GZPNB TRK 250 UNTIL 1500 TURN RIGHT TRK 340 INTERCEPT RADIAL 293 TO",
                "EVKOR": "EVKOR"
            },
            "sub_fixes": [],
            "transitions": []
        }
    ],
    "stars": [
        {
            "name": "BATN1C",
            "runway": "RNW 08",
            "fixes": {
                "BATNU": "BATNU AT OR ABOVE 9000",
                "FG714": "FG714 AT OR ABOVE 6000",
                "FG715": "FG715",
                "ETPUX": "ETPUX TURN RIGHT DIRECT",
                "BEPTO": "BEPTO AT OR ABOVE 3200"
            }
        },
        {
            "name": "BATN1D",
            "runway": "RNW 08",
            "fixes": {
                "BATNU": "BATNU AT OR ABOVE 9000",
                "FG714": "FG714 AT OR ABOVE 6000",
                "FG715": "FG715",
                "ETPUX": "ETPUX"
            }
        },
        {
            "name": "ELRO1C",
            "runway": "RNW 08",
            "fixes": {
                "ELROP": "ELROP AT OR ABOVE 13000",
                "FG711": "FG711 AT OR ABOVE 10000",
                "FG712": "FG712 AT OR ABOVE 8000",
                "ROKDU": "ROKDU AT OR ABOVE 5000",
                "BEPTO": "BEPTO AT OR ABOVE 3200"
            }
        },
        {
            "name": "ELRO1D",
            "runway": "RNW 08",
            "fixes": {
                "ELROP": "ELROP AT OR ABOVE 13000",
                "FG711": "FG711 AT OR ABOVE 10000",
                "FG712": "FG712 AT OR ABOVE 8000",
                "ROKDU": "ROKDU AT OR ABOVE 5000"
            }
        },
        {
            "name": "EVKO1B",
            "runway": "RNW 08 RNW 26",
            "fixes": {
                "EVKOR": "EVKOR",
                "GZPNB": "GZPNB"
            }
        },
        {
            "name": "UTUS1C",
            "runway": "RNW 08",
            "fixes": {
                "UTUSO": "UTUSO AT OR ABOVE 9000",
                "BEPTO": "BEPTO AT OR ABOVE 3200"
            }
        }
    ],
    "approaches": [
        {
            "name": "LOC08",
            "fixes": {
                "BEPTO": "BEPTO AT OR ABOVE 3200",
                "EVBUM": "EVBUM 2000",
                "MX08": "MX08 681 RNW 08 TRK 120 INTERCEPT RADIAL 170 FROM",
                "GZPNB": "GZPNB SPEED 185 TRK 170 VECTORS FAF EVBUM MAP MX08"
            },
            "transitions": [
                {
                    "name": "AYT",
                    "fixes": {
                        "AYT": "AYT",
                        "UTUSO": "UTUSO AT OR ABOVE 9000"
                    }
                },
                {
                    "name": "MUT",
                    "fixes": {
                        "MUT": "MUT",
                        "ELROP": "ELROP AT OR ABOVE 13000",
                        "GZPNB": "GZPNB AT OR ABOVE 10000",
                        "BEPTO": "BEPTO AT OR ABOVE 3200 HOLD AT BEPTO RIGHT TURN INBOUNDCOURSE 076 ALT 3200 SPEED 230 LEGTIME 1"
                    }
                }
            ]
        },
        {
            "name": "NDBDB08",
            "fixes": {
                "FF070": "FF070 4300",
                "GZPNB": "GZPNB 4000 RNW 08 TRK 170 UNTIL 4100 TURN RIGHT DIRECT GZPNB 7500 HOLD AT GZPNB RIGHT TURN INBOUNDCOURSE 070 SPEED 230 LEGTIME 1 FAF FF070 MAP GZP"
            },
            "transitions": []
        },
        {
            "name": "NDBDM08",
            "fixes": {
                "FQ070": "FQ070 4300",
                "MQ070": "OVERFLY MQ070 4000 RNW 08 TRK 120 INTERCEPT RADIAL 170 TO",
                "D170J": "D170J OVERFLY D170J SPEED 185 TURN RIGHT DIRECT",
                "GZPNB": "GZPNB 7500 HOLD AT GZPNB RIGHT TURN INBOUNDCOURSE 070 SPEED 230 LEGTIME 1 FAF FQ070 MAP MQ070"
            },
            "transitions": []
        },
        {
            "name": "NDBDB26",
            "fixes": {
                "FF070": "FF070 4300",
                "GZPNB": "GZPNB 4000 RNW 26 TRK 170 UNTIL 4100 TURN RIGHT DIRECT GZPNB 7500 HOLD AT GZPNB RIGHT TURN INBOUNDCOURSE 070 SPEED 230 LEGTIME 1 FAF FF070 MAP GZP"
            },
            "transitions": []
        },
        {
            "name": "NDBDM26",
            "fixes": {
                "FQ070": "FQ070 4300",
                "MQ070": "OVERFLY MQ070 4000 RNW 26 TRK 120 INTERCEPT RADIAL 170 TO",
                "D170J": "D170J OVERFLY D170J SPEED 185 TURN RIGHT DIRECT",
                "GZPNB": "GZPNB 7500 HOLD AT GZPNB RIGHT TURN INBOUNDCOURSE 070 SPEED 230 LEGTIME 1 FAF FQ070 MAP MQ070"
            },
            "transitions": []
        },
        {
            "name": "RNAV08",
            "fixes": {
                "BEPTO": "BEPTO AT OR ABOVE 3200 BEPTO 3200 HOLD AT BEPTO RIGHT TURN INBOUNDCOURSE 077 ALT 3200 LEGTIME 1 FAF EVBUM MAP MA08",
                "EVBUM": "EVBUM 2000",
                "MA08": "OVERFLY MA08 421 SPEED 185 RNW 08",
                "FG715": "FG715",
                "ETPUX": "ETPUX"
            },
            "transitions": [
                {
                    "name": "ETPUX",
                    "fixes": {
                        "ETPUX": "ETPUX AT OR ABOVE 6000"
                    }
                },
                {
                    "name": "ROKDU",
                    "fixes": {
                        "ROKDU": "ROKDU AT OR ABOVE 5000"
                    }
                },
                {
                    "name": "UTUSO",
                    "fixes": {
                        "UTUSO": "UTUSO AT OR ABOVE 9000"
                    }
                }
            ]
        }
    ]
}