{
    "fixes": [
        {
            "name": "BUREK",
            "lat": 41.832222216666665,
            "lon": 21.196944433333332
        },
        {
            "name": "CI01",
            "lat": 41.04150833333333,
            "lon": 20.6848
        },
        {
            "name": "D007C",
            "lat": 41.221527783333336,
            "lon": 20.748833333333334
        },
        {
            "name": "D143B",
            "lat": 41.144525,
            "lon": 20.760416666666668
        },
        {
            "name": "D148B",
            "lat": 41.143047216666666,
            "lon": 20.7571
        },
        {
            "name": "D153D",
            "lat": 41.11111111666666,
            "lon": 20.771111116666667
        },
        {
            "name": "D171J",
            "lat": 41.006111116666666,
            "lon": 20.756111116666666
        },
        {
            "name": "D187J",
            "lat": 41.00878888333333,
            "lon": 20.694380566666666
        },
        {
            "name": "FD01",
            "lat": 41.08388888333333,
            "lon": 20.713888883333333
        },
        {
            "name": "FI01",
            "lat": 41.08606111666667,
            "lon": 20.703269433333332
        },
        {
            "name": "IZDNB",
            "lat": 41.34305556666666,
            "lon": 20.820555566666666
        },
        {
            "name": "MAVAR",
            "lat": 41.67,
            "lon": 20.53
        },
        {
            "name": "MD01",
            "lat": 41.13138888333334,
            "lon": 20.726111116666665
        },
        {
            "name": "OHR",
            "lat": 41.1725,
            "lon": 20.736388883333333
        },
        {
            "name": "PEPNB",
            "lat": 41.33777778333334,
            "lon": 21.448611116666665
        },
        {
            "name": "RW01",
            "lat": 41.16899443333333,
            "lon": 20.737719433333332
        },
        {
            "name": "TETOV",
            "lat": 41.97666666666667,
            "lon": 20.99
        }
    ],
    "rnws": [
        "RNW 01",
        "RNW 19"
    ],
    "sids": [
        {
            "name": "PEP2A",
            "rnw": "01",
            "fixes": {
                "D153D": "OVERFLY D153D TURN RIGHT DIRECT",
                "OHR": "OHR AT OR ABOVE 6000",
                "IZDNB": "IZDNB",
                "PEPNB": "PEPNB"
            },
            "sub_fixes": [],
            "transitions": []
        },
        {
            "name": "PEP2B",
            "rnw": "19",
            "fixes": {
                "OHR": "OHR TURN LEFT DIRECT",
                "D143B": "D143B AT OR ABOVE 6000",
                "IZDNB": "IZDNB",
                "PEPNB": "PEPNB"
            },
            "sub_fixes": [],
            "transitions": []
        },
        {
            "name": "PEP2C",
            "rnw": "19",
            "fixes": {
                "OHR": "OHR TURN LEFT DIRECT",
                "D148B": "OVERFLY D148B AT OR ABOVE 6000 SPEED 190",
                "IZDNB": "IZDNB",
                "PEPNB": "PEPNB"
            },
            "sub_fixes": [],
            "transitions": []
        },
        {
            "name": "TETO1A",
            "rnw": "19",
            "fixes": {
                "OHR": "OHR TURN LEFT DIRECT",
                "D143B": "D143B AT OR ABOVE 6000",
                "IZDNB": "IZDNB",
                "TETOV": "TETOV 12000"
            },
            "sub_fixes": [],
            "transitions": []
        },
        {
            "name": "TETO1B",
            "rnw": "19",
            "fixes": {
                "OHR": "OHR TURN LEFT DIRECT",
                "D148B": "OVERFLY D148B AT OR ABOVE 6000 SPEED 190",
                "IZDNB": "IZDNB",
                "TETOV": "TETOV 12000"
            },
            "sub_fixes": [],
            "transitions": []
        },
        {
            "name": "TETO1C",
            "rnw": "01",
            "fixes": {
                "D153D": "OVERFLY D153D TURN RIGHT DIRECT",
                "OHR": "OHR AT OR ABOVE 6000",
                "IZDNB": "IZDNB",
                "TETOV": "TETOV 12000"
            },
            "sub_fixes": [],
            "transitions": []
        }
    ],
    "stars": [
        {
            "name": "BUREK1",
            "runway": "RNW 01",
            "fixes": {
                "BUREK": "BUREK",
                "IZDNB": "IZDNB"
            }
        },
        {
            "name": "MAVAR1",
            "runway": "RNW 01",
            "fixes": {
                "MAVAR": "MAVAR",
                "IZDNB": "IZDNB"
            }
        },
        {
            "name": "PEP2",
            "runway": "RNW 01",
            "fixes": {
                "PEPNB": "PEPNB",
                "IZDNB": "IZDNB"
            }
        }
    ],
    "approaches": [
        {
            "name": "VORD01",
            "fixes": {
                "FD01": "FD01 4100",
                "MD01": "MD01 3125 RNW 01",
                "OHR": "OHR OHR SPEED 160 OHR SPEED 185",
                "D007C": "OVERFLY D007C TURN LEFT DIRECT",
                "D171J": "OVERFLY D171J SPEED 185 TURN RIGHT DIRECT",
                "IZDNB": "IZDNB 8000 HOLD AT IZDNB LEFT TURN INBOUNDCOURSE 197 SPEED 220 LEGTIME 1 FAF FD01 MAP MD01"
            },
            "transitions": [
                {
                    "name": "IZD",
                    "fixes": {
                        "IZDNB": "IZDNB",
                        "OHR": "OHR AT OR ABOVE 6500",
                        "D171J": "OVERFLY D171J AT OR ABOVE 4300 SPEED 185 TURN RIGHT DIRECT",
                        "D187J": "D187J AT OR ABOVE 4300"
                    }
                }
            ]
        },
        {
            "name": "ILS01",
            "fixes": {
                "CI01": "CI01 AT OR ABOVE 4300",
                "FI01": "FI01 4100 RNW 01 TRK 014 UNTIL 3600 TURN LEFT HDG 141 INTERCEPT RADIAL 171 TO",
                "D171J": "D171J SPEED 160 OVERFLY D171J TURN RIGHT DIRECT",
                "OHR": "OHR SPEED 160",
                "IZDNB": "IZDNB 8000 HOLD AT IZDNB LEFT TURN INBOUNDCOURSE 197 SPEED 220 LEGTIME 1 FAF FI01 MAP RNW 01"
            },
            "transitions": [
                {
                    "name": "IZD",
                    "fixes": {
                        "IZDNB": "IZDNB",
                        "OHR": "OHR AT OR ABOVE 6500 TRK 176 UNTIL 8.2 FROM OHR SPEED 170"
                    }
                }
            ]
        }
    ]
}