{
    "fixes": [
        {
            "name": "32VOR",
            "lat": 44.790297216666666,
            "lon": 20.373975
        },
        {
            "name": "BE101",
            "lat": 45.06105556666667,
            "lon": 19.756861116666666
        },
        {
            "name": "BE102",
            "lat": 44.975777783333335,
            "lon": 19.683138883333335
        },
        {
            "name": "BE103",
            "lat": 44.923777783333335,
            "lon": 19.802527783333332
        },
        {
            "name": "BE104",
            "lat": 44.87133333333333,
            "lon": 19.922361116666668
        },
        {
            "name": "BE106",
            "lat": 44.83852778333333,
            "lon": 19.728916666666667
        },
        {
            "name": "BE107",
            "lat": 44.890472216666666,
            "lon": 19.609666666666666
        },
        {
            "name": "BE108",
            "lat": 44.94255556666667,
            "lon": 19.4895
        },
        {
            "name": "BE112",
            "lat": 45.14825,
            "lon": 19.8325
        },
        {
            "name": "BE113",
            "lat": 45.095666666666666,
            "lon": 19.953055566666666
        },
        {
            "name": "BE114",
            "lat": 45.128111116666666,
            "lon": 20.1475
        },
        {
            "name": "BE115",
            "lat": 45.18080556666666,
            "lon": 20.027222216666665
        },
        {
            "name": "BE116",
            "lat": 45.233305566666665,
            "lon": 19.906916666666667
        },
        {
            "name": "BE130",
            "lat": 44.81877778333333,
            "lon": 20.041972216666668
        },
        {
            "name": "BE131",
            "lat": 44.766083333333334,
            "lon": 20.161388883333334
        },
        {
            "name": "BE132",
            "lat": 44.541305566666665,
            "lon": 20.665277783333334
        },
        {
            "name": "BE133",
            "lat": 44.659361116666666,
            "lon": 21.106083333333334
        },
        {
            "name": "BE134",
            "lat": 44.66611111666667,
            "lon": 20.166388883333333
        },
        {
            "name": "BE150",
            "lat": 44.869166666666665,
            "lon": 20.194722216666666
        },
        {
            "name": "BE161",
            "lat": 44.7695,
            "lon": 20.419305566666665
        },
        {
            "name": "BE180",
            "lat": 44.79975,
            "lon": 20.347
        },
        {
            "name": "BE190",
            "lat": 44.834638883333334,
            "lon": 20.268333333333334
        },
        {
            "name": "BE1LF",
            "lat": 44.89930556666667,
            "lon": 20.126277783333332
        },
        {
            "name": "BE201",
            "lat": 44.700777783333336,
            "lon": 20.57325
        },
        {
            "name": "BE202",
            "lat": 44.678277783333336,
            "lon": 20.623444433333333
        },
        {
            "name": "BE203",
            "lat": 44.58555556666666,
            "lon": 20.8295
        },
        {
            "name": "BE204",
            "lat": 44.50305556666667,
            "lon": 20.387138883333332
        },
        {
            "name": "BE205",
            "lat": 44.39302778333333,
            "lon": 20.688277783333334
        },
        {
            "name": "BE206",
            "lat": 44.46033333333333,
            "lon": 20.538833333333333
        },
        {
            "name": "BE207",
            "lat": 44.37436111666667,
            "lon": 20.018055566666668
        },
        {
            "name": "BE208",
            "lat": 44.644944433333336,
            "lon": 19.876555566666667
        },
        {
            "name": "BE209",
            "lat": 44.88247221666666,
            "lon": 19.579027783333334
        },
        {
            "name": "BE301",
            "lat": 44.58538888333333,
            "lon": 20.829805566666668
        },
        {
            "name": "BE302",
            "lat": 44.50080556666666,
            "lon": 20.755111116666665
        },
        {
            "name": "BE303",
            "lat": 44.55413888333333,
            "lon": 20.636805566666666
        },
        {
            "name": "BE304",
            "lat": 44.60733333333334,
            "lon": 20.518277783333332
        },
        {
            "name": "BE305",
            "lat": 44.52252778333333,
            "lon": 20.444027783333333
        },
        {
            "name": "BE306",
            "lat": 44.46941666666667,
            "lon": 20.562444433333333
        },
        {
            "name": "BE307",
            "lat": 44.66038888333333,
            "lon": 20.399527783333333
        },
        {
            "name": "BE308",
            "lat": 44.71333333333333,
            "lon": 20.280527783333334
        },
        {
            "name": "BE309",
            "lat": 44.628388883333336,
            "lon": 20.2065
        },
        {
            "name": "BE310",
            "lat": 44.89688888333333,
            "lon": 19.864111116666667
        },
        {
            "name": "BE311",
            "lat": 44.99611111666667,
            "lon": 19.636472216666668
        },
        {
            "name": "BE312",
            "lat": 44.669916666666666,
            "lon": 20.904722216666666
        },
        {
            "name": "BE313",
            "lat": 44.723416666666665,
            "lon": 20.786166666666666
        },
        {
            "name": "BE314",
            "lat": 44.77675,
            "lon": 20.667416666666668
        },
        {
            "name": "BE317",
            "lat": 44.41619443333333,
            "lon": 20.680638883333334
        },
        {
            "name": "BE318",
            "lat": 44.362805566666665,
            "lon": 20.798694433333335
        },
        {
            "name": "BE320",
            "lat": 44.71755556666667,
            "lon": 20.531222216666666
        },
        {
            "name": "BE3LF",
            "lat": 44.739666666666665,
            "lon": 20.481694433333335
        },
        {
            "name": "BE3RF",
            "lat": 44.73683333333334,
            "lon": 20.492611116666666
        },
        {
            "name": "BE401",
            "lat": 45.004694433333334,
            "lon": 19.886138883333334
        },
        {
            "name": "BE402",
            "lat": 44.816861116666665,
            "lon": 19.733888883333332
        },
        {
            "name": "BE403",
            "lat": 44.67511111666666,
            "lon": 20.056694433333334
        },
        {
            "name": "BE404",
            "lat": 44.66025,
            "lon": 19.778888883333334
        },
        {
            "name": "BE405",
            "lat": 44.42658333333333,
            "lon": 20.380444433333334
        },
        {
            "name": "BE406",
            "lat": 44.33438888333333,
            "lon": 20.49955556666667
        },
        {
            "name": "BE407",
            "lat": 45.05169443333333,
            "lon": 20.227027783333334
        },
        {
            "name": "BG04A",
            "lat": 44.788861116666666,
            "lon": 20.381055566666667
        },
        {
            "name": "BG04B",
            "lat": 44.789,
            "lon": 20.381138883333332
        },
        {
            "name": "BGD",
            "lat": 44.81936111666667,
            "lon": 20.311166666666665
        },
        {
            "name": "BGD27",
            "lat": 44.55774721666667,
            "lon": 20.809969433333332
        },
        {
            "name": "BGD32",
            "lat": 44.36659721666667,
            "lon": 20.710005566666666
        },
        {
            "name": "BGD41",
            "lat": 44.45024166666666,
            "lon": 21.113738883333333
        },
        {
            "name": "BGD42",
            "lat": 44.22384443333333,
            "lon": 20.834225
        },
        {
            "name": "BGD46",
            "lat": 45.337741666666666,
            "lon": 19.514072216666666
        },
        {
            "name": "BIDVU",
            "lat": 45.038555566666666,
            "lon": 19.803722216666667
        },
        {
            "name": "D022V",
            "lat": 44.46700833333333,
            "lon": 20.974786116666667
        },
        {
            "name": "D033K",
            "lat": 44.96427778333333,
            "lon": 20.470769433333334
        },
        {
            "name": "D036V",
            "lat": 44.60011943333333,
            "lon": 20.211380566666666
        },
        {
            "name": "D102M",
            "lat": 44.754497216666664,
            "lon": 20.607152783333333
        },
        {
            "name": "D105J",
            "lat": 44.953355566666666,
            "lon": 19.647113883333333
        },
        {
            "name": "D118D",
            "lat": 44.787333333333336,
            "lon": 20.379666666666665
        },
        {
            "name": "D118N",
            "lat": 44.691952783333335,
            "lon": 20.585491666666666
        },
        {
            "name": "D118Y",
            "lat": 44.59413611666667,
            "lon": 20.794341666666668
        },
        {
            "name": "D121Q",
            "lat": 44.84706943333333,
            "lon": 19.744155566666667
        },
        {
            "name": "D129Q",
            "lat": 44.81114443333333,
            "lon": 19.718761116666666
        },
        {
            "name": "D132M",
            "lat": 44.65776111666667,
            "lon": 20.522044433333335
        },
        {
            "name": "D182S",
            "lat": 44.501875,
            "lon": 20.255186116666668
        },
        {
            "name": "D283O",
            "lat": 44.893686116666665,
            "lon": 19.98735556666667
        },
        {
            "name": "D284O",
            "lat": 44.901794433333336,
            "lon": 19.985658333333333
        },
        {
            "name": "D292R",
            "lat": 44.95717221666666,
            "lon": 19.928463883333333
        },
        {
            "name": "D296C",
            "lat": 44.845055566666666,
            "lon": 20.250861116666666
        },
        {
            "name": "D296I",
            "lat": 44.8939,
            "lon": 20.136322216666667
        },
        {
            "name": "D297C",
            "lat": 44.84616666666667,
            "lon": 20.251861116666667
        },
        {
            "name": "D303O",
            "lat": 44.96791666666667,
            "lon": 20.04275
        },
        {
            "name": "D305O",
            "lat": 44.976786116666666,
            "lon": 20.046327783333332
        },
        {
            "name": "DEVDA",
            "lat": 44.95588888333333,
            "lon": 19.996166666666667
        },
        {
            "name": "DODIN",
            "lat": 44.378166666666665,
            "lon": 20.68688888333333
        },
        {
            "name": "DONIV",
            "lat": 44.748888883333336,
            "lon": 21.169444433333332
        },
        {
            "name": "ELGEB",
            "lat": 44.14055556666667,
            "lon": 20.192222216666668
        },
        {
            "name": "ENUPU",
            "lat": 44.61694443333333,
            "lon": 19.362777783333332
        },
        {
            "name": "FF116",
            "lat": 44.895833333333336,
            "lon": 20.135166666666667
        },
        {
            "name": "FF12L",
            "lat": 44.90019443333333,
            "lon": 20.125194433333334
        },
        {
            "name": "FF30",
            "lat": 44.74427778333333,
            "lon": 20.476666666666667
        },
        {
            "name": "GAZON",
            "lat": 44.163333333333334,
            "lon": 20.886666666666667
        },
        {
            "name": "GULBU",
            "lat": 45.1305,
            "lon": 19.588166666666666
        },
        {
            "name": "IANB",
            "lat": 45.043083333333335,
            "lon": 20.073111116666666
        },
        {
            "name": "JANB",
            "lat": 44.742916666666666,
            "lon": 20.475305566666666
        },
        {
            "name": "KNNB",
            "lat": 44.894638883333336,
            "lon": 20.136138883333334
        },
        {
            "name": "KUPIN",
            "lat": 44.684944433333335,
            "lon": 20.087027783333333
        },
        {
            "name": "LABUD",
            "lat": 44.921388883333336,
            "lon": 20.076138883333332
        },
        {
            "name": "LAMBA",
            "lat": 44.92777778333333,
            "lon": 20.057055566666666
        },
        {
            "name": "LAVRO",
            "lat": 44.494138883333335,
            "lon": 20.2685
        },
        {
            "name": "LOGAR",
            "lat": 44.78544443333333,
            "lon": 19.963138883333333
        },
        {
            "name": "MA116",
            "lat": 44.83238888333333,
            "lon": 20.28125
        },
        {
            "name": "MA12L",
            "lat": 44.8325,
            "lon": 20.281277783333334
        },
        {
            "name": "MA30",
            "lat": 44.80594443333333,
            "lon": 20.340805566666667
        },
        {
            "name": "MALUX",
            "lat": 44.926777783333335,
            "lon": 19.661305566666666
        },
        {
            "name": "NESKU",
            "lat": 44.486638883333335,
            "lon": 20.464194433333333
        },
        {
            "name": "OBRNB",
            "lat": 44.64383333333333,
            "lon": 20.138444433333333
        },
        {
            "name": "OSVIX",
            "lat": 44.325555566666665,
            "lon": 21.245555566666667
        },
        {
            "name": "OTKIN",
            "lat": 44.58447221666667,
            "lon": 20.825666666666667
        },
        {
            "name": "PANB",
            "lat": 44.891722216666665,
            "lon": 20.641111116666668
        },
        {
            "name": "PELOV",
            "lat": 44.954166666666666,
            "lon": 20.861111116666667
        },
        {
            "name": "PIGIN",
            "lat": 44.50519443333334,
            "lon": 20.99725
        },
        {
            "name": "PIVEX",
            "lat": 44.477583333333335,
            "lon": 19.964777783333332
        },
        {
            "name": "RIGMU",
            "lat": 45.41,
            "lon": 19.401111116666666
        },
        {
            "name": "RIPAN",
            "lat": 44.630555566666665,
            "lon": 20.471555566666666
        },
        {
            "name": "ROZGI",
            "lat": 44.89263888333333,
            "lon": 20.136833333333332
        },
        {
            "name": "SMI",
            "lat": 45.009472216666666,
            "lon": 19.430777783333333
        },
        {
            "name": "SMI35",
            "lat": 44.74078611666667,
            "lon": 20.164175
        },
        {
            "name": "SOVIN",
            "lat": 45.026916666666665,
            "lon": 20.536472216666667
        },
        {
            "name": "TADAM",
            "lat": 45.247222216666664,
            "lon": 19.546111116666665
        },
        {
            "name": "TIKVU",
            "lat": 45.0315,
            "lon": 20.117055566666668
        },
        {
            "name": "TISAK",
            "lat": 45.42194443333333,
            "lon": 20.227222216666668
        },
        {
            "name": "TPL",
            "lat": 44.1435,
            "lon": 20.744444433333335
        },
        {
            "name": "TPL27",
            "lat": 44.551661116666665,
            "lon": 21.029891666666668
        },
        {
            "name": "TPL36",
            "lat": 44.681105566666666,
            "lon": 21.121361116666666
        },
        {
            "name": "TUPKO",
            "lat": 44.7275,
            "lon": 20.513527783333334
        },
        {
            "name": "TUVAR",
            "lat": 45.126666666666665,
            "lon": 19.0775
        },
        {
            "name": "VAL",
            "lat": 44.32388888333333,
            "lon": 19.87469443333333
        },
        {
            "name": "VAL51",
            "lat": 45.15469443333333,
            "lon": 19.58183611666667
        },
        {
            "name": "VAL65",
            "lat": 45.36791111666667,
            "lon": 19.505252783333333
        },
        {
            "name": "VASER",
            "lat": 44.533555566666664,
            "lon": 20.636861116666665
        },
        {
            "name": "VISOK",
            "lat": 44.69125,
            "lon": 20.592972216666666
        }
    ],
    "rnws": [
        "RNW 12L",
        "RNW 12R",
        "RNW 30L",
        "RNW 30R"
    ],
    "sids": [
        {
            "name": "DONI3N",
            "rnw": "12R",
            "fixes": {
                "BE201": "BE201 AT OR ABOVE 3000 SPEED 230",
                "BE203": "BE203 AT OR BELOW 6000 AT OR ABOVE 5000 SPEED 250",
                "BE133": "BE133 SPEED 250",
                "DONIV": "DONIV AT OR ABOVE 6000 SPEED 250"
            },
            "sub_fixes": [],
            "transitions": []
        },
        {
            "name": "DONI3V",
            "rnw": "30R",
            "fixes": {
                "BE401": "BE401 AT OR BELOW 6000 AT OR ABOVE 4000 SPEED 230 TURN LEFT DIRECT",
                "BE402": "BE402 AT OR BELOW 6000 AT OR ABOVE 5000 SPEED 250",
                "BE404": "BE404 SPEED 250",
                "BE405": "BE405 SPEED 250",
                "DONIV": "DONIV AT OR ABOVE 6000 SPEED 250"
            },
            "sub_fixes": [],
            "transitions": []
        },
        {
            "name": "DONI3W",
            "rnw": "30R",
            "fixes": {
                "BE403": "BE403 AT OR BELOW 6000 AT OR ABOVE 4000 SPEED 250",
                "BE405": "BE405 SPEED 250",
                "DONIV": "DONIV AT OR ABOVE 6000 SPEED 250"
            },
            "sub_fixes": [],
            "transitions": []
        },
        {
            "name": "DONI4G",
            "rnw": "12R",
            "fixes": {
                "TUPKO": "TUPKO AT OR ABOVE 3000",
                "D118Y": "D118Y AT OR BELOW 6000 AT OR ABOVE 4000 TRK 064 UNTIL 56.7 FROM",
                "VAL": "VAL",
                "DONIV": "DONIV AT OR ABOVE 6000"
            },
            "sub_fixes": [],
            "transitions": []
        },
        {
            "name": "DONI4H",
            "rnw": "30R",
            "fixes": {
                "OBRNB": "OBRNB AT OR ABOVE 4000 SPEED 200 TRK 134 UNTIL 26.8 FROM",
                "TPL": "TPL",
                "OTKIN": "OTKIN TRK 064 UNTIL 56.7 FROM",
                "VAL": "VAL",
                "DONIV": "DONIV AT OR ABOVE 6000"
            },
            "sub_fixes": [],
            "transitions": []
        },
        {
            "name": "DONI4J",
            "rnw": "30R",
            "fixes": {
                "D296I": "OVERFLY D296I AT OR ABOVE 3000 TURN RIGHT DIRECT",
                "PANB": "PANB AT OR BELOW 6000 AT OR ABOVE 5000",
                "DONIV": "DONIV AT OR ABOVE 6000"
            },
            "sub_fixes": [],
            "transitions": []
        },
        {
            "name": "PELO3F",
            "rnw": "12R",
            "fixes": {
                "BE201": "BE201 AT OR ABOVE 3000 SPEED 230",
                "BE203": "BE203 AT OR BELOW 6000 AT OR ABOVE 5000 SPEED 250 TURN LEFT DIRECT",
                "PELOV": "PELOV AT OR ABOVE 13000 SPEED 250"
            },
            "sub_fixes": [],
            "transitions": []
        },
        {
            "name": "TADA3G",
            "rnw": "12R",
            "fixes": {
                "BE204": "BE204 AT OR BELOW 6000 AT OR ABOVE 5000 SPEED 230 TURN RIGHT DIRECT",
                "BE208": "BE208 SPEED 250",
                "BE209": "BE209 SPEED 250",
                "GULBU": "GULBU SPEED 250",
                "TADAM": "TADAM AT OR ABOVE 6000 SPEED 250"
            },
            "sub_fixes": [],
            "transitions": []
        },
        {
            "name": "TADA3L",
            "rnw": "12R",
            "fixes": {
                "BE202": "BE202 AT OR ABOVE 4000 SPEED 230",
                "BE206": "BE206 AT OR BELOW 6000 AT OR ABOVE 5000 SPEED 250 TURN RIGHT DIRECT",
                "BE208": "BE208 SPEED 250",
                "BE209": "BE209 SPEED 250",
                "GULBU": "GULBU SPEED 250",
                "TADAM": "TADAM AT OR ABOVE 6000 SPEED 250"
            },
            "sub_fixes": [],
            "transitions": []
        },
        {
            "name": "TADA3Z",
            "rnw": "30R",
            "fixes": {
                "BE401": "BE401 AT OR BELOW 6000 AT OR ABOVE 4000 SPEED 230",
                "TADAM": "TADAM AT OR ABOVE 6000 SPEED 250"
            },
            "sub_fixes": [],
            "transitions": []
        },
        {
            "name": "TADA4Y",
            "rnw": "12R",
            "fixes": {
                "TUPKO": "TUPKO AT OR ABOVE 3000",
                "D118N": "OVERFLY D118N TURN RIGHT DIRECT",
                "LAVRO": "LAVRO AT OR BELOW 6000 AT OR ABOVE 4000",
                "D129Q": "D129Q",
                "TADAM": "TADAM AT OR ABOVE 6000"
            },
            "sub_fixes": [],
            "transitions": []
        },
        {
            "name": "TADA5T",
            "rnw": "30R",
            "fixes": {
                "D296I": "D296I AT OR ABOVE 3000",
                "DEVDA": "DEVDA AT OR BELOW 6000 AT OR ABOVE 4000 TRK 296 UNTIL 34.7 FROM",
                "BGD": "BGD",
                "TADAM": "TADAM AT OR ABOVE 6000"
            },
            "sub_fixes": [],
            "transitions": []
        },
        {
            "name": "TISA3H",
            "rnw": "12R",
            "fixes": {
                "BE201": "BE201 AT OR ABOVE 3000 SPEED 230 TURN LEFT DIRECT",
                "PANB": "PANB AT OR BELOW 6000 AT OR ABOVE 4000 SPEED 250",
                "TISAK": "TISAK AT OR ABOVE 6000 SPEED 250"
            },
            "sub_fixes": [],
            "transitions": []
        },
        {
            "name": "TISA3L",
            "rnw": "30R",
            "fixes": {
                "BE401": "BE401 AT OR BELOW 6000 AT OR ABOVE 4000 SPEED 230",
                "TISAK": "TISAK AT OR ABOVE 6000 SPEED 250"
            },
            "sub_fixes": [],
            "transitions": []
        },
        {
            "name": "TISA3S",
            "rnw": "30R",
            "fixes": {
                "BE407": "BE407 AT OR BELOW 6000 AT OR ABOVE 4000 SPEED 230",
                "TISAK": "TISAK AT OR ABOVE 6000 SPEED 250"
            },
            "sub_fixes": [],
            "transitions": []
        },
        {
            "name": "TISA3Z",
            "rnw": "12R",
            "fixes": {
                "BGD": "BGD",
                "TISAK": "TISAK AT OR ABOVE 6000"
            },
            "sub_fixes": [],
            "transitions": []
        },
        {
            "name": "TISA7D",
            "rnw": "30R",
            "fixes": {
                "D296I": "D296I AT OR ABOVE 3000",
                "LABUD": "OVERFLY LABUD",
                "IANB": "IANB AT OR BELOW 6000 AT OR ABOVE 4000",
                "TISAK": "TISAK AT OR ABOVE 6000"
            },
            "sub_fixes": [],
            "transitions": []
        },
        {
            "name": "TISA7E",
            "rnw": "12R",
            "fixes": {
                "TUPKO": "TUPKO AT OR ABOVE 3000",
                "D118N": "OVERFLY D118N TURN LEFT DIRECT",
                "PANB": "PANB AT OR BELOW 6000 AT OR ABOVE 4000",
                "TISAK": "TISAK AT OR ABOVE 6000"
            },
            "sub_fixes": [],
            "transitions": []
        },
        {
            "name": "TPL3D",
            "rnw": "12R",
            "fixes": {
                "BE202": "BE202 AT OR ABOVE 4000 SPEED 230",
                "BE205": "BE205 AT OR BELOW 6000 AT OR ABOVE 5000 SPEED 250",
                "TPL": "TPL AT OR ABOVE 6000 SPEED 250"
            },
            "sub_fixes": [],
            "transitions": []
        },
        {
            "name": "TPL3G",
            "rnw": "12R",
            "fixes": {
                "BE204": "BE204 AT OR BELOW 6000 AT OR ABOVE 5000 SPEED 230",
                "TPL": "TPL AT OR ABOVE 6000 SPEED 250"
            },
            "sub_fixes": [],
            "transitions": []
        },
        {
            "name": "TPL3R",
            "rnw": "30R",
            "fixes": {
                "BE401": "BE401 AT OR BELOW 6000 AT OR ABOVE 4000 SPEED 230 TURN LEFT DIRECT",
                "BE402": "BE402 AT OR BELOW 6000 AT OR ABOVE 5000 SPEED 250",
                "BE404": "BE404 SPEED 250",
                "TPL": "TPL AT OR ABOVE 6000 SPEED 250"
            },
            "sub_fixes": [],
            "transitions": []
        },
        {
            "name": "TPL3W",
            "rnw": "30R",
            "fixes": {
                "BE403": "BE403 AT OR BELOW 6000 AT OR ABOVE 4000 SPEED 250",
                "BE406": "BE406 SPEED 250",
                "TPL": "TPL AT OR ABOVE 6000 SPEED 250"
            },
            "sub_fixes": [],
            "transitions": []
        },
        {
            "name": "TPL5J",
            "rnw": "30R",
            "fixes": {
                "OBRNB": "OBRNB AT OR ABOVE 4000 SPEED 200 TRK 134 UNTIL 26.8 FROM",
                "TPL": "TPL AT OR ABOVE 6000"
            },
            "sub_fixes": [],
            "transitions": []
        },
        {
            "name": "TPL6C",
            "rnw": "12R",
            "fixes": {
                "TUPKO": "TUPKO AT OR ABOVE 3000",
                "D118N": "D118N",
                "DODIN": "DODIN AT OR BELOW 6000 AT OR ABOVE 5000",
                "TPL": "TPL AT OR ABOVE 6000"
            },
            "sub_fixes": [],
            "transitions": []
        },
        {
            "name": "TUVA3C",
            "rnw": "12R",
            "fixes": {
                "BE204": "BE204 AT OR BELOW 6000 AT OR ABOVE 5000 SPEED 230 TURN RIGHT DIRECT",
                "BE208": "BE208 SPEED 250",
                "BE209": "BE209 SPEED 250",
                "TUVAR": "TUVAR AT OR ABOVE 6000 SPEED 250"
            },
            "sub_fixes": [],
            "transitions": []
        },
        {
            "name": "TUVA3L",
            "rnw": "12R",
            "fixes": {
                "BE202": "BE202 AT OR ABOVE 4000 SPEED 230",
                "BE206": "BE206 AT OR BELOW 6000 AT OR ABOVE 5000 SPEED 250 TURN RIGHT DIRECT",
                "BE208": "BE208 SPEED 250",
                "BE209": "BE209 SPEED 250",
                "TUVAR": "TUVAR AT OR ABOVE 6000 SPEED 250"
            },
            "sub_fixes": [],
            "transitions": []
        },
        {
            "name": "TUVA3N",
            "rnw": "12R",
            "fixes": {
                "TUPKO": "TUPKO AT OR ABOVE 3000",
                "D118N": "D118N TURN RIGHT DIRECT",
                "LAVRO": "LAVRO AT OR BELOW 6000 AT OR ABOVE 4000",
                "SMI": "SMI",
                "TUVAR": "TUVAR AT OR ABOVE 6000"
            },
            "sub_fixes": [],
            "transitions": []
        },
        {
            "name": "TUVA3V",
            "rnw": "30R",
            "fixes": {
                "BE401": "BE401 AT OR BELOW 6000 AT OR ABOVE 4000 SPEED 230",
                "TUVAR": "TUVAR AT OR ABOVE 6000 SPEED 250"
            },
            "sub_fixes": [],
            "transitions": []
        },
        {
            "name": "TUVA3Z",
            "rnw": "30R",
            "fixes": {
                "D296I": "D296I AT OR ABOVE 3000",
                "DEVDA": "DEVDA AT OR BELOW 6000 AT OR ABOVE 4000",
                "SMI": "SMI",
                "TUVAR": "TUVAR AT OR ABOVE 6000"
            },
            "sub_fixes": [],
            "transitions": []
        },
        {
            "name": "VAL1G",
            "rnw": "30R",
            "fixes": {
                "KUPIN": "KUPIN AT OR ABOVE 4000 SPEED 200",
                "PIVEX": "PIVEX AT OR BELOW 6000 AT OR ABOVE 5000",
                "VAL": "VAL AT OR ABOVE 8000"
            },
            "sub_fixes": [],
            "transitions": []
        },
        {
            "name": "VAL3D",
            "rnw": "12R",
            "fixes": {
                "BE202": "BE202 AT OR ABOVE 4000 SPEED 230",
                "BE206": "BE206 AT OR BELOW 6000 AT OR ABOVE 5000 SPEED 250",
                "VAL": "VAL AT OR ABOVE 8000 SPEED 250"
            },
            "sub_fixes": [],
            "transitions": []
        },
        {
            "name": "VAL3F",
            "rnw": "12R",
            "fixes": {
                "BE204": "BE204 AT OR BELOW 6000 AT OR ABOVE 5000 SPEED 230",
                "BE207": "BE207 SPEED 250",
                "VAL": "VAL AT OR ABOVE 8000 SPEED 250"
            },
            "sub_fixes": [],
            "transitions": []
        },
        {
            "name": "VAL3J",
            "rnw": "30R",
            "fixes": {
                "BE403": "BE403 AT OR BELOW 6000 AT OR ABOVE 4000 SPEED 250",
                "VAL": "VAL AT OR ABOVE 8000 SPEED 250"
            },
            "sub_fixes": [],
            "transitions": []
        },
        {
            "name": "VAL3Z",
            "rnw": "30R",
            "fixes": {
                "BE401": "BE401 AT OR BELOW 6000 AT OR ABOVE 4000 SPEED 230 TURN LEFT DIRECT",
                "BE402": "BE402 AT OR BELOW 6000 AT OR ABOVE 5000 SPEED 250",
                "BE404": "BE404 SPEED 250",
                "VAL": "VAL AT OR ABOVE 8000 SPEED 250"
            },
            "sub_fixes": [],
            "transitions": []
        },
        {
            "name": "VAL4Y",
            "rnw": "12R",
            "fixes": {
                "D036V": "D036V AT OR ABOVE 4000 SPEED 230 TRK 216 UNTIL 10.0 FROM",
                "VAL": "VAL AT OR ABOVE 8000"
            },
            "sub_fixes": [],
            "transitions": []
        }
    ],
    "stars": [
        {
            "name": "DONI2A",
            "runway": "RNW 12R RNW 12L",
            "fixes": {
                "DONIV": "DONIV",
                "TPL36": "TPL36",
                "NESKU": "NESKU",
                "OBRNB": "OBRNB",
                "LOGAR": "LOGAR"
            }
        },
        {
            "name": "DONI2B",
            "runway": "RNW 12R RNW 12L",
            "fixes": {
                "DONIV": "DONIV",
                "PANB": "PANB",
                "TIKVU": "TIKVU"
            }
        },
        {
            "name": "DONI2D",
            "runway": "RNW 12R RNW 12L",
            "fixes": {
                "DONIV": "DONIV",
                "PANB": "PANB",
                "IANB": "IANB",
                "BE113": "BE113",
                "BE112": "BE112 SPEED 230",
                "BE101": "BE101 SPEED 210",
                "DEVDA": "DEVDA"
            }
        },
        {
            "name": "DONI2R",
            "runway": "RNW 12R RNW 12L",
            "fixes": {
                "DONIV": "DONIV",
                "BE133": "BE133",
                "BE132": "BE132",
                "BE131": "BE131",
                "BE130": "BE130",
                "BE104": "BE104",
                "BE103": "BE103",
                "BE102": "BE102 SPEED 230",
                "BE101": "BE101 SPEED 210",
                "DEVDA": "DEVDA"
            }
        },
        {
            "name": "DONI2S",
            "runway": "RNW 30R RNW 30L",
            "fixes": {
                "DONIV": "DONIV AT OR BELOW 15000 AT OR ABOVE 9000",
                "BE318": "BE318",
                "BE317": "BE317",
                "BE306": "BE306",
                "BE305": "BE305 SPEED 230",
                "BE304": "BE304 SPEED 230",
                "BE303": "BE303",
                "BE302": "BE302 SPEED 230",
                "BE301": "BE301 SPEED 210",
                "VISOK": "VISOK"
            }
        },
        {
            "name": "DONI4C",
            "runway": "RNW 30R RNW 30L",
            "fixes": {
                "DONIV": "DONIV",
                "TPL27": "OVERFLY TPL27 TURN RIGHT DIRECT",
                "OTKIN": "OTKIN",
                "VISOK": "VISOK"
            }
        },
        {
            "name": "ELGE2B",
            "runway": "RNW 30R RNW 30L",
            "fixes": {
                "ELGEB": "ELGEB",
                "BE309": "BE309",
                "BE308": "BE308 SPEED 230",
                "BE307": "BE307",
                "BE304": "BE304",
                "BE303": "BE303",
                "BE302": "BE302 SPEED 230",
                "BE301": "BE301 SPEED 210",
                "VISOK": "VISOK"
            }
        },
        {
            "name": "ELGE2K",
            "runway": "RNW 12R RNW 12L",
            "fixes": {
                "ELGEB": "ELGEB",
                "OBRNB": "OBRNB",
                "LOGAR": "LOGAR"
            }
        },
        {
            "name": "ELGE2L",
            "runway": "RNW 30R RNW 30L",
            "fixes": {
                "ELGEB": "ELGEB",
                "D182S": "D182S",
                "RIPAN": "RIPAN"
            }
        },
        {
            "name": "ELGE3A",
            "runway": "RNW 12R RNW 12L",
            "fixes": {
                "ELGEB": "ELGEB",
                "BE134": "BE134",
                "BE131": "BE131",
                "BE130": "BE130",
                "BE104": "BE104",
                "BE103": "BE103",
                "BE102": "BE102 SPEED 230",
                "BE101": "BE101 SPEED 210",
                "DEVDA": "DEVDA"
            }
        },
        {
            "name": "ENUP2Q",
            "runway": "RNW 12R RNW 12L",
            "fixes": {
                "ENUPU": "ENUPU",
                "BE134": "BE134",
                "BE131": "BE131",
                "BE130": "BE130",
                "BE104": "BE104",
                "BE103": "BE103",
                "BE102": "BE102 SPEED 230",
                "BE101": "BE101 SPEED 210",
                "DEVDA": "DEVDA"
            }
        },
        {
            "name": "ENUP2S",
            "runway": "RNW 30R RNW 30L",
            "fixes": {
                "ENUPU": "ENUPU",
                "BE310": "BE310",
                "BE308": "BE308",
                "BE307": "BE307",
                "BE304": "BE304",
                "BE303": "BE303",
                "BE302": "BE302 SPEED 230",
                "BE301": "BE301 SPEED 210",
                "VISOK": "VISOK"
            }
        },
        {
            "name": "ENUP3A",
            "runway": "RNW 12R RNW 12L",
            "fixes": {
                "ENUPU": "ENUPU",
                "D121Q": "D121Q",
                "D292R": "OVERFLY D292R",
                "DEVDA": "DEVDA"
            }
        },
        {
            "name": "ENUP3C",
            "runway": "RNW 30R RNW 30L",
            "fixes": {
                "ENUPU": "ENUPU",
                "OBRNB": "OBRNB",
                "RIPAN": "RIPAN"
            }
        },
        {
            "name": "GAZO2A",
            "runway": "RNW 12R RNW 12L",
            "fixes": {
                "GAZON": "GAZON",
                "BGD32": "BGD32",
                "NESKU": "NESKU",
                "OBRNB": "OBRNB",
                "LOGAR": "LOGAR"
            }
        },
        {
            "name": "GAZO2B",
            "runway": "RNW 30R RNW 30L",
            "fixes": {
                "GAZON": "GAZON AT OR BELOW 17000",
                "BGD42": "BGD42",
                "D022V": "OVERFLY D022V",
                "OTKIN": "OTKIN",
                "VISOK": "VISOK"
            }
        },
        {
            "name": "GAZO2C",
            "runway": "RNW 12R RNW 12L",
            "fixes": {
                "GAZON": "GAZON",
                "BE132": "BE132",
                "BE131": "BE131",
                "BE130": "BE130",
                "BE104": "BE104",
                "BE103": "BE103",
                "BE102": "BE102 SPEED 230",
                "BE101": "BE101 SPEED 210",
                "DEVDA": "DEVDA"
            }
        },
        {
            "name": "GAZO2D",
            "runway": "RNW 30R RNW 30L",
            "fixes": {
                "GAZON": "GAZON AT OR BELOW 17000 AT OR ABOVE 9000",
                "BE318": "BE318",
                "BE317": "BE317",
                "BE306": "BE306",
                "BE305": "BE305 SPEED 230",
                "BE304": "BE304 SPEED 230",
                "BE303": "BE303",
                "BE302": "BE302 SPEED 230",
                "BE301": "BE301 SPEED 210",
                "VISOK": "VISOK"
            }
        },
        {
            "name": "OSVI2A",
            "runway": "RNW 12R RNW 12L",
            "fixes": {
                "OSVIX": "OSVIX",
                "BE132": "BE132",
                "BE131": "BE131",
                "BE130": "BE130",
                "BE104": "BE104",
                "BE103": "BE103",
                "BE102": "BE102 SPEED 230",
                "BE101": "BE101 SPEED 210",
                "DEVDA": "DEVDA"
            }
        },
        {
            "name": "OSVI2B",
            "runway": "RNW 30R RNW 30L",
            "fixes": {
                "OSVIX": "OSVIX AT OR BELOW 17000 AT OR ABOVE 9000",
                "BE318": "BE318",
                "BE317": "BE317",
                "BE306": "BE306",
                "BE305": "BE305 SPEED 230",
                "BE304": "BE304 SPEED 230",
                "BE303": "BE303",
                "BE302": "BE302 SPEED 230",
                "BE301": "BE301 SPEED 210",
                "VISOK": "VISOK"
            }
        },
        {
            "name": "OSVI2C",
            "runway": "RNW 12R RNW 12L",
            "fixes": {
                "OSVIX": "OSVIX",
                "PANB": "PANB",
                "IANB": "IANB",
                "BE113": "BE113",
                "BE112": "BE112 SPEED 230",
                "BE101": "BE101 SPEED 210",
                "DEVDA": "DEVDA"
            }
        },
        {
            "name": "OSVI2L",
            "runway": "RNW 30R RNW 30L",
            "fixes": {
                "OSVIX": "OSVIX AT OR BELOW 17000",
                "BGD41": "BGD41",
                "PIGIN": "PIGIN",
                "OTKIN": "OTKIN",
                "VISOK": "VISOK"
            }
        },
        {
            "name": "OSVI3K",
            "runway": "RNW 12R RNW 12L",
            "fixes": {
                "OSVIX": "OSVIX",
                "BGD27": "BGD27",
                "NESKU": "NESKU",
                "OBRNB": "OBRNB",
                "LOGAR": "LOGAR"
            }
        },
        {
            "name": "RIGM2A",
            "runway": "RNW 12R RNW 12L",
            "fixes": {
                "RIGMU": "RIGMU AT OR BELOW 17000 AT OR ABOVE 7000",
                "BE116": "BE116",
                "BE115": "BE115",
                "BE114": "BE114 SPEED 230",
                "IANB": "IANB SPEED 230",
                "BE113": "BE113",
                "BE112": "BE112 SPEED 230",
                "BE101": "BE101 SPEED 210",
                "DEVDA": "DEVDA"
            }
        },
        {
            "name": "RIGM2B",
            "runway": "RNW 12R RNW 12L",
            "fixes": {
                "RIGMU": "RIGMU AT OR BELOW 17000 AT OR ABOVE 7000",
                "TADAM": "TADAM",
                "GULBU": "GULBU",
                "BE108": "BE108",
                "BE107": "BE107",
                "BE106": "BE106 SPEED 230",
                "BE103": "BE103 SPEED 230",
                "BE102": "BE102 SPEED 230",
                "BE101": "BE101 SPEED 210",
                "DEVDA": "DEVDA"
            }
        },
        {
            "name": "RIGM2C",
            "runway": "RNW 30R RNW 30L",
            "fixes": {
                "RIGMU": "RIGMU",
                "PANB": "PANB",
                "BE314": "BE314",
                "BE313": "BE313",
                "BE312": "BE312 SPEED 230",
                "BE301": "BE301 SPEED 210",
                "VISOK": "VISOK"
            }
        },
        {
            "name": "RIGM2D",
            "runway": "RNW 30R RNW 30L",
            "fixes": {
                "RIGMU": "RIGMU",
                "TADAM": "TADAM",
                "GULBU": "GULBU",
                "BE311": "BE311",
                "BE310": "BE310",
                "BE308": "BE308",
                "BE307": "BE307",
                "BE304": "BE304",
                "BE303": "BE303",
                "BE302": "BE302 SPEED 230",
                "BE301": "BE301 SPEED 210",
                "VISOK": "VISOK"
            }
        },
        {
            "name": "RIGM2K",
            "runway": "RNW 12R RNW 12L",
            "fixes": {
                "RIGMU": "RIGMU AT OR BELOW 17000",
                "BGD46": "BGD46",
                "TADAM": "TADAM",
                "VAL51": "VAL51",
                "GULBU": "GULBU",
                "BIDVU": "BIDVU",
                "DEVDA": "DEVDA"
            }
        },
        {
            "name": "RIGM2L",
            "runway": "RNW 30R RNW 30L",
            "fixes": {
                "RIGMU": "RIGMU",
                "VAL65": "VAL65",
                "D033K": "D033K",
                "PANB": "PANB"
            }
        },
        {
            "name": "RIGM2M",
            "runway": "RNW 30R RNW 30L",
            "fixes": {
                "RIGMU": "RIGMU",
                "VAL65": "VAL65",
                "TADAM": "TADAM",
                "D105J": "D105J",
                "MALUX": "MALUX",
                "SMI35": "SMI35",
                "RIPAN": "RIPAN"
            }
        },
        {
            "name": "TISA2C",
            "runway": "RNW 12R RNW 12L",
            "fixes": {
                "TISAK": "TISAK",
                "BE114": "BE114",
                "IANB": "IANB SPEED 230",
                "BE113": "BE113",
                "BE112": "BE112 SPEED 230",
                "BE101": "BE101 SPEED 210",
                "DEVDA": "DEVDA"
            }
        },
        {
            "name": "TISA2F",
            "runway": "RNW 30R RNW 30L",
            "fixes": {
                "TISAK": "TISAK",
                "PANB": "PANB",
                "BE314": "BE314",
                "BE313": "BE313",
                "BE312": "BE312 SPEED 230",
                "BE301": "BE301 SPEED 210",
                "VISOK": "VISOK"
            }
        },
        {
            "name": "TISA7A",
            "runway": "RNW 12R RNW 12L",
            "fixes": {
                "TISAK": "TISAK",
                "IANB": "IANB"
            }
        },
        {
            "name": "TISA8B",
            "runway": "RNW 30R RNW 30L",
            "fixes": {
                "TISAK": "TISAK",
                "SOVIN": "SOVIN",
                "PANB": "PANB"
            }
        },
        {
            "name": "TPL2F",
            "runway": "RNW 30R RNW 30L",
            "fixes": {
                "TPL": "TPL",
                "VASER": "VASER",
                "VISOK": "VISOK"
            }
        },
        {
            "name": "TPL7A",
            "runway": "RNW 12R RNW 12L",
            "fixes": {
                "TPL": "TPL",
                "NESKU": "NESKU",
                "OBRNB": "OBRNB",
                "LOGAR": "LOGAR"
            }
        }
    ],
    "approaches": [
        {
            "name": "VORD12L",
            "fixes": {
                "LABUD": "LABUD AT OR ABOVE 3000",
                "FF12L": "FF12L 3000",
                "MA12L": "MA12L 544 RNW 12L",
                "BG04B": "OVERFLY BG04B TURN RIGHT DIRECT",
                "OBRNB": "OBRNB 3000 HOLD AT OBRNB RIGHT TURN INBOUNDCOURSE 030 ALT 3000 SPEED 220 LEGTIME 1 FAF FF12L MAP MA12L"
            },
            "transitions": [
                {
                    "name": "DEVDA",
                    "fixes": {
                        "DEVDA": "DEVDA AT OR ABOVE 4000"
                    }
                },
                {
                    "name": "IA",
                    "fixes": {
                        "IANB": "IANB",
                        "D305O": "OVERFLY D305O AT OR ABOVE 3000 SPEED 180"
                    }
                },
                {
                    "name": "LOGAR",
                    "fixes": {
                        "LOGAR": "LOGAR",
                        "D283O": "OVERFLY D283O AT OR ABOVE 3000 SPEED 180"
                    }
                },
                {
                    "name": "TIKVU",
                    "fixes": {
                        "TIKVU": "TIKVU",
                        "D305O": "OVERFLY D305O AT OR ABOVE 3000 SPEED 180"
                    }
                }
            ]
        },
        {
            "name": "VORD30R",
            "fixes": {
                "TUPKO": "TUPKO AT OR ABOVE 3100",
                "FF30": "FF30 2840",
                "32VOR": "32VOR AT OR ABOVE 1200",
                "MA30": "MA30 650 RNW 30R",
                "D297C": "OVERFLY D297C TURN LEFT DIRECT",
                "OBRNB": "OBRNB 3000 HOLD AT OBRNB RIGHT TURN INBOUNDCOURSE 030 ALT 3000 SPEED 220 LEGTIME 1 FAF FF30 MAP MA30"
            },
            "transitions": [
                {
                    "name": "PA",
                    "fixes": {
                        "PANB": "PANB",
                        "D102M": "OVERFLY D102M AT OR ABOVE 3100"
                    }
                },
                {
                    "name": "RIPAN",
                    "fixes": {
                        "RIPAN": "RIPAN",
                        "D132M": "OVERFLY D132M AT OR ABOVE 3100"
                    }
                },
                {
                    "name": "VISOK",
                    "fixes": {
                        "VISOK": "VISOK AT OR ABOVE 4000"
                    }
                }
            ]
        },
        {
            "name": "ILS12L",
            "fixes": {
                "LABUD": "LABUD AT OR ABOVE 3000",
                "KNNB": "KNNB 2850 RNW 12L",
                "D118D": "OVERFLY D118D TURN RIGHT DIRECT",
                "OBRNB": "OBRNB 3000 HOLD AT OBRNB RIGHT TURN INBOUNDCOURSE 030 ALT 3000 SPEED 220 LEGTIME 1 FAF KNNB MAP RNW 12L"
            },
            "transitions": [
                {
                    "name": "DEVDA",
                    "fixes": {
                        "DEVDA": "DEVDA AT OR ABOVE 4000"
                    }
                },
                {
                    "name": "IA",
                    "fixes": {
                        "IANB": "IANB",
                        "D305O": "OVERFLY D305O AT OR ABOVE 3000 SPEED 180"
                    }
                },
                {
                    "name": "LOGAR",
                    "fixes": {
                        "LOGAR": "LOGAR",
                        "D283O": "OVERFLY D283O AT OR ABOVE 3000 SPEED 180"
                    }
                },
                {
                    "name": "TIKVU",
                    "fixes": {
                        "TIKVU": "TIKVU",
                        "D305O": "OVERFLY D305O AT OR ABOVE 3000 SPEED 180"
                    }
                }
            ]
        },
        {
            "name": "ILS12R",
            "fixes": {
                "LAMBA": "LAMBA AT OR ABOVE 3000",
                "ROZGI": "ROZGI 3000 RNW 12R",
                "D118D": "OVERFLY D118D TURN RIGHT DIRECT",
                "OBRNB": "OBRNB 3000 HOLD AT OBRNB RIGHT TURN INBOUNDCOURSE 030 ALT 3000 SPEED 220 LEGTIME 1 FAF ROZGI MAP RNW 12R"
            },
            "transitions": [
                {
                    "name": "DEVDA",
                    "fixes": {
                        "DEVDA": "DEVDA AT OR ABOVE 4000"
                    }
                },
                {
                    "name": "IA",
                    "fixes": {
                        "IANB": "IANB",
                        "D303O": "OVERFLY D303O AT OR ABOVE 3000"
                    }
                },
                {
                    "name": "LOGAR",
                    "fixes": {
                        "LOGAR": "LOGAR",
                        "D284O": "OVERFLY D284O AT OR ABOVE 3000"
                    }
                },
                {
                    "name": "TIKVU",
                    "fixes": {
                        "TIKVU": "TIKVU",
                        "D303O": "OVERFLY D303O AT OR ABOVE 3000"
                    }
                }
            ]
        },
        {
            "name": "ILS30R",
            "fixes": {
                "TUPKO": "TUPKO AT OR ABOVE 3100",
                "JANB": "JANB 2840 RNW 30R",
                "D296C": "OVERFLY D296C TURN LEFT DIRECT",
                "OBRNB": "OBRNB 3000 HOLD AT OBRNB RIGHT TURN INBOUNDCOURSE 030 ALT 3000 SPEED 220 LEGTIME 1 FAF JANB MAP RNW 30R"
            },
            "transitions": [
                {
                    "name": "PA",
                    "fixes": {
                        "PANB": "PANB AT OR ABOVE 3100 TRK 185 UNTIL 8.5 FROM PANB"
                    }
                },
                {
                    "name": "RIPAN",
                    "fixes": {
                        "RIPAN": "RIPAN AT OR ABOVE 3100 TRK 049 UNTIL 2.6 FROM RIPAN"
                    }
                },
                {
                    "name": "VISOK",
                    "fixes": {
                        "VISOK": "VISOK AT OR ABOVE 4000"
                    }
                }
            ]
        },
        {
            "name": "RNAV12L",
            "fixes": {
                "DEVDA": "DEVDA AT OR ABOVE 4000 SPEED 180",
                "BE1LF": "BE1LF 3000 RNW 12L",
                "BE161": "BE161 SPEED 210 TURN RIGHT DIRECT",
                "OBRNB": "OBRNB 3000 SPEED 220 HOLD AT OBRNB RIGHT TURN INBOUNDCOURSE 030 ALT 3000 SPEED 220 LEGTIME 1 FAF BE1LF MAP RNW 12L"
            },
            "transitions": []
        },
        {
            "name": "RNAV12R",
            "fixes": {
                "LAMBA": "LAMBA AT OR ABOVE 3000",
                "ROZGI": "ROZGI 3000 RNW 12R",
                "BE180": "OVERFLY BE180 SPEED 210 TURN RIGHT DIRECT",
                "OBRNB": "OBRNB 3000 SPEED 210 HOLD AT OBRNB RIGHT TURN INBOUNDCOURSE 030 ALT 3000 SPEED 220 LEGTIME 1 FAF ROZGI MAP RNW 12R"
            },
            "transitions": [
                {
                    "name": "DEVDA",
                    "fixes": {
                        "DEVDA": "DEVDA AT OR ABOVE 4000"
                    }
                }
            ]
        },
        {
            "name": "RNAV30L",
            "fixes": {
                "BE320": "BE320 AT OR ABOVE 3200",
                "BE3LF": "BE3LF 3000 RNW 30L",
                "BE190": "OVERFLY BE190 SPEED 210 TURN LEFT DIRECT",
                "OBRNB": "OBRNB 3000 SPEED 210 HOLD AT OBRNB RIGHT TURN INBOUNDCOURSE 030 ALT 3000 SPEED 220 LEGTIME 1 FAF BE3LF MAP RNW 30L"
            },
            "transitions": [
                {
                    "name": "VISOK",
                    "fixes": {
                        "VISOK": "VISOK AT OR ABOVE 4000"
                    }
                }
            ]
        },
        {
            "name": "RNAV30R",
            "fixes": {
                "VISOK": "VISOK AT OR ABOVE 4000 SPEED 180",
                "BE3RF": "BE3RF 3100 RNW 30R",
                "BE150": "BE150 SPEED 210 TURN LEFT DIRECT",
                "OBRNB": "OBRNB 3000 SPEED 220 HOLD AT OBRNB RIGHT TURN INBOUNDCOURSE 030 ALT 3000 SPEED 220 LEGTIME 1 FAF BE3RF MAP RNW 30R"
            },
            "transitions": []
        },
        {
            "name": "VOR12LA",
            "fixes": {
                "LABUD": "LABUD AT OR ABOVE 3000",
                "FF116": "FF116 3000",
                "MA116": "MA116 672 RNW 12L",
                "BG04A": "OVERFLY BG04A TURN RIGHT DIRECT",
                "OBRNB": "OBRNB 3000 HOLD AT OBRNB RIGHT TURN INBOUNDCOURSE 030 ALT 3000 SPEED 220 LEGTIME 1 FAF FF116 MAP MA116"
            },
            "transitions": [
                {
                    "name": "DEVDA",
                    "fixes": {
                        "DEVDA": "DEVDA AT OR ABOVE 4000"
                    }
                },
                {
                    "name": "IA",
                    "fixes": {
                        "IANB": "IANB",
                        "D305O": "OVERFLY D305O AT OR ABOVE 3000 SPEED 180"
                    }
                },
                {
                    "name": "LOGAR",
                    "fixes": {
                        "LOGAR": "LOGAR",
                        "D283O": "OVERFLY D283O AT OR ABOVE 3000 SPEED 180"
                    }
                },
                {
                    "name": "TIKVU",
                    "fixes": {
                        "TIKVU": "TIKVU",
                        "D305O": "OVERFLY D305O AT OR ABOVE 3000 SPEED 180"
                    }
                }
            ]
        },
        {
            "name": "VOR12LB",
            "fixes": {
                "TUPKO": "TUPKO AT OR ABOVE 3100",
                "FF30": "FF30 2840",
                "32VOR": "32VOR AT OR ABOVE 1200",
                "MA30": "MA30 648 RNW 12L",
                "D297C": "OVERFLY D297C TURN LEFT DIRECT",
                "OBRNB": "OBRNB 3000 HOLD AT OBRNB RIGHT TURN INBOUNDCOURSE 030 ALT 3000 SPEED 220 LEGTIME 1 FAF FF30 MAP MA30"
            },
            "transitions": [
                {
                    "name": "PA",
                    "fixes": {
                        "PANB": "PANB",
                        "D102M": "OVERFLY D102M AT OR ABOVE 3100"
                    }
                },
                {
                    "name": "RIPAN",
                    "fixes": {
                        "RIPAN": "RIPAN",
                        "D132M": "OVERFLY D132M AT OR ABOVE 3100"
                    }
                },
                {
                    "name": "VISOK",
                    "fixes": {
                        "VISOK": "VISOK AT OR ABOVE 4000"
                    }
                }
            ]
        },
        {
            "name": "VOR12RA",
            "fixes": {
                "LABUD": "LABUD AT OR ABOVE 3000",
                "FF116": "FF116 3000",
                "MA116": "MA116 672 RNW 12R",
                "BG04A": "OVERFLY BG04A TURN RIGHT DIRECT",
                "OBRNB": "OBRNB 3000 HOLD AT OBRNB RIGHT TURN INBOUNDCOURSE 030 ALT 3000 SPEED 220 LEGTIME 1 FAF FF116 MAP MA116"
            },
            "transitions": [
                {
                    "name": "DEVDA",
                    "fixes": {
                        "DEVDA": "DEVDA AT OR ABOVE 4000"
                    }
                },
                {
                    "name": "IA",
                    "fixes": {
                        "IANB": "IANB",
                        "D305O": "OVERFLY D305O AT OR ABOVE 3000 SPEED 180"
                    }
                },
                {
                    "name": "LOGAR",
                    "fixes": {
                        "LOGAR": "LOGAR",
                        "D283O": "OVERFLY D283O AT OR ABOVE 3000 SPEED 180"
                    }
                },
                {
                    "name": "TIKVU",
                    "fixes": {
                        "TIKVU": "TIKVU",
                        "D305O": "OVERFLY D305O AT OR ABOVE 3000 SPEED 180"
                    }
                }
            ]
        },
        {
            "name": "VOR12RB",
            "fixes": {
                "TUPKO": "TUPKO AT OR ABOVE 3100",
                "FF30": "FF30 2840",
                "32VOR": "32VOR AT OR ABOVE 1200",
                "MA30": "MA30 648 RNW 12R",
                "D297C": "OVERFLY D297C TURN LEFT DIRECT",
                "OBRNB": "OBRNB 3000 HOLD AT OBRNB RIGHT TURN INBOUNDCOURSE 030 ALT 3000 SPEED 220 LEGTIME 1 FAF FF30 MAP MA30"
            },
            "transitions": [
                {
                    "name": "PA",
                    "fixes": {
                        "PANB": "PANB",
                        "D102M": "OVERFLY D102M AT OR ABOVE 3100"
                    }
                },
                {
                    "name": "RIPAN",
                    "fixes": {
                        "RIPAN": "RIPAN",
                        "D132M": "OVERFLY D132M AT OR ABOVE 3100"
                    }
                },
                {
                    "name": "VISOK",
                    "fixes": {
                        "VISOK": "VISOK AT OR ABOVE 4000"
                    }
                }
            ]
        },
        {
            "name": "VOR30LA",
            "fixes": {
                "LABUD": "LABUD AT OR ABOVE 3000",
                "FF116": "FF116 3000",
                "MA116": "MA116 672 RNW 30L",
                "BG04A": "OVERFLY BG04A TURN RIGHT DIRECT",
                "OBRNB": "OBRNB 3000 HOLD AT OBRNB RIGHT TURN INBOUNDCOURSE 030 ALT 3000 SPEED 220 LEGTIME 1 FAF FF116 MAP MA116"
            },
            "transitions": [
                {
                    "name": "DEVDA",
                    "fixes": {
                        "DEVDA": "DEVDA AT OR ABOVE 4000"
                    }
                },
                {
                    "name": "IA",
                    "fixes": {
                        "IANB": "IANB",
                        "D305O": "OVERFLY D305O AT OR ABOVE 3000 SPEED 180"
                    }
                },
                {
                    "name": "LOGAR",
                    "fixes": {
                        "LOGAR": "LOGAR",
                        "D283O": "OVERFLY D283O AT OR ABOVE 3000 SPEED 180"
                    }
                },
                {
                    "name": "TIKVU",
                    "fixes": {
                        "TIKVU": "TIKVU",
                        "D305O": "OVERFLY D305O AT OR ABOVE 3000 SPEED 180"
                    }
                }
            ]
        },
        {
            "name": "VOR30LB",
            "fixes": {
                "TUPKO": "TUPKO AT OR ABOVE 3100",
                "FF30": "FF30 2840",
                "32VOR": "32VOR AT OR ABOVE 1200",
                "MA30": "MA30 648 RNW 30L",
                "D297C": "OVERFLY D297C TURN LEFT DIRECT",
                "OBRNB": "OBRNB 3000 HOLD AT OBRNB RIGHT TURN INBOUNDCOURSE 030 ALT 3000 SPEED 220 LEGTIME 1 FAF FF30 MAP MA30"
            },
            "transitions": [
                {
                    "name": "PA",
                    "fixes": {
                        "PANB": "PANB",
                        "D102M": "OVERFLY D102M AT OR ABOVE 3100"
                    }
                },
                {
                    "name": "RIPAN",
                    "fixes": {
                        "RIPAN": "RIPAN",
                        "D132M": "OVERFLY D132M AT OR ABOVE 3100"
                    }
                },
                {
                    "name": "VISOK",
                    "fixes": {
                        "VISOK": "VISOK AT OR ABOVE 4000"
                    }
                }
            ]
        },
        {
            "name": "VOR30RA",
            "fixes": {
                "LABUD": "LABUD AT OR ABOVE 3000",
                "FF116": "FF116 3000",
                "MA116": "MA116 672 RNW 30R",
                "BG04A": "OVERFLY BG04A TURN RIGHT DIRECT",
                "OBRNB": "OBRNB 3000 HOLD AT OBRNB RIGHT TURN INBOUNDCOURSE 030 ALT 3000 SPEED 220 LEGTIME 1 FAF FF116 MAP MA116"
            },
            "transitions": [
                {
                    "name": "DEVDA",
                    "fixes": {
                        "DEVDA": "DEVDA AT OR ABOVE 4000"
                    }
                },
                {
                    "name": "IA",
                    "fixes": {
                        "IANB": "IANB",
                        "D305O": "OVERFLY D305O AT OR ABOVE 3000 SPEED 180"
                    }
                },
                {
                    "name": "LOGAR",
                    "fixes": {
                        "LOGAR": "LOGAR",
                        "D283O": "OVERFLY D283O AT OR ABOVE 3000 SPEED 180"
                    }
                },
                {
                    "name": "TIKVU",
                    "fixes": {
                        "TIKVU": "TIKVU",
                        "D305O": "OVERFLY D305O AT OR ABOVE 3000 SPEED 180"
                    }
                }
            ]
        },
        {
            "name": "VOR30RB",
            "fixes": {
                "TUPKO": "TUPKO AT OR ABOVE 3100",
                "FF30": "FF30 2840",
                "32VOR": "32VOR AT OR ABOVE 1200",
                "MA30": "MA30 648 RNW 30R",
                "D297C": "OVERFLY D297C TURN LEFT DIRECT",
                "OBRNB": "OBRNB 3000 HOLD AT OBRNB RIGHT TURN INBOUNDCOURSE 030 ALT 3000 SPEED 220 LEGTIME 1 FAF FF30 MAP MA30"
            },
            "transitions": [
                {
                    "name": "PA",
                    "fixes": {
                        "PANB": "PANB",
                        "D102M": "OVERFLY D102M AT OR ABOVE 3100"
                    }
                },
                {
                    "name": "RIPAN",
                    "fixes": {
                        "RIPAN": "RIPAN",
                        "D132M": "OVERFLY D132M AT OR ABOVE 3100"
                    }
                },
                {
                    "name": "VISOK",
                    "fixes": {
                        "VISOK": "VISOK AT OR ABOVE 4000"
                    }
                }
            ]
        }
    ]
}