{
    "fixes": [
        {
            "name": "DASMI",
            "lat": 21.39565,
            "lon": 70.93950556666667
        },
        {
            "name": "HIGSS",
            "lat": 21.411366666666666,
            "lon": 71.36423333333333
        },
        {
            "name": "HISON",
            "lat": 21.467422216666666,
            "lon": 71.23773888333334
        },
        {
            "name": "HONRO",
            "lat": 21.314669433333332,
            "lon": 70.961775
        },
        {
            "name": "KAARN",
            "lat": 21.492397216666667,
            "lon": 71.34212778333334
        },
        {
            "name": "MRTTN",
            "lat": 21.421208333333333,
            "lon": 71.04541388333334
        },
        {
            "name": "PAULT",
            "lat": 21.573427783333333,
            "lon": 71.32001388333333
        },
        {
            "name": "RETEB",
            "lat": 21.47663611666667,
            "lon": 70.91717778333333
        }
    ],
    "rnws": [
        "RNW 12",
        "RNW 30"
    ],
    "sids": [],
    "stars": [],
    "approaches": [
        {
            "name": "RNAV12",
            "fixes": {
                "KAARN": "KAARN AT OR ABOVE 2000 SPEED 210 KAARN AT OR ABOVE 2000 SPEED 210 HOLD AT KAARN RIGHT TURN INBOUNDCOURSE 116 ALT 2000 LEGTIME 1 FAF HISON MAP RNW 12",
                "HISON": "HISON 1700 RNW 12 TRK 116 UNTIL 2000 TURN RIGHT DIRECT"
            },
            "transitions": [
                {
                    "name": "HIGSS",
                    "fixes": {
                        "HIGSS": "HIGSS AT OR ABOVE 2000 SPEED 210"
                    }
                },
                {
                    "name": "KAARN",
                    "fixes": {
                        "KAARN": "KAARN RIGHT TURN INBOUNDCOURSE 116 ALT 2000 LEGTIME 1"
                    }
                },
                {
                    "name": "PAULT",
                    "fixes": {
                        "PAULT": "PAULT AT OR ABOVE 2000 SPEED 210"
                    }
                }
            ]
        },
        {
            "name": "RNAV30",
            "fixes": {
                "DASMI": "DASMI AT OR ABOVE 2000 SPEED 210 DASMI AT OR ABOVE 2000 SPEED 210 HOLD AT DASMI LEFT TURN INBOUNDCOURSE 296 ALT 2000 LEGTIME 1 FAF MRTTN MAP RNW 30",
                "MRTTN": "MRTTN 1700 RNW 30 TRK 296 UNTIL 2000 TURN LEFT DIRECT"
            },
            "transitions": [
                {
                    "name": "DASMI",
                    "fixes": {
                        "DASMI": "DASMI LEFT TURN INBOUNDCOURSE 296 ALT 2000 LEGTIME 1"
                    }
                },
                {
                    "name": "HONRO",
                    "fixes": {
                        "HONRO": "HONRO AT OR ABOVE 2000 SPEED 210"
                    }
                },
                {
                    "name": "RETEB",
                    "fixes": {
                        "RETEB": "RETEB AT OR ABOVE 2000 SPEED 210"
                    }
                }
            ]
        }
    ]
}