{
    "fixes": [
        {
            "name": "AGNOD",
            "lat": 21.540008333333333,
            "lon": 71.71431666666666
        },
        {
            "name": "BONIX",
            "lat": 21.408647216666665,
            "lon": 71.35524443333334
        },
        {
            "name": "JUDSI",
            "lat": 21.574277783333333,
            "lon": 71.33033888333334
        },
        {
            "name": "MEBON",
            "lat": 21.457169433333334,
            "lon": 71.72656388333333
        },
        {
            "name": "SONTE",
            "lat": 21.622852783333332,
            "lon": 71.70205556666667
        },
        {
            "name": "TUKOS",
            "lat": 21.528941666666668,
            "lon": 71.62961111666667
        },
        {
            "name": "WILAS",
            "lat": 21.502719433333333,
            "lon": 71.42862221666667
        },
        {
            "name": "ZEGAD",
            "lat": 21.491463883333335,
            "lon": 71.34279721666667
        }
    ],
    "rnws": [
        "RNW 11",
        "RNW 29"
    ],
    "sids": [],
    "stars": [],
    "approaches": [
        {
            "name": "RNAV11",
            "fixes": {
                "AGNOD": "AGNOD AT OR ABOVE 2000 SPEED 210 AGNOD SPEED 210 HOLD AT AGNOD RIGHT TURN INBOUNDCOURSE 109 ALT 2000 LEGTIME 1 FAF TUKOS MAP RNW 11",
                "TUKOS": "TUKOS 1700 RNW 11 TRK 109 UNTIL 2000 TURN RIGHT DIRECT"
            },
            "transitions": [
                {
                    "name": "AGNOD",
                    "fixes": {
                        "AGNOD": "AGNOD RIGHT TURN INBOUNDCOURSE 109 ALT 2000 LEGTIME 1"
                    }
                },
                {
                    "name": "MEBON",
                    "fixes": {
                        "MEBON": "MEBON AT OR ABOVE 2000 SPEED 210"
                    }
                },
                {
                    "name": "SONTE",
                    "fixes": {
                        "SONTE": "SONTE AT OR ABOVE 2000 SPEED 210"
                    }
                }
            ]
        },
        {
            "name": "RNAV29",
            "fixes": {
                "ZEGAD": "ZEGAD AT OR ABOVE 2000 SPEED 210 ZEGAD SPEED 210 HOLD AT ZEGAD LEFT TURN INBOUNDCOURSE 289 ALT 2000 LEGTIME 1 FAF WILAS MAP RNW 29",
                "WILAS": "WILAS 1700 RNW 29 TRK 289 UNTIL 2000 TURN LEFT DIRECT"
            },
            "transitions": [
                {
                    "name": "BONIX",
                    "fixes": {
                        "BONIX": "BONIX AT OR ABOVE 2000 SPEED 210"
                    }
                },
                {
                    "name": "JUDSI",
                    "fixes": {
                        "JUDSI": "JUDSI AT OR ABOVE 2000 SPEED 210"
                    }
                },
                {
                    "name": "ZEGAD",
                    "fixes": {
                        "ZEGAD": "ZEGAD LEFT TURN INBOUNDCOURSE 289 ALT 2000 LEGTIME 1"
                    }
                }
            ]
        }
    ]
}