{
    "fixes": [
        {
            "name": "ALVEK",
            "lat": 23.020277783333334,
            "lon": 80.97055556666666
        },
        {
            "name": "BOSON",
            "lat": 22.103883333333332,
            "lon": 80.05863333333333
        },
        {
            "name": "BUBOR",
            "lat": 21.911916666666666,
            "lon": 80.207575
        },
        {
            "name": "CF410",
            "lat": 21.958363883333334,
            "lon": 80.57811388333333
        },
        {
            "name": "CF411",
            "lat": 21.9066,
            "lon": 80.38373333333334
        },
        {
            "name": "CF412",
            "lat": 22.045925,
            "lon": 80.44618056666667
        },
        {
            "name": "CF415",
            "lat": 22.288047216666666,
            "lon": 80.61925
        },
        {
            "name": "CF420",
            "lat": 22.361577783333335,
            "lon": 80.46145833333334
        },
        {
            "name": "CF421",
            "lat": 22.306358333333332,
            "lon": 80.25405833333333
        },
        {
            "name": "CF422",
            "lat": 22.253602783333335,
            "lon": 80.38245556666666
        },
        {
            "name": "COCOC",
            "lat": 21.965513883333333,
            "lon": 80.47080556666667
        },
        {
            "name": "CORSA",
            "lat": 22.334002783333332,
            "lon": 80.35773888333334
        },
        {
            "name": "DUTAN",
            "lat": 22.671666666666667,
            "lon": 82.22611111666667
        },
        {
            "name": "HUZAR",
            "lat": 21.883611116666668,
            "lon": 79.11638888333333
        },
        {
            "name": "IKBIX",
            "lat": 24.0,
            "lon": 81.23333333333333
        },
        {
            "name": "IMUXO",
            "lat": 21.693652783333334,
            "lon": 81.04079443333333
        },
        {
            "name": "KATAL",
            "lat": 20.0,
            "lon": 79.63833333333334
        },
        {
            "name": "RIBUM",
            "lat": 22.505077783333334,
            "lon": 80.65294443333333
        },
        {
            "name": "SEBIR",
            "lat": 21.79585,
            "lon": 80.52257221666666
        },
        {
            "name": "SEGOL",
            "lat": 22.469538883333332,
            "lon": 80.31608333333334
        },
        {
            "name": "TANIA",
            "lat": 24.03,
            "lon": 79.52833333333334
        },
        {
            "name": "UCJ",
            "lat": 22.467411116666668,
            "lon": 78.31196666666666
        },
        {
            "name": "UCL",
            "lat": 21.605019433333332,
            "lon": 81.53269721666666
        },
        {
            "name": "UKULO",
            "lat": 21.155833333333334,
            "lon": 78.62416666666667
        },
        {
            "name": "URKON",
            "lat": 22.114908333333332,
            "lon": 80.75911111666667
        },
        {
            "name": "URSUS",
            "lat": 24.000052783333334,
            "lon": 79.0698
        },
        {
            "name": "UVA",
            "lat": 23.02468611666667,
            "lon": 81.45359166666667
        },
        {
            "name": "VITAK",
            "lat": 22.302425,
            "lon": 80.73410556666667
        },
        {
            "name": "XOPLI",
            "lat": 22.648333333333333,
            "lon": 81.40222221666667
        },
        {
            "name": "ZEUSS",
            "lat": 24.0,
            "lon": 78.79583333333333
        }
    ],
    "rnws": [
        "RNW 02",
        "RNW 20"
    ],
    "sids": [
        {
            "name": "BOSO1A",
            "rnw": "02",
            "fixes": {
                "BOSON": "BOSON"
            },
            "sub_fixes": [],
            "transitions": [
                {
                    "name": "HUZAR",
                    "fixes": [
                        "HUZAR"
                    ]
                },
                {
                    "name": "UKULO",
                    "fixes": [
                        "UKULO"
                    ]
                }
            ]
        },
        {
            "name": "BOSON5",
            "rnw": "20",
            "fixes": {
                "BOSON": "BOSON"
            },
            "sub_fixes": [],
            "transitions": [
                {
                    "name": "HUZAR",
                    "fixes": [
                        "HUZAR"
                    ]
                },
                {
                    "name": "TANIA",
                    "fixes": [
                        "TANIA"
                    ]
                },
                {
                    "name": "UCJ",
                    "fixes": [
                        "UCJ"
                    ]
                },
                {
                    "name": "UKULO",
                    "fixes": [
                        "UKULO"
                    ]
                },
                {
                    "name": "ZEUSS",
                    "fixes": [
                        "OVERFLY"
                    ]
                }
            ]
        },
        {
            "name": "IMUXO4",
            "rnw": "20",
            "fixes": {
                "IMUXO": "IMUXO"
            },
            "sub_fixes": [],
            "transitions": [
                {
                    "name": "UCL",
                    "fixes": [
                        "UCL"
                    ]
                }
            ]
        },
        {
            "name": "RIBU1A",
            "rnw": "02",
            "fixes": {
                "RIBUM": "RIBUM"
            },
            "sub_fixes": [],
            "transitions": [
                {
                    "name": "DUTAN",
                    "fixes": [
                        "DUTAN"
                    ]
                },
                {
                    "name": "UVA",
                    "fixes": [
                        "UVA"
                    ]
                },
                {
                    "name": "XOPLI",
                    "fixes": [
                        "XOPLI"
                    ]
                }
            ]
        },
        {
            "name": "SEGOL1",
            "rnw": "02",
            "fixes": {
                "SEGOL": "SEGOL"
            },
            "sub_fixes": [],
            "transitions": [
                {
                    "name": "IKBIX",
                    "fixes": [
                        "IKBIX"
                    ]
                },
                {
                    "name": "TANIA",
                    "fixes": [
                        "TANIA"
                    ]
                },
                {
                    "name": "ZEUSS",
                    "fixes": [
                        "OVERFLY"
                    ]
                }
            ]
        },
        {
            "name": "VITAK4",
            "rnw": "20",
            "fixes": {
                "VITAK": "VITAK"
            },
            "sub_fixes": [],
            "transitions": [
                {
                    "name": "IKBIX",
                    "fixes": [
                        "IKBIX"
                    ]
                },
                {
                    "name": "UVA",
                    "fixes": [
                        "UVA"
                    ]
                },
                {
                    "name": "XOPLI",
                    "fixes": [
                        "XOPLI"
                    ]
                }
            ]
        }
    ],
    "stars": [
        {
            "name": "BUBOR4",
            "runway": "RNW 02",
            "fixes": {
                "BUBOR": "BUBOR",
                "CF411": "CF411 AT OR ABOVE 4000"
            }
        },
        {
            "name": "RIBU1B",
            "runway": "RNW 20",
            "fixes": {
                "RIBUM": "RIBUM",
                "CF420": "CF420 AT OR ABOVE 3000"
            }
        },
        {
            "name": "SEBIR4",
            "runway": "RNW 02",
            "fixes": {
                "SEBIR": "SEBIR",
                "COCOC": "COCOC 2000"
            }
        },
        {
            "name": "SEGOL4",
            "runway": "RNW 20",
            "fixes": {
                "SEGOL": "SEGOL",
                "CORSA": "CORSA 2000"
            }
        },
        {
            "name": "URKON4",
            "runway": "RNW 02",
            "fixes": {
                "URKON": "URKON",
                "CF410": "CF410 AT OR ABOVE 3000"
            }
        }
    ],
    "approaches": [
        {
            "name": "RNAV02",
            "fixes": {
                "COCOC": "COCOC AT OR ABOVE 2000",
                "CF412": "CF412 2000 RNW 02 TRK 023 UNTIL 1500 TURN LEFT DIRECT",
                "CF415": "OVERFLY CF415 AT OR ABOVE 4000 HOLD AT CF415 RIGHT TURN INBOUNDCOURSE 180 ALT 4000 SPEED 230 LEGDIST 4 FAF CF412 MAP RNW 02"
            },
            "transitions": [
                {
                    "name": "CF410",
                    "fixes": {
                        "CF410": "CF410 AT OR ABOVE 3000"
                    }
                },
                {
                    "name": "CF411",
                    "fixes": {
                        "CF411": "CF411 AT OR ABOVE 4000"
                    }
                }
            ]
        },
        {
            "name": "RNAV20",
            "fixes": {
                "CORSA": "CORSA AT OR ABOVE 2000",
                "CF422": "CF422 2000 RNW 20 TRK 203 UNTIL 1500 TURN RIGHT DIRECT",
                "CF415": "OVERFLY CF415 AT OR ABOVE 4000 HOLD AT CF415 RIGHT TURN INBOUNDCOURSE 070 ALT 4000 SPEED 230 LEGDIST 4 FAF CF422 MAP RNW 20"
            },
            "transitions": [
                {
                    "name": "CF420",
                    "fixes": {
                        "CF420": "CF420 AT OR ABOVE 3000"
                    }
                },
                {
                    "name": "CF421",
                    "fixes": {
                        "CF421": "CF421 AT OR ABOVE 3000"
                    }
                }
            ]
        }
    ]
}