{
    "fixes": [
        {
            "name": "AXABI",
            "lat": 23.210772216666665,
            "lon": 82.50173888333333
        },
        {
            "name": "D027D",
            "lat": 23.082463883333332,
            "lon": 82.55651388333334
        },
        {
            "name": "D037D",
            "lat": 22.968772216666668,
            "lon": 82.61688056666667
        },
        {
            "name": "D203D",
            "lat": 23.083675,
            "lon": 82.56012221666667
        },
        {
            "name": "D208D",
            "lat": 22.964625,
            "lon": 82.60795278333333
        },
        {
            "name": "OMSIG",
            "lat": 23.2125,
            "lon": 82.50888888333333
        },
        {
            "name": "PB700",
            "lat": 22.885038883333333,
            "lon": 82.75318611666667
        },
        {
            "name": "PB701",
            "lat": 22.814669433333332,
            "lon": 82.56440833333333
        },
        {
            "name": "PB705",
            "lat": 22.9574,
            "lon": 82.61207221666666
        },
        {
            "name": "PB706",
            "lat": 22.957113883333335,
            "lon": 82.61130833333333
        },
        {
            "name": "PB707",
            "lat": 22.961830566666666,
            "lon": 82.62155278333333
        },
        {
            "name": "PB710",
            "lat": 23.132144433333334,
            "lon": 82.78063888333334
        },
        {
            "name": "PB711",
            "lat": 23.277833333333334,
            "lon": 82.58250833333334
        },
        {
            "name": "PB712",
            "lat": 23.207311116666666,
            "lon": 82.39325
        },
        {
            "name": "PB720",
            "lat": 23.109638883333332,
            "lon": 82.545825
        },
        {
            "name": "PB722",
            "lat": 23.10935,
            "lon": 82.54504721666666
        },
        {
            "name": "PB723",
            "lat": 23.11125,
            "lon": 82.55067778333333
        },
        {
            "name": "RABUP",
            "lat": 22.881722216666667,
            "lon": 82.64495278333334
        },
        {
            "name": "TEMBO",
            "lat": 23.278055566666666,
            "lon": 82.29583333333333
        },
        {
            "name": "UBPNB",
            "lat": 23.023175,
            "lon": 82.58074166666667
        },
        {
            "name": "UHA",
            "lat": 22.978838883333335,
            "lon": 82.42664721666667
        },
        {
            "name": "UPB",
            "lat": 23.02335,
            "lon": 82.58171388333334
        },
        {
            "name": "UVA",
            "lat": 23.02468611666667,
            "lon": 81.45359166666667
        }
    ],
    "rnws": [
        "RNW 03",
        "RNW 21"
    ],
    "sids": [
        {
            "name": "ABAN3P",
            "rnw": "03",
            "fixes": {
                "UPB": "OVERFLY UPB AT OR ABOVE 4000",
                "UHA": "UHA"
            },
            "sub_fixes": [],
            "transitions": []
        },
        {
            "name": "ABAN4B",
            "rnw": "21",
            "fixes": {
                "UHA": "UHA"
            },
            "sub_fixes": [],
            "transitions": []
        }
    ],
    "stars": [
        {
            "name": "TEMBO2",
            "runway": "RNW 21",
            "fixes": {
                "TEMBO": "TEMBO AT OR ABOVE 4000",
                "OMSIG": "OMSIG",
                "UPB": "OVERFLY UPB AT OR ABOVE 4000"
            }
        }
    ],
    "approaches": [
        {
            "name": "VORD03",
            "fixes": {
                "PB706": "PB706 1500",
                "UPB": "UPB 136 RNW 03 TRK 028 UNTIL 1200",
                "PB710": "PB710 4000 HOLD AT PB710 RIGHT TURN INBOUNDCOURSE 126 ALT 4000 LEGTIME 1 FAF PB706 MAP UPB"
            },
            "transitions": [
                {
                    "name": "PB700",
                    "fixes": {
                        "PB700": "PB700 AT OR ABOVE 3000",
                        "RABUP": "RABUP AT OR ABOVE 2000"
                    }
                },
                {
                    "name": "PB701",
                    "fixes": {
                        "PB701": "PB701 AT OR ABOVE 3000",
                        "RABUP": "RABUP AT OR ABOVE 2000"
                    }
                },
                {
                    "name": "RABUP",
                    "fixes": {
                        "RABUP": "RABUP AT OR ABOVE 2000"
                    }
                },
                {
                    "name": "UPB",
                    "fixes": {
                        "UPB": "UPB AT OR ABOVE 3000 SPEED 210",
                        "D208D": "D208D AT OR ABOVE 2000 TRK 253 UNTIL 4.4 FROM D208D TURN LEFT HDG 073 INTERCEPT RADIAL 028 TO",
                        "PB706": "PB706"
                    }
                }
            ]
        },
        {
            "name": "VORD21",
            "fixes": {
                "PB722": "PB722 1500 RNW 21 TRK 207 UNTIL 1000 TURN RIGHT DIRECT",
                "PB710": "PB710 AT OR ABOVE 4000 HOLD AT PB710 RIGHT TURN INBOUNDCOURSE 126 ALT 4000 LEGTIME 1 FAF PB722 MAP RNW 21"
            },
            "transitions": [
                {
                    "name": "AXABI",
                    "fixes": {
                        "AXABI": "AXABI AT OR ABOVE 2000"
                    }
                },
                {
                    "name": "PB711",
                    "fixes": {
                        "PB711": "PB711 AT OR ABOVE 3000",
                        "AXABI": "AXABI AT OR ABOVE 2000"
                    }
                },
                {
                    "name": "PB712",
                    "fixes": {
                        "PB712": "PB712 AT OR ABOVE 3000",
                        "AXABI": "AXABI AT OR ABOVE 2000"
                    }
                },
                {
                    "name": "UPB",
                    "fixes": {
                        "UPB": "UPB AT OR ABOVE 3000 SPEED 210",
                        "D027D": "D027D AT OR ABOVE 1500 TRK 342 UNTIL 4.4 FROM D027D"
                    }
                }
            ]
        },
        {
            "name": "NDBD03",
            "fixes": {
                "PB707": "PB707 1500 RNW 03",
                "UBPNB": "OVERFLY UBPNB TRK 037 UNTIL 2000 TURN LEFT DIRECT UBPNB 3000 HOLD AT UBPNB RIGHT TURN INBOUNDCOURSE 217 ALT 3000 SPEED 210 LEGTIME 1 FAF PB707 MAP RNW 03"
            },
            "transitions": [
                {
                    "name": "UBP",
                    "fixes": {
                        "UBPNB": "UBPNB AT OR ABOVE 3000 SPEED 210",
                        "D037D": "D037D AT OR ABOVE 2000 TRK 262 UNTIL 4.4 FROM D037D TURN LEFT HDG 082 INTERCEPT RADIAL 037 TO",
                        "PB707": "PB707"
                    }
                }
            ]
        },
        {
            "name": "NDBD21",
            "fixes": {
                "PB723": "PB723 1500 RNW 21 TRK 203 UNTIL 1500 TURN RIGHT DIRECT",
                "UBPNB": "UBPNB 3000 HOLD AT UBPNB LEFT TURN INBOUNDCOURSE 023 ALT 3000 SPEED 210 LEGTIME 1 FAF PB723 MAP RNW 21"
            },
            "transitions": [
                {
                    "name": "UBP",
                    "fixes": {
                        "UBPNB": "UBPNB AT OR ABOVE 3000 SPEED 210",
                        "D203D": "D203D AT OR ABOVE 1500 TRK 338 UNTIL 4.4 FROM D203D"
                    }
                }
            ]
        },
        {
            "name": "RNAV03",
            "fixes": {
                "RABUP": "RABUP AT OR ABOVE 2000",
                "PB705": "PB705 1500 RNW 03 TRK 027 UNTIL 1500 TURN LEFT DIRECT",
                "PB710": "OVERFLY PB710 AT OR ABOVE 4000 HOLD AT PB710 RIGHT TURN INBOUNDCOURSE 179 ALT 14000 SPEED 230 LEGDIST 4 FAF PB705 MAP RNW 03"
            },
            "transitions": [
                {
                    "name": "PB700",
                    "fixes": {
                        "PB700": "PB700 AT OR ABOVE 3000"
                    }
                },
                {
                    "name": "PB701",
                    "fixes": {
                        "PB701": "PB701 AT OR ABOVE 3000"
                    }
                }
            ]
        },
        {
            "name": "RNAV21",
            "fixes": {
                "AXABI": "AXABI AT OR ABOVE 1500",
                "PB720": "PB720 1500 RNW 21 TRK 207 UNTIL 1000 TURN RIGHT DIRECT",
                "PB710": "OVERFLY PB710 AT OR ABOVE 4000 HOLD AT PB710 RIGHT TURN INBOUNDCOURSE 057 ALT 14000 SPEED 230 LEGDIST 4 FAF PB720 MAP RNW 21"
            },
            "transitions": [
                {
                    "name": "PB711",
                    "fixes": {
                        "PB711": "PB711 AT OR ABOVE 3000"
                    }
                },
                {
                    "name": "PB712",
                    "fixes": {
                        "PB712": "PB712 AT OR ABOVE 3000"
                    }
                }
            ]
        }
    ]
}