{
    "fixes": [
        {
            "name": "30LOC",
            "lat": 17.810433333333332,
            "lon": 177.39881111666668
        },
        {
            "name": "AF001",
            "lat": 17.631105233333333,
            "lon": 177.60423651666667
        },
        {
            "name": "AF002",
            "lat": 17.578090883333335,
            "lon": 177.5896597
        },
        {
            "name": "AF003",
            "lat": 17.530835116666665,
            "lon": 177.56054673333333
        },
        {
            "name": "AF004",
            "lat": 17.45861785,
            "lon": 177.43703456666665
        },
        {
            "name": "AF005",
            "lat": 17.471525133333333,
            "lon": 177.47999906666666
        },
        {
            "name": "AGTAG",
            "lat": 18.413888883333332,
            "lon": 177.31055556666666
        },
        {
            "name": "AGTOS",
            "lat": 19.315897216666666,
            "lon": 177.20754443333334
        },
        {
            "name": "AGUTA",
            "lat": 17.924166666666668,
            "lon": 176.76666666666668
        },
        {
            "name": "APILI",
            "lat": 17.82408888333333,
            "lon": 177.22955278333333
        },
        {
            "name": "BEDOK",
            "lat": 17.240833333333335,
            "lon": 177.91722221666666
        },
        {
            "name": "BEGIT",
            "lat": 17.668888883333334,
            "lon": 176.75083333333333
        },
        {
            "name": "BELAV",
            "lat": 17.690038883333333,
            "lon": 177.17448056666666
        },
        {
            "name": "BIDNA",
            "lat": 16.586666666666666,
            "lon": 178.73333333333332
        },
        {
            "name": "CF204",
            "lat": 17.51931666666667,
            "lon": 177.49834721666667
        },
        {
            "name": "CONTI",
            "lat": 17.596622216666667,
            "lon": 177.28802221666666
        },
        {
            "name": "D024L",
            "lat": 17.492227783333334,
            "lon": 177.51883056666668
        },
        {
            "name": "D087L",
            "lat": 17.686025,
            "lon": 177.60273611666668
        },
        {
            "name": "D204N",
            "lat": 17.845788883333334,
            "lon": 177.25084166666667
        },
        {
            "name": "D347L",
            "lat": 17.453947216666666,
            "lon": 177.39218056666667
        },
        {
            "name": "DAKMA",
            "lat": 17.710436116666667,
            "lon": 177.25913611666667
        },
        {
            "name": "EKANU",
            "lat": 17.732877783333333,
            "lon": 177.35226943333333
        },
        {
            "name": "EXORA",
            "lat": 17.913333333333334,
            "lon": 179.12666666666667
        },
        {
            "name": "FF02",
            "lat": 17.836930566666666,
            "lon": 177.37746666666666
        },
        {
            "name": "FF204",
            "lat": 17.627644433333334,
            "lon": 177.41634721666668
        },
        {
            "name": "FN02",
            "lat": 17.82654721666667,
            "lon": 177.38658888333333
        },
        {
            "name": "FN581",
            "lat": 17.721719433333334,
            "lon": 177.48425556666666
        },
        {
            "name": "FN664",
            "lat": 17.813183333333335,
            "lon": 177.52752221666665
        },
        {
            "name": "FN812",
            "lat": 17.73155,
            "lon": 177.46233611666668
        },
        {
            "name": "FNNSD",
            "lat": 17.987777783333332,
            "lon": 177.36848611666667
        },
        {
            "name": "FNNSE",
            "lat": 17.986636116666666,
            "lon": 177.26815833333333
        },
        {
            "name": "FNNSF",
            "lat": 17.850744433333332,
            "lon": 177.37014721666668
        },
        {
            "name": "FNNSG",
            "lat": 17.896088883333334,
            "lon": 177.23503333333332
        },
        {
            "name": "FNNSH",
            "lat": 17.75,
            "lon": 177.25
        },
        {
            "name": "FNNSI",
            "lat": 17.918697216666665,
            "lon": 177.31917221666666
        },
        {
            "name": "FNNSM",
            "lat": 17.782777783333334,
            "lon": 177.42108333333334
        },
        {
            "name": "GODAP",
            "lat": 17.213333333333335,
            "lon": 179.08166666666668
        },
        {
            "name": "GOGIB",
            "lat": 17.749197216666666,
            "lon": 177.42000278333333
        },
        {
            "name": "GUSOS",
            "lat": 17.181111116666667,
            "lon": 177.08666666666667
        },
        {
            "name": "ISMOP",
            "lat": 17.381111116666666,
            "lon": 176.86555556666667
        },
        {
            "name": "KABAR",
            "lat": 16.241666666666667,
            "lon": 178.335
        },
        {
            "name": "KALPO",
            "lat": 17.148055566666667,
            "lon": 177.73444443333332
        },
        {
            "name": "KALTA",
            "lat": 17.756555566666666,
            "lon": 177.31364166666665
        },
        {
            "name": "LAREB",
            "lat": 17.842497216666665,
            "lon": 177.42983333333333
        },
        {
            "name": "LUPLO",
            "lat": 17.345,
            "lon": 179.115
        },
        {
            "name": "MA02",
            "lat": 17.783936116666666,
            "lon": 177.42015
        },
        {
            "name": "MA204",
            "lat": 17.722402783333333,
            "lon": 177.34451666666666
        },
        {
            "name": "MIKAX",
            "lat": 17.954605566666668,
            "lon": 177.28246666666666
        },
        {
            "name": "MINB",
            "lat": 17.899722216666667,
            "lon": 177.32555556666668
        },
        {
            "name": "MOTKI",
            "lat": 17.860641666666666,
            "lon": 177.489325
        },
        {
            "name": "NA",
            "lat": 18.042302783333334,
            "lon": 178.56194721666665
        },
        {
            "name": "NAVUA",
            "lat": 18.237222216666666,
            "lon": 178.16888888333332
        },
        {
            "name": "NIREV",
            "lat": 17.746658333333333,
            "lon": 177.53023056666666
        },
        {
            "name": "NN",
            "lat": 17.654722216666666,
            "lon": 177.39583333333334
        },
        {
            "name": "PACKO",
            "lat": 16.783333333333335,
            "lon": 178.88833333333332
        },
        {
            "name": "PAGBO",
            "lat": 17.091388883333334,
            "lon": 177.35666666666665
        },
        {
            "name": "RF001",
            "lat": 17.7985883,
            "lon": 177.53612098333332
        },
        {
            "name": "RF002",
            "lat": 17.782073783333335,
            "lon": 177.53996041666667
        },
        {
            "name": "RF003",
            "lat": 17.765212033333334,
            "lon": 177.53856121666666
        },
        {
            "name": "RF004",
            "lat": 17.733966666666667,
            "lon": 177.51848585
        },
        {
            "name": "RF005",
            "lat": 17.725344183333334,
            "lon": 177.50280106666668
        },
        {
            "name": "TARON",
            "lat": 17.09194443333333,
            "lon": 177.52805556666667
        },
        {
            "name": "TEDUM",
            "lat": 17.65467221666667,
            "lon": 177.39575556666668
        },
        {
            "name": "TUTMU",
            "lat": 18.097777783333335,
            "lon": 176.84166666666667
        },
        {
            "name": "TUTRI",
            "lat": 16.018333333333334,
            "lon": 177.77833333333334
        },
        {
            "name": "VIBEX",
            "lat": 18.245833333333334,
            "lon": 176.96583333333334
        },
        {
            "name": "VKNB",
            "lat": 17.784722216666665,
            "lon": 177.4195
        }
    ],
    "rnws": [
        "RNW 02",
        "RNW 09",
        "RNW 20",
        "RNW 27"
    ],
    "sids": [
        {
            "name": "ALPHA",
            "rnw": "12",
            "fixes": {},
            "sub_fixes": [
                {
                    "rwy": "RNW 02",
                    "fixes": {
                        "RNW 02": "RNW 02 TRK 025 UNTIL 560 HDG 260 VECTORS TURN RIGHT DIRECT",
                        "NN": "NN AT OR ABOVE 3000"
                    }
                },
                {
                    "rwy": "RNW 09",
                    "fixes": {
                        "RNW 09": "RNW 09 TRK 092 UNTIL 560 TRK 270 UNTIL 2000 TURN RIGHT DIRECT",
                        "NN": "NN AT OR ABOVE 3000"
                    }
                },
                {
                    "rwy": "RNW 20",
                    "fixes": {
                        "RNW 20": "RNW 20 HDG 205 UNTIL 2500 TURN RIGHT DIRECT",
                        "NN": "NN AT OR ABOVE 3000"
                    }
                },
                {
                    "rwy": "RNW 27",
                    "fixes": {
                        "RNW 27": "RNW 27 TRK 272 UNTIL 560 TRK 270 UNTIL 2000 TURN RIGHT DIRECT",
                        "NN": "NN AT OR ABOVE 3000"
                    }
                }
            ],
            "transitions": [
                {
                    "name": "KABAR",
                    "fixes": [
                        "KABAR"
                    ]
                },
                {
                    "name": "TUTRI",
                    "fixes": [
                        "TUTRI"
                    ]
                }
            ]
        },
        {
            "name": "CHARLI",
            "rnw": "12",
            "fixes": {},
            "sub_fixes": [
                {
                    "rwy": "RNW 02",
                    "fixes": {
                        "RNW 02": "RNW 02 TRK 025 UNTIL 560 HDG 260 VECTORS TURN RIGHT DIRECT",
                        "NN": "NN AT OR ABOVE 5000"
                    }
                },
                {
                    "rwy": "RNW 09",
                    "fixes": {
                        "RNW 09": "RNW 09 TRK 092 UNTIL 560 TRK 270 UNTIL 2000 TURN RIGHT DIRECT",
                        "NN": "NN AT OR ABOVE 5000"
                    }
                },
                {
                    "rwy": "RNW 20",
                    "fixes": {
                        "RNW 20": "RNW 20 HDG 205 UNTIL 2500 TURN RIGHT DIRECT",
                        "NN": "NN AT OR ABOVE 5000"
                    }
                },
                {
                    "rwy": "RNW 27",
                    "fixes": {
                        "RNW 27": "RNW 27 TRK 272 UNTIL 560 TRK 270 UNTIL 2000 TURN RIGHT DIRECT",
                        "NN": "NN AT OR ABOVE 5000"
                    }
                }
            ],
            "transitions": [
                {
                    "name": "BIDNA",
                    "fixes": [
                        "BIDNA"
                    ]
                },
                {
                    "name": "EXORA",
                    "fixes": [
                        "EXORA"
                    ]
                },
                {
                    "name": "GODAP",
                    "fixes": [
                        "GODAP"
                    ]
                },
                {
                    "name": "LUPLO",
                    "fixes": [
                        "LUPLO"
                    ]
                },
                {
                    "name": "PACKO",
                    "fixes": [
                        "PACKO"
                    ]
                }
            ]
        },
        {
            "name": "DELTA",
            "rnw": "12",
            "fixes": {},
            "sub_fixes": [
                {
                    "rwy": "RNW 02",
                    "fixes": {
                        "RNW 02": "RNW 02 TRK 025 UNTIL 560 TRK 260 UNTIL 2000 TURN LEFT DIRECT",
                        "VKNB": "VKNB AT OR ABOVE 5000"
                    }
                },
                {
                    "rwy": "RNW 09",
                    "fixes": {
                        "RNW 09": "RNW 09 TRK 092 UNTIL 560 HDG 270 VECTORS TURN LEFT DIRECT",
                        "VKNB": "VKNB AT OR ABOVE 5000"
                    }
                },
                {
                    "rwy": "RNW 20",
                    "fixes": {
                        "RNW 20": "RNW 20 HDG 205 UNTIL 2500 HDG 270 VECTORS TURN RIGHT DIRECT",
                        "VKNB": "VKNB AT OR ABOVE 5000"
                    }
                },
                {
                    "rwy": "RNW 27",
                    "fixes": {
                        "RNW 27": "RNW 27 TRK 272 UNTIL 560 TRK 270 UNTIL 2000 TURN LEFT DIRECT",
                        "VKNB": "VKNB AT OR ABOVE 5000"
                    }
                }
            ],
            "transitions": [
                {
                    "name": "EXORA",
                    "fixes": [
                        "EXORA"
                    ]
                },
                {
                    "name": "GODAP",
                    "fixes": [
                        "GODAP"
                    ]
                },
                {
                    "name": "LUPLO",
                    "fixes": [
                        "LUPLO"
                    ]
                },
                {
                    "name": "NA",
                    "fixes": [
                        "NA"
                    ]
                },
                {
                    "name": "NAVUA",
                    "fixes": [
                        "NAVUA"
                    ]
                }
            ]
        },
        {
            "name": "ECHO",
            "rnw": "12",
            "fixes": {},
            "sub_fixes": [
                {
                    "rwy": "RNW 02",
                    "fixes": {
                        "RNW 02": "RNW 02 TRK 025 UNTIL 560 TURN LEFT DIRECT",
                        "MINB": "MINB AT OR ABOVE 3000"
                    }
                },
                {
                    "rwy": "RNW 09",
                    "fixes": {
                        "RNW 09": "RNW 09 TRK 092 UNTIL 560 TURN RIGHT DIRECT",
                        "MINB": "MINB AT OR ABOVE 3000"
                    }
                },
                {
                    "rwy": "RNW 20",
                    "fixes": {
                        "RNW 20": "RNW 20 TRK 205 UNTIL 560",
                        "MINB": "MINB AT OR ABOVE 3000"
                    }
                },
                {
                    "rwy": "RNW 27",
                    "fixes": {
                        "RNW 27": "RNW 27 TRK 272 UNTIL 560",
                        "MINB": "MINB AT OR ABOVE 3000"
                    }
                }
            ],
            "transitions": [
                {
                    "name": "NA",
                    "fixes": [
                        "NA"
                    ]
                },
                {
                    "name": "NAVUA",
                    "fixes": [
                        "NAVUA"
                    ]
                }
            ]
        },
        {
            "name": "FOXTRO",
            "rnw": "12",
            "fixes": {
                "MINB": "MINB AT OR ABOVE 3000",
                "AGTOS": "AGTOS"
            },
            "sub_fixes": [
                {
                    "rwy": "RNW 02",
                    "fixes": {
                        "RNW 02": "RNW 02 TRK 025 UNTIL 560"
                    }
                },
                {
                    "rwy": "RNW 09",
                    "fixes": {
                        "RNW 09": "RNW 09 TRK 092 UNTIL 560"
                    }
                },
                {
                    "rwy": "RNW 20",
                    "fixes": {
                        "RNW 20": "RNW 20 TRK 205 UNTIL 560"
                    }
                },
                {
                    "rwy": "RNW 27",
                    "fixes": {
                        "RNW 27": "RNW 27 TRK 272 UNTIL 560"
                    }
                }
            ],
            "transitions": []
        }
    ],
    "stars": [
        {
            "name": "AGTA2B",
            "runway": "RNW 20",
            "fixes": {
                "AGTAG": "AGTAG",
                "MOTKI": "MOTKI AT OR ABOVE 4500 SPEED 230"
            }
        },
        {
            "name": "KALT2B",
            "runway": "RNW 20",
            "fixes": {
                "KALTA": "KALTA",
                "LAREB": "LAREB",
                "MOTKI": "MOTKI AT OR ABOVE 4500 SPEED 230"
            }
        },
        {
            "name": "MIKA2B",
            "runway": "RNW 20",
            "fixes": {
                "MIKAX": "MIKAX",
                "MOTKI": "MOTKI AT OR ABOVE 4500 SPEED 230"
            }
        },
        {
            "name": "TEDU2B",
            "runway": "RNW 20",
            "fixes": {
                "TEDUM": "TEDUM",
                "KALTA": "KALTA",
                "LAREB": "LAREB",
                "MOTKI": "MOTKI AT OR ABOVE 4500 SPEED 230"
            }
        }
    ],
    "approaches": [
        {
            "name": "LOC02",
            "fixes": {
                "MINB": "MINB AT OR ABOVE 3000",
                "FF02": "FF02 1200",
                "30LOC": "30LOC AT OR ABOVE 840",
                "MA02": "MA02 347 RNW 02 HDG 260 UNTIL 3000 FAF FF02 MAP MA02"
            },
            "transitions": [
                {
                    "name": "NN",
                    "fixes": {
                        "NN": "NN TRK 205 UNTIL 17.0 FROM NN"
                    }
                },
                {
                    "name": "VK1",
                    "fixes": {
                        "VKNB": "VKNB AT OR ABOVE 5000",
                        "MINB": "MINB AT OR ABOVE 3000 TRK 250 UNTIL 4.4 FROM MINB"
                    }
                },
                {
                    "name": "VK2",
                    "fixes": {
                        "VKNB": "VKNB AT OR ABOVE 5000 TRK 225 UNTIL 9.0 FROM VKNB"
                    }
                }
            ]
        },
        {
            "name": "NDBY02",
            "fixes": {
                "MINB": "MINB AT OR ABOVE 3000 MINB FAF FN02 MAP VK",
                "FN02": "FN02 1335",
                "VKNB": "VKNB 366 RNW 02 TRK 024 UNTIL 560 HDG 259 UNTIL 3000 TURN LEFT DIRECT"
            },
            "transitions": [
                {
                    "name": "NN",
                    "fixes": {
                        "NN": "NN",
                        "D204N": "OVERFLY D204N"
                    }
                },
                {
                    "name": "VK1",
                    "fixes": {
                        "VKNB": "VKNB AT OR ABOVE 5000",
                        "MINB": "MINB AT OR ABOVE 3000 TRK 249 UNTIL 4.4 FROM MINB"
                    }
                },
                {
                    "name": "VK2",
                    "fixes": {
                        "VKNB": "VKNB AT OR ABOVE 5000 TRK 224 UNTIL 9.0 FROM VKNB"
                    }
                }
            ]
        },
        {
            "name": "RNAV02",
            "fixes": {
                "FNNSI": "FNNSI AT OR ABOVE 3500",
                "FNNSF": "FNNSF 1910",
                "FNNSM": "OVERFLY FNNSM 318 RNW 02 TRK 023 UNTIL 560 TURN LEFT DIRECT",
                "FNNSH": "FNNSH SPEED 190 TRK 205 UNTIL 3400 FAF FNNSF MAP FNNSM"
            },
            "transitions": [
                {
                    "name": "FNNSD",
                    "fixes": {
                        "FNNSD": "FNNSD AT OR ABOVE 4700 SPEED 220"
                    }
                },
                {
                    "name": "FNNSE",
                    "fixes": {
                        "FNNSE": "FNNSE AT OR ABOVE 4700 SPEED 220"
                    }
                },
                {
                    "name": "FNNSG",
                    "fixes": {
                        "FNNSG": "FNNSG AT OR ABOVE 4700 SPEED 220"
                    }
                }
            ]
        },
        {
            "name": "RNAVR02",
            "fixes": {
                "CF204": "CF204 AT OR ABOVE 5000",
                "FF204": "FF204 2700",
                "NN": "NN AT OR ABOVE 2060",
                "MA204": "MA204 1100 RNW 02 TRK 204 UNTIL 3000 FAF FF204 MAP MA204"
            },
            "transitions": [
                {
                    "name": "D087L",
                    "fixes": {
                        "D087L": "D087L AT OR ABOVE 5100",
                        "AF001": "AF001",
                        "AF002": "AF002",
                        "AF003": "AF003",
                        "D024L": "D024L AT OR ABOVE 5100"
                    }
                },
                {
                    "name": "D347L",
                    "fixes": {
                        "D347L": "D347L AT OR ABOVE 5100",
                        "AF004": "AF004",
                        "AF005": "AF005",
                        "D024L": "D024L AT OR ABOVE 5100"
                    }
                },
                {
                    "name": "NN",
                    "fixes": {
                        "NN": "NN 5000 TRK 004 UNTIL 10.0 FROM NN"
                    }
                }
            ]
        },
        {
            "name": "RNAV09",
            "fixes": {
                "DAKMA": "DAKMA AT OR ABOVE 3000",
                "EKANU": "EKANU 1660",
                "GOGIB": "OVERFLY GOGIB 388 RNW 09 TRK 091 UNTIL 600 TURN RIGHT DIRECT",
                "APILI": "APILI AT OR ABOVE 3000 SPEED 200 FAF EKANU MAP GOGIB"
            },
            "transitions": [
                {
                    "name": "APILI",
                    "fixes": {
                        "APILI": "APILI AT OR ABOVE 3000"
                    }
                },
                {
                    "name": "BELAV",
                    "fixes": {
                        "BELAV": "BELAV AT OR ABOVE 3000"
                    }
                },
                {
                    "name": "CONTI",
                    "fixes": {
                        "CONTI": "CONTI AT OR ABOVE 3000"
                    }
                }
            ]
        },
        {
            "name": "RNAVR09",
            "fixes": {
                "CF204": "CF204 AT OR ABOVE 5000",
                "FF204": "FF204 2700",
                "NN": "NN AT OR ABOVE 2060",
                "MA204": "MA204 1100 RNW 09 TRK 204 UNTIL 3000 FAF FF204 MAP MA204"
            },
            "transitions": [
                {
                    "name": "D087L",
                    "fixes": {
                        "D087L": "D087L AT OR ABOVE 5100",
                        "AF001": "AF001",
                        "AF002": "AF002",
                        "AF003": "AF003",
                        "D024L": "D024L AT OR ABOVE 5100"
                    }
                },
                {
                    "name": "D347L",
                    "fixes": {
                        "D347L": "D347L AT OR ABOVE 5100",
                        "AF004": "AF004",
                        "AF005": "AF005",
                        "D024L": "D024L AT OR ABOVE 5100"
                    }
                },
                {
                    "name": "NN",
                    "fixes": {
                        "NN": "NN 5000 TRK 004 UNTIL 10.0 FROM NN"
                    }
                }
            ]
        },
        {
            "name": "RNAV20",
            "fixes": {
                "FN664": "FN664 3350",
                "RF001": "RF001",
                "RF002": "RF002",
                "RF003": "RF003",
                "NIREV": "NIREV 2000",
                "RF004": "RF004",
                "RF005": "RF005",
                "FN581": "FN581 1000 SPEED 160",
                "FN812": "FN812 540 RNW 20",
                "MIKAX": "MIKAX 3000 HOLD AT MIKAX LEFT TURN INBOUNDCOURSE 025 ALT 3000 LEGTIME 1 FAF NIREV MAP RNW 20"
            },
            "transitions": [
                {
                    "name": "MOTKI",
                    "fixes": {
                        "MOTKI": "MOTKI AT OR ABOVE 4500 SPEED 230"
                    }
                }
            ]
        },
        {
            "name": "RNAVR20",
            "fixes": {
                "CF204": "CF204 AT OR ABOVE 5000",
                "FF204": "FF204 2700",
                "NN": "NN AT OR ABOVE 2060",
                "MA204": "MA204 1100 RNW 20 TRK 204 UNTIL 3000 FAF FF204 MAP MA204"
            },
            "transitions": [
                {
                    "name": "D087L",
                    "fixes": {
                        "D087L": "D087L AT OR ABOVE 5100",
                        "AF001": "AF001",
                        "AF002": "AF002",
                        "AF003": "AF003",
                        "D024L": "D024L AT OR ABOVE 5100"
                    }
                },
                {
                    "name": "D347L",
                    "fixes": {
                        "D347L": "D347L AT OR ABOVE 5100",
                        "AF004": "AF004",
                        "AF005": "AF005",
                        "D024L": "D024L AT OR ABOVE 5100"
                    }
                },
                {
                    "name": "NN",
                    "fixes": {
                        "NN": "NN 5000 TRK 004 UNTIL 10.0 FROM NN"
                    }
                }
            ]
        },
        {
            "name": "RNAVR27",
            "fixes": {
                "CF204": "CF204 AT OR ABOVE 5000",
                "FF204": "FF204 2700",
                "NN": "NN AT OR ABOVE 2060",
                "MA204": "MA204 1100 RNW 27 TRK 204 UNTIL 3000 FAF FF204 MAP MA204"
            },
            "transitions": [
                {
                    "name": "D087L",
                    "fixes": {
                        "D087L": "D087L AT OR ABOVE 5100",
                        "AF001": "AF001",
                        "AF002": "AF002",
                        "AF003": "AF003",
                        "D024L": "D024L AT OR ABOVE 5100"
                    }
                },
                {
                    "name": "D347L",
                    "fixes": {
                        "D347L": "D347L AT OR ABOVE 5100",
                        "AF004": "AF004",
                        "AF005": "AF005",
                        "D024L": "D024L AT OR ABOVE 5100"
                    }
                },
                {
                    "name": "NN",
                    "fixes": {
                        "NN": "NN 5000 TRK 004 UNTIL 10.0 FROM NN"
                    }
                }
            ]
        }
    ]
}