{
    "fixes": [
        {
            "name": "AA414",
            "lat": 17.397888883333334,
            "lon": 149.75988888333333
        },
        {
            "name": "AA416",
            "lat": 17.44175,
            "lon": 149.97591666666668
        },
        {
            "name": "AA501",
            "lat": 17.490333333333332,
            "lon": 149.18338888333332
        },
        {
            "name": "AA502",
            "lat": 17.585361116666668,
            "lon": 149.65308333333334
        },
        {
            "name": "AA503",
            "lat": 17.446583333333333,
            "lon": 149.68333333333334
        },
        {
            "name": "AA505",
            "lat": 17.283888883333333,
            "lon": 149.61258333333333
        },
        {
            "name": "AA506",
            "lat": 17.605361116666668,
            "lon": 149.68208333333334
        },
        {
            "name": "AA508",
            "lat": 17.81758333333333,
            "lon": 149.64697221666665
        },
        {
            "name": "AF001",
            "lat": 17.51757785,
            "lon": 149.16564288333333
        },
        {
            "name": "AF002",
            "lat": 17.575707583333333,
            "lon": 149.16550303333332
        },
        {
            "name": "ARITI",
            "lat": 17.220055566666666,
            "lon": 149.52761111666666
        },
        {
            "name": "AROBA",
            "lat": 18.061027783333333,
            "lon": 150.29075
        },
        {
            "name": "ASOKI",
            "lat": 17.065944433333332,
            "lon": 148.88894443333334
        },
        {
            "name": "BEBIG",
            "lat": 18.351222216666667,
            "lon": 149.843
        },
        {
            "name": "BENKO",
            "lat": 17.371333333333332,
            "lon": 148.74922221666668
        },
        {
            "name": "BOBIX",
            "lat": 17.507222216666666,
            "lon": 149.66805556666668
        },
        {
            "name": "CI04",
            "lat": 17.69715,
            "lon": 149.81321388333333
        },
        {
            "name": "D219F",
            "lat": 17.608916666666666,
            "lon": 149.68400833333334
        },
        {
            "name": "D219R",
            "lat": 17.732408333333332,
            "lon": 149.84917778333335
        },
        {
            "name": "D225R",
            "lat": 17.706552783333333,
            "lon": 149.86801388333333
        },
        {
            "name": "D239R",
            "lat": 17.639969433333334,
            "lon": 149.900275
        },
        {
            "name": "D252R",
            "lat": 17.573091666666667,
            "lon": 149.91434443333333
        },
        {
            "name": "DUBAK",
            "lat": 17.827611116666667,
            "lon": 149.80663888333333
        },
        {
            "name": "EP04",
            "lat": 17.558944433333334,
            "lon": 149.62001666666666
        },
        {
            "name": "FAA04",
            "lat": 17.651416666666666,
            "lon": 149.74888888333334
        },
        {
            "name": "FAA22",
            "lat": 17.460777783333334,
            "lon": 149.47269443333334
        },
        {
            "name": "FANB",
            "lat": 17.552988883333335,
            "lon": 149.61380556666666
        },
        {
            "name": "FF04Z",
            "lat": 17.65,
            "lon": 149.74537778333334
        },
        {
            "name": "FF22",
            "lat": 17.451077783333332,
            "lon": 149.45868333333334
        },
        {
            "name": "FI04",
            "lat": 17.664736116666667,
            "lon": 149.76657221666667
        },
        {
            "name": "FN04",
            "lat": 17.730388883333333,
            "lon": 149.79900833333335
        },
        {
            "name": "FS04",
            "lat": 17.701766666666668,
            "lon": 149.80816666666666
        },
        {
            "name": "FS04Z",
            "lat": 17.65420556666667,
            "lon": 149.74453611666667
        },
        {
            "name": "FS22",
            "lat": 17.403030566666665,
            "lon": 149.38734166666666
        },
        {
            "name": "IAA04",
            "lat": 17.685555566666668,
            "lon": 149.79852778333333
        },
        {
            "name": "IDUTA",
            "lat": 17.618138883333334,
            "lon": 150.47069443333334
        },
        {
            "name": "IKELO",
            "lat": 16.800972216666665,
            "lon": 149.20763888333335
        },
        {
            "name": "KARNO",
            "lat": 17.752972216666667,
            "lon": 149.87672221666668
        },
        {
            "name": "MA04",
            "lat": 17.567713883333333,
            "lon": 149.62899443333333
        },
        {
            "name": "MA22",
            "lat": 17.527911116666665,
            "lon": 149.572925
        },
        {
            "name": "MOANA",
            "lat": 17.42225,
            "lon": 149.41588888333334
        },
        {
            "name": "MOSMA",
            "lat": 17.326888883333332,
            "lon": 149.84377778333334
        },
        {
            "name": "ONIDO",
            "lat": 18.110027783333333,
            "lon": 149.77030556666668
        },
        {
            "name": "OVINI",
            "lat": 17.680972216666667,
            "lon": 149.78033333333335
        },
        {
            "name": "PASTI",
            "lat": 17.633638883333333,
            "lon": 149.17475
        },
        {
            "name": "SALUT",
            "lat": 17.34625,
            "lon": 149.45233333333334
        },
        {
            "name": "TAF",
            "lat": 17.547119433333332,
            "lon": 149.60150833333333
        },
        {
            "name": "TAF23",
            "lat": 17.466738883333335,
            "lon": 149.20923888333334
        },
        {
            "name": "TAF35",
            "lat": 17.597169433333335,
            "lon": 150.20988333333332
        },
        {
            "name": "TAVIS",
            "lat": 17.354944433333333,
            "lon": 149.31583333333333
        },
        {
            "name": "VAITE",
            "lat": 17.08525,
            "lon": 149.97644443333334
        },
        {
            "name": "VEDRI",
            "lat": 17.678305566666666,
            "lon": 149.94677778333335
        }
    ],
    "rnws": [
        "RNW 04",
        "RNW 22"
    ],
    "sids": [
        {
            "name": "ARIT4E",
            "rnw": "04",
            "fixes": {
                "ARITI": "ARITI AT OR ABOVE 2000"
            },
            "sub_fixes": [],
            "transitions": []
        },
        {
            "name": "ARIT4W",
            "rnw": "22",
            "fixes": {
                "ARITI": "ARITI AT OR ABOVE 2000"
            },
            "sub_fixes": [],
            "transitions": []
        },
        {
            "name": "BEBI3W",
            "rnw": "22",
            "fixes": {
                "TAF": "TAF SPEED 205 TRK 158 INTERCEPT RADIAL 183 TO",
                "BEBIG": "BEBIG"
            },
            "sub_fixes": [],
            "transitions": []
        },
        {
            "name": "BEBI4W",
            "rnw": "22",
            "fixes": {
                "AA506": "AA506",
                "AA508": "AA508",
                "ONIDO": "ONIDO",
                "BEBIG": "BEBIG"
            },
            "sub_fixes": [],
            "transitions": []
        },
        {
            "name": "BENK3E",
            "rnw": "04",
            "fixes": {
                "MOANA": "OVERFLY MOANA TRK 106 INTERCEPT RADIAL 065 TO",
                "BENKO": "BENKO"
            },
            "sub_fixes": [],
            "transitions": []
        },
        {
            "name": "BENK4E",
            "rnw": "04",
            "fixes": {
                "MOANA": "MOANA",
                "AA501": "AA501",
                "BENKO": "BENKO"
            },
            "sub_fixes": [],
            "transitions": []
        },
        {
            "name": "IKEL3E",
            "rnw": "04",
            "fixes": {
                "IKELO": "IKELO"
            },
            "sub_fixes": [],
            "transitions": []
        },
        {
            "name": "IKEL3W",
            "rnw": "22",
            "fixes": {
                "TAF": "TAF SPEED 205 TURN RIGHT TRK 357 INTERCEPT RADIAL 026 TO",
                "IKELO": "IKELO"
            },
            "sub_fixes": [],
            "transitions": []
        },
        {
            "name": "IKEL4E",
            "rnw": "04",
            "fixes": {
                "AA505": "AA505",
                "IKELO": "IKELO"
            },
            "sub_fixes": [],
            "transitions": []
        },
        {
            "name": "IKEL4W",
            "rnw": "22",
            "fixes": {
                "AA502": "OVERFLY AA502 AT OR ABOVE 400 TURN RIGHT DIRECT",
                "AA505": "AA505",
                "IKELO": "IKELO"
            },
            "sub_fixes": [],
            "transitions": []
        },
        {
            "name": "MOSM4E",
            "rnw": "04",
            "fixes": {
                "BOBIX": "OVERFLY BOBIX",
                "MOSMA": "MOSMA AT OR ABOVE 2100"
            },
            "sub_fixes": [],
            "transitions": []
        },
        {
            "name": "MOSM4W",
            "rnw": "22",
            "fixes": {
                "BOBIX": "OVERFLY BOBIX",
                "MOSMA": "MOSMA AT OR ABOVE 2100"
            },
            "sub_fixes": [],
            "transitions": []
        },
        {
            "name": "ONID3W",
            "rnw": "22",
            "fixes": {
                "TAF": "TAF SPEED 205 TRK 158 INTERCEPT RADIAL 183 TO",
                "ONIDO": "ONIDO"
            },
            "sub_fixes": [],
            "transitions": []
        },
        {
            "name": "ONID4W",
            "rnw": "22",
            "fixes": {
                "AA506": "AA506",
                "AA508": "AA508",
                "ONIDO": "ONIDO"
            },
            "sub_fixes": [],
            "transitions": []
        },
        {
            "name": "PAST3E",
            "rnw": "04",
            "fixes": {
                "MOANA": "OVERFLY MOANA TRK 106 INTERCEPT RADIAL 065 TO",
                "TAF23": "OVERFLY TAF23",
                "AF001": "AF001",
                "AF002": "AF002",
                "PASTI": "PASTI"
            },
            "sub_fixes": [],
            "transitions": []
        },
        {
            "name": "PAST4E",
            "rnw": "04",
            "fixes": {
                "MOANA": "MOANA",
                "AA501": "AA501",
                "PASTI": "OVERFLY PASTI AT OR ABOVE 9000"
            },
            "sub_fixes": [],
            "transitions": []
        },
        {
            "name": "VAIT3E",
            "rnw": "04",
            "fixes": {
                "VAITE": "VAITE"
            },
            "sub_fixes": [],
            "transitions": []
        },
        {
            "name": "VAIT3W",
            "rnw": "22",
            "fixes": {
                "TAF": "TAF SPEED 205 TURN RIGHT TRK 357 INTERCEPT RADIAL 309 TO",
                "VAITE": "VAITE"
            },
            "sub_fixes": [],
            "transitions": []
        },
        {
            "name": "VAIT4E",
            "rnw": "04",
            "fixes": {
                "AA503": "AA503",
                "VAITE": "VAITE"
            },
            "sub_fixes": [],
            "transitions": []
        },
        {
            "name": "VAIT4W",
            "rnw": "22",
            "fixes": {
                "AA502": "OVERFLY AA502 AT OR ABOVE 400 TURN RIGHT DIRECT",
                "AA503": "AA503",
                "VAITE": "VAITE"
            },
            "sub_fixes": [],
            "transitions": []
        }
    ],
    "stars": [
        {
            "name": "AROB3M",
            "runway": "RNW 22",
            "fixes": {
                "AROBA": "AROBA",
                "KARNO": "KARNO",
                "OVINI": "OVINI",
                "TAF": "TAF",
                "FF22": "FF22 AT OR ABOVE 6000",
                "MOANA": "MOANA AT OR ABOVE 3000"
            }
        },
        {
            "name": "AROB3V",
            "runway": "RNW 04",
            "fixes": {
                "AROBA": "AROBA",
                "KARNO": "KARNO",
                "OVINI": "OVINI"
            }
        },
        {
            "name": "ASOK3M",
            "runway": "RNW 22",
            "fixes": {
                "ASOKI": "ASOKI",
                "TAVIS": "TAVIS",
                "MOANA": "MOANA"
            }
        },
        {
            "name": "ASOK3V",
            "runway": "RNW 04",
            "fixes": {
                "ASOKI": "ASOKI",
                "TAVIS": "TAVIS",
                "MOANA": "MOANA",
                "TAF": "TAF",
                "D219F": "D219F AT OR ABOVE 6000",
                "OVINI": "OVINI AT OR ABOVE 3000"
            }
        },
        {
            "name": "IDUT3M",
            "runway": "RNW 22",
            "fixes": {
                "IDUTA": "IDUTA",
                "TAF35": "TAF35 SPEED 220",
                "TAF": "TAF",
                "FF22": "FF22 AT OR ABOVE 6000",
                "MOANA": "MOANA AT OR ABOVE 3000"
            }
        },
        {
            "name": "IDUT3V",
            "runway": "RNW 04",
            "fixes": {
                "IDUTA": "IDUTA",
                "D252R": "D252R",
                "D239R": "D239R AT OR ABOVE 5000",
                "D225R": "D225R AT OR ABOVE 3000 SPEED 220",
                "D219R": "D219R AT OR ABOVE 3000",
                "OVINI": "OVINI AT OR ABOVE 3000"
            }
        }
    ],
    "approaches": [
        {
            "name": "VORDZ04",
            "fixes": {
                "OVINI": "OVINI AT OR ABOVE 3000 OVINI 5000 FAF FS04Z MAP MA04",
                "FS04Z": "FS04Z 3000",
                "MA04": "MA04 297 RNW 04",
                "TAF": "TAF",
                "MOANA": "MOANA AT OR ABOVE 3000 HOLD AT MOANA RIGHT TURN INBOUNDCOURSE 222 ALT 5000 SPEED 220 LEGDIST 5"
            },
            "transitions": [
                {
                    "name": "OVINI",
                    "fixes": {
                        "OVINI": "OVINI RIGHT TURN INBOUNDCOURSE 039 ALT 3000 SPEED 200 LEGDIST 5"
                    }
                }
            ]
        },
        {
            "name": "VORDZ22",
            "fixes": {
                "MOANA": "MOANA AT OR ABOVE 3000 MOANA 5000 FAF FF22 MAP MA22",
                "FF22": "FF22 3000",
                "MA22": "MA22 560 RNW 22",
                "TAF": "TAF",
                "OVINI": "OVINI AT OR ABOVE 3000 HOLD AT OVINI RIGHT TURN INBOUNDCOURSE 039 ALT 5000 SPEED 200 LEGDIST 5"
            },
            "transitions": [
                {
                    "name": "MOANA",
                    "fixes": {
                        "MOANA": "MOANA RIGHT TURN INBOUNDCOURSE 222 ALT 3000 SPEED 220 LEGDIST 5"
                    }
                }
            ]
        },
        {
            "name": "ILSX04",
            "fixes": {
                "CI04": "CI04 AT OR ABOVE 3500",
                "FI04": "FI04 3500 RNW 04 TRK 041 UNTIL 9000 TURN RIGHT DIRECT",
                "FANB": "FANB FAF FI04 MAP RNW 04"
            },
            "transitions": [
                {
                    "name": "FA",
                    "fixes": {
                        "FANB": "FANB AT OR ABOVE 9000",
                        "CI04": "CI04 AT OR ABOVE 3500 TRK 174 UNTIL 4.4 FROM CI04"
                    }
                }
            ]
        },
        {
            "name": "ILSY04",
            "fixes": {
                "CI04": "CI04 AT OR ABOVE 3500",
                "FI04": "FI04 3500 RNW 04 TRK 041 UNTIL 9000 TURN RIGHT DIRECT",
                "TAF": "TAF FAF FI04 MAP RNW 04"
            },
            "transitions": [
                {
                    "name": "TAF",
                    "fixes": {
                        "TAF": "TAF AT OR ABOVE 9000",
                        "CI04": "CI04 AT OR ABOVE 3500 TRK 174 UNTIL 4.4 FROM CI04"
                    }
                }
            ]
        },
        {
            "name": "ILSZ04",
            "fixes": {
                "OVINI": "OVINI AT OR ABOVE 3000 OVINI 5000 FAF FF04Z MAP RNW 04",
                "FF04Z": "FF04Z 3000 RNW 04 TRK 041 UNTIL 510",
                "MOANA": "MOANA AT OR ABOVE 3000 HOLD AT MOANA RIGHT TURN INBOUNDCOURSE 222 ALT 5000 SPEED 220 LEGDIST 5"
            },
            "transitions": [
                {
                    "name": "OVINI",
                    "fixes": {
                        "OVINI": "OVINI RIGHT TURN INBOUNDCOURSE 039 ALT 3000 SPEED 200 LEGDIST 5"
                    }
                }
            ]
        },
        {
            "name": "NDB04",
            "fixes": {
                "FN04": "FN04 3500",
                "EP04": "OVERFLY EP04 55",
                "FANB": "OVERFLY FANB AT OR ABOVE 510 RNW 04 TRK 032 UNTIL 9000 TURN RIGHT DIRECT FANB FAF FN04 MAP FA"
            },
            "transitions": [
                {
                    "name": "FA",
                    "fixes": {
                        "FANB": "FANB AT OR ABOVE 9000",
                        "FN04": "FN04 AT OR ABOVE 3500 TRK 167 UNTIL 4.4 FROM FN04"
                    }
                }
            ]
        },
        {
            "name": "RNAV04",
            "fixes": {
                "IAA04": "IAA04 AT OR ABOVE 3000 SPEED 240",
                "FAA04": "FAA04 3000 RNW 04 TRK 041 UNTIL 1500 TURN LEFT DIRECT",
                "AA414": "AA414 SPEED 230",
                "AA416": "AA416",
                "VEDRI": "VEDRI AT OR ABOVE 5000 FAF FAA04 MAP RNW 04"
            },
            "transitions": [
                {
                    "name": "DUBAK",
                    "fixes": {
                        "DUBAK": "DUBAK AT OR ABOVE 5600 SPEED 240",
                        "KARNO": "KARNO AT OR ABOVE 3000 SPEED 240"
                    }
                },
                {
                    "name": "KARNO",
                    "fixes": {
                        "KARNO": "KARNO AT OR ABOVE 3000 SPEED 240"
                    }
                },
                {
                    "name": "VEDRI",
                    "fixes": {
                        "VEDRI": "VEDRI AT OR ABOVE 5600 SPEED 240",
                        "KARNO": "KARNO AT OR ABOVE 3000 SPEED 240"
                    }
                }
            ]
        },
        {
            "name": "RNAV22",
            "fixes": {
                "MOANA": "MOANA AT OR ABOVE 3000 SPEED 200",
                "FAA22": "FAA22 3000 RNW 22",
                "OVINI": "OVINI SPEED 200 HOLD AT OVINI RIGHT TURN INBOUNDCOURSE 041 ALT 5000 SPEED 200 LEGTIME 1",
                "TAVIS": "TAVIS AT OR ABOVE 5000 FAF FAA22 MAP RNW 22"
            },
            "transitions": [
                {
                    "name": "SALUT",
                    "fixes": {
                        "SALUT": "SALUT AT OR ABOVE 3000 SPEED 240"
                    }
                },
                {
                    "name": "TAVIS",
                    "fixes": {
                        "TAVIS": "TAVIS AT OR ABOVE 3000"
                    }
                }
            ]
        },
        {
            "name": "VORY04",
            "fixes": {
                "FS04": "FS04 3500 RNW 04",
                "TAF": "OVERFLY TAF TRK 039 UNTIL 9000 TURN RIGHT DIRECT TAF FAF FS04 MAP RNW 04"
            },
            "transitions": [
                {
                    "name": "TAF",
                    "fixes": {
                        "TAF": "TAF AT OR ABOVE 9000",
                        "FS04": "FS04 AT OR ABOVE 3500 TRK 174 UNTIL 4.4 FROM FS04"
                    }
                }
            ]
        },
        {
            "name": "VORY22",
            "fixes": {
                "FS22": "FS22 3500 RNW 22",
                "TAF": "OVERFLY TAF TRK 222 UNTIL 9000 TURN RIGHT DIRECT TAF FAF FS22 MAP RNW 22"
            },
            "transitions": [
                {
                    "name": "TAF",
                    "fixes": {
                        "TAF": "TAF AT OR ABOVE 9000",
                        "FS22": "FS22 AT OR ABOVE 3500 TRK 357 UNTIL 4.4 FROM FS22"
                    }
                }
            ]
        }
    ]
}