{
    "fixes": [
        {
            "name": "FMN02",
            "lat": 9.908,
            "lon": 139.09038888333333
        },
        {
            "name": "FMN20",
            "lat": 9.676305566666667,
            "lon": 138.95886111666667
        },
        {
            "name": "IBULO",
            "lat": 9.939861116666666,
            "lon": 139.20541666666668
        },
        {
            "name": "IKAMI",
            "lat": 9.548666666666668,
            "lon": 138.98327778333334
        },
        {
            "name": "IMN02",
            "lat": 9.980944433333333,
            "lon": 139.13183333333333
        },
        {
            "name": "IMN20",
            "lat": 9.58975,
            "lon": 138.90977778333334
        },
        {
            "name": "ISBON",
            "lat": 10.053888883333334,
            "lon": 139.17330556666667
        },
        {
            "name": "MMN02",
            "lat": 9.801452783333334,
            "lon": 139.029875
        },
        {
            "name": "MN713",
            "lat": 9.845861116666667,
            "lon": 138.96925
        },
        {
            "name": "MN715",
            "lat": 9.826305566666667,
            "lon": 138.92261111666667
        },
        {
            "name": "MN717",
            "lat": 9.630805566666666,
            "lon": 138.83625
        },
        {
            "name": "MN814",
            "lat": 9.86025,
            "lon": 138.96641666666667
        },
        {
            "name": "MN816",
            "lat": 10.022,
            "lon": 139.05822221666668
        }
    ],
    "rnws": [
        "RNW 02",
        "RNW 20"
    ],
    "sids": [],
    "stars": [],
    "approaches": [
        {
            "name": "RNAV02",
            "fixes": {
                "IMN02": "IMN02 AT OR ABOVE 4500 IMN02 AT OR ABOVE 4500 FAF FMN02 MAP MMN02",
                "FMN02": "FMN02 4500",
                "MMN02": "OVERFLY MMN02 2166 RNW 02 TURN RIGHT DIRECT",
                "MN814": "MN814 SPEED 130",
                "MN816": "MN816 AT OR ABOVE 4500"
            },
            "transitions": [
                {
                    "name": "IBULO",
                    "fixes": {
                        "IBULO": "IBULO AT OR ABOVE 5800"
                    }
                },
                {
                    "name": "ISBON",
                    "fixes": {
                        "ISBON": "ISBON AT OR ABOVE 5800"
                    }
                }
            ]
        },
        {
            "name": "RNAV20",
            "fixes": {
                "IMN20": "IMN20 AT OR ABOVE 4000 IMN20 AT OR ABOVE 4000 FAF FMN20 MAP RNW 20",
                "FMN20": "FMN20 4000 RNW 20",
                "MN713": "MN713",
                "MN715": "MN715",
                "MN717": "MN717 AT OR ABOVE 4000"
            },
            "transitions": [
                {
                    "name": "IKAMI",
                    "fixes": {
                        "IKAMI": "IKAMI AT OR ABOVE 5800"
                    }
                }
            ]
        }
    ]
}