{
    "fixes": [
        {
            "name": "ATALA",
            "lat": 16.599944433333334,
            "lon": 151.28286111666668
        },
        {
            "name": "BAMBI",
            "lat": 16.443583333333333,
            "lon": 151.75244443333332
        },
        {
            "name": "BATOP",
            "lat": 16.482805566666666,
            "lon": 151.50927778333335
        },
        {
            "name": "BBNB",
            "lat": 16.444305566666667,
            "lon": 151.75463888333334
        },
        {
            "name": "BELBO",
            "lat": 16.56563888333333,
            "lon": 151.56813888333335
        },
        {
            "name": "BELTI",
            "lat": 16.426277783333333,
            "lon": 151.59463888333335
        },
        {
            "name": "BIBUS",
            "lat": 16.201722216666667,
            "lon": 151.07461111666666
        },
        {
            "name": "BIDOP",
            "lat": 16.29975,
            "lon": 151.78563888333332
        },
        {
            "name": "BOKAL",
            "lat": 16.325722216666666,
            "lon": 151.92991666666666
        },
        {
            "name": "FF11",
            "lat": 16.386741666666666,
            "lon": 151.83374721666667
        },
        {
            "name": "FTB11",
            "lat": 16.382666666666665,
            "lon": 151.84425
        },
        {
            "name": "FTB29",
            "lat": 16.505888883333334,
            "lon": 151.65838888333334
        },
        {
            "name": "HHN",
            "lat": 16.685472216666668,
            "lon": 151.01052778333334
        },
        {
            "name": "MANAX",
            "lat": 16.422166666666666,
            "lon": 152.06388888333333
        },
        {
            "name": "MEKES",
            "lat": 16.426472216666667,
            "lon": 152.24238888333332
        },
        {
            "name": "MTB11",
            "lat": 16.431008333333335,
            "lon": 151.77138333333335
        },
        {
            "name": "NOMIS",
            "lat": 16.243,
            "lon": 151.87097221666667
        },
        {
            "name": "OSPOD",
            "lat": 16.704527783333333,
            "lon": 151.29638888333332
        },
        {
            "name": "RAN",
            "lat": 14.950416666666667,
            "lon": 147.67361111666668
        },
        {
            "name": "RELAK",
            "lat": 16.12680556666667,
            "lon": 151.24136111666667
        },
        {
            "name": "ROBNA",
            "lat": 16.246083333333335,
            "lon": 150.97566666666665
        },
        {
            "name": "RULOM",
            "lat": 16.723055566666666,
            "lon": 151.46694443333334
        },
        {
            "name": "RUNB",
            "lat": 16.721416666666666,
            "lon": 151.46658333333335
        },
        {
            "name": "RUTIX",
            "lat": 16.661944433333332,
            "lon": 151.69052778333332
        },
        {
            "name": "SUDOR",
            "lat": 16.730833333333333,
            "lon": 151.79558333333333
        },
        {
            "name": "TB416",
            "lat": 16.276333333333334,
            "lon": 151.75458333333333
        },
        {
            "name": "TB418",
            "lat": 16.311055566666667,
            "lon": 151.79436111666666
        },
        {
            "name": "TB422",
            "lat": 16.34538888333333,
            "lon": 151.66730556666667
        },
        {
            "name": "TB501",
            "lat": 16.497972216666668,
            "lon": 151.67033333333333
        },
        {
            "name": "TB502",
            "lat": 16.361638883333335,
            "lon": 151.69069443333333
        },
        {
            "name": "TB503",
            "lat": 16.556166666666666,
            "lon": 151.6775
        },
        {
            "name": "TB504",
            "lat": 16.593638883333334,
            "lon": 151.81105556666665
        },
        {
            "name": "UBKIM",
            "lat": 16.688305566666667,
            "lon": 151.02861111666667
        },
        {
            "name": "UDINI",
            "lat": 16.622944433333334,
            "lon": 151.23644443333333
        },
        {
            "name": "UDOLO",
            "lat": 16.503666666666668,
            "lon": 151.17486111666668
        }
    ],
    "rnws": [
        "RNW 11",
        "RNW 29"
    ],
    "sids": [
        {
            "name": "HHN3A",
            "rnw": "11",
            "fixes": {
                "HHN": "HHN"
            },
            "sub_fixes": [],
            "transitions": []
        },
        {
            "name": "HHN3B",
            "rnw": "29",
            "fixes": {
                "HHN": "HHN"
            },
            "sub_fixes": [],
            "transitions": []
        },
        {
            "name": "MANA1B",
            "rnw": "29",
            "fixes": {
                "MANAX": "MANAX AT OR ABOVE 1700"
            },
            "sub_fixes": [],
            "transitions": []
        },
        {
            "name": "MEKE1A",
            "rnw": "11",
            "fixes": {
                "TB501": "TB501",
                "TB503": "TB503",
                "TB504": "TB504",
                "MEKES": "MEKES AT OR ABOVE 2500"
            },
            "sub_fixes": [],
            "transitions": []
        },
        {
            "name": "RELA1B",
            "rnw": "29",
            "fixes": {
                "RELAK": "RELAK"
            },
            "sub_fixes": [],
            "transitions": []
        },
        {
            "name": "ROBN1A",
            "rnw": "11",
            "fixes": {
                "ROBNA": "ROBNA"
            },
            "sub_fixes": [],
            "transitions": []
        },
        {
            "name": "RU3A",
            "rnw": "11",
            "fixes": {
                "RUNB": "RUNB"
            },
            "sub_fixes": [],
            "transitions": []
        },
        {
            "name": "RU3B",
            "rnw": "29",
            "fixes": {
                "BBNB": "BBNB TRK 105 UNTIL 3400 TRK 167 INTERCEPT RADIAL 122 TO",
                "RUNB": "RUNB"
            },
            "sub_fixes": [],
            "transitions": []
        },
        {
            "name": "RULO1B",
            "rnw": "29",
            "fixes": {
                "TB504": "TB504",
                "RULOM": "RULOM AT OR ABOVE 5000"
            },
            "sub_fixes": [],
            "transitions": []
        },
        {
            "name": "RUTI1A",
            "rnw": "11",
            "fixes": {
                "TB501": "TB501",
                "TB503": "TB503",
                "RUTIX": "RUTIX AT OR ABOVE 2000"
            },
            "sub_fixes": [],
            "transitions": []
        },
        {
            "name": "SUDO1A",
            "rnw": "11",
            "fixes": {
                "TB501": "TB501 SPEED 210",
                "TB503": "TB503 SPEED 230",
                "TB504": "TB504",
                "SUDOR": "SUDOR AT OR ABOVE 5000"
            },
            "sub_fixes": [],
            "transitions": []
        },
        {
            "name": "SUDO1B",
            "rnw": "29",
            "fixes": {
                "TB504": "TB504",
                "SUDOR": "SUDOR AT OR ABOVE 5000"
            },
            "sub_fixes": [],
            "transitions": []
        },
        {
            "name": "UBKI1B",
            "rnw": "29",
            "fixes": {
                "TB502": "TB502",
                "UDOLO": "UDOLO",
                "UBKIM": "UBKIM AT OR ABOVE 4000"
            },
            "sub_fixes": [],
            "transitions": []
        },
        {
            "name": "UDIN1A",
            "rnw": "11",
            "fixes": {
                "TB501": "TB501",
                "UDINI": "UDINI AT OR ABOVE 2000"
            },
            "sub_fixes": [],
            "transitions": []
        }
    ],
    "stars": [
        {
            "name": "HHN1B",
            "runway": "RNW 11 RNW 29",
            "fixes": {
                "HHN": "HHN",
                "ATALA": "ATALA",
                "BBNB": "BBNB"
            }
        },
        {
            "name": "RAN1B",
            "runway": "RNW 11 RNW 29",
            "fixes": {
                "RAN": "RAN",
                "BIBUS": "BIBUS",
                "BBNB": "BBNB"
            }
        },
        {
            "name": "RU1B",
            "runway": "RNW 11 RNW 29",
            "fixes": {
                "HHN": "HHN",
                "OSPOD": "OSPOD",
                "RUNB": "RUNB",
                "BBNB": "BBNB"
            }
        }
    ],
    "approaches": [
        {
            "name": "NDBY11",
            "fixes": {
                "FF11": "FF11 1800 RNW 11",
                "BBNB": "OVERFLY BBNB TRK 114 UNTIL 520 TRK 029 UNTIL 4000 FAF FF11 MAP RNW 11"
            },
            "transitions": [
                {
                    "name": "BB",
                    "fixes": {
                        "BBNB": "BBNB AT OR ABOVE 4000 TRK 274 UNTIL 8.8 FROM BBNB"
                    }
                }
            ]
        },
        {
            "name": "NDBZ11",
            "fixes": {
                "FF11": "FF11 1800 RNW 11",
                "BBNB": "OVERFLY BBNB TRK 114 UNTIL 520 TRK 029 UNTIL 4000 FAF FF11 MAP RNW 11"
            },
            "transitions": [
                {
                    "name": "BB",
                    "fixes": {
                        "BBNB": "BBNB AT OR ABOVE 4000 TRK 281 UNTIL 9.0 FROM BBNB"
                    }
                }
            ]
        },
        {
            "name": "RNAVY11",
            "fixes": {
                "BOKAL": "BOKAL AT OR ABOVE 2000",
                "FTB11": "FTB11 2000",
                "MTB11": "OVERFLY MTB11 379 RNW 11 TURN LEFT DIRECT",
                "TB416": "TB416",
                "NOMIS": "NOMIS AT OR ABOVE 2000 FAF FTB11 MAP MTB11"
            },
            "transitions": [
                {
                    "name": "BAMBI",
                    "fixes": {
                        "BAMBI": "BAMBI AT OR ABOVE 4000",
                        "BIDOP": "BIDOP AT OR ABOVE 4000",
                        "NOMIS": "NOMIS AT OR ABOVE 2000"
                    }
                },
                {
                    "name": "NOMIS",
                    "fixes": {
                        "NOMIS": "NOMIS AT OR ABOVE 2000"
                    }
                }
            ]
        },
        {
            "name": "RNAVZ11",
            "fixes": {
                "BOKAL": "BOKAL AT OR ABOVE 2000",
                "FTB11": "FTB11 2000",
                "MTB11": "OVERFLY MTB11 379 RNW 11 TURN LEFT DIRECT",
                "TB418": "TB418",
                "NOMIS": "NOMIS AT OR ABOVE 2000 FAF FTB11 MAP MTB11"
            },
            "transitions": [
                {
                    "name": "BAMBI",
                    "fixes": {
                        "BAMBI": "BAMBI AT OR ABOVE 4000",
                        "BIDOP": "BIDOP AT OR ABOVE 4000",
                        "NOMIS": "NOMIS AT OR ABOVE 2000"
                    }
                },
                {
                    "name": "NOMIS",
                    "fixes": {
                        "NOMIS": "NOMIS AT OR ABOVE 2000"
                    }
                }
            ]
        },
        {
            "name": "RNAV29",
            "fixes": {
                "BELBO": "BELBO AT OR ABOVE 2000 SPEED 220",
                "FTB29": "FTB29 2000 RNW 29 TRK 292 UNTIL 1000 TURN RIGHT DIRECT",
                "TB422": "TB422",
                "BATOP": "BATOP AT OR ABOVE 2000 SPEED 220 FAF FTB29 MAP RNW 29"
            },
            "transitions": [
                {
                    "name": "BAMBI",
                    "fixes": {
                        "BAMBI": "BAMBI AT OR ABOVE 4000",
                        "BELTI": "BELTI AT OR ABOVE 4000 SPEED 220",
                        "BATOP": "BATOP AT OR ABOVE 2000"
                    }
                },
                {
                    "name": "BATOP",
                    "fixes": {
                        "BATOP": "BATOP AT OR ABOVE 2000 SPEED 220"
                    }
                }
            ]
        }
    ]
}