{
    "fixes": [
        {
            "name": "APEKO",
            "lat": 43.787022216666664,
            "lon": 176.73356111666666
        },
        {
            "name": "DULEV",
            "lat": 43.840833333333336,
            "lon": 176.58875
        },
        {
            "name": "ESDUN",
            "lat": 43.83761666666667,
            "lon": 176.20301666666666
        },
        {
            "name": "IDPUB",
            "lat": 43.67908056666667,
            "lon": 176.27404166666668
        },
        {
            "name": "MAVGI",
            "lat": 43.758355566666665,
            "lon": 176.23857778333334
        },
        {
            "name": "OPILO",
            "lat": 43.78425,
            "lon": 176.34789443333332
        },
        {
            "name": "RITVA",
            "lat": 43.866375,
            "lon": 176.69837778333334
        },
        {
            "name": "URKAP",
            "lat": 43.94571666666667,
            "lon": 176.66310278333333
        }
    ],
    "rnws": [
        "RNW 05",
        "RNW 23"
    ],
    "sids": [],
    "stars": [],
    "approaches": [
        {
            "name": "RNAV05",
            "fixes": {
                "RITVA": "RITVA AT OR ABOVE 2000",
                "DULEV": "DULEV 1680 RNW 05",
                "MAVGI": "MAVGI AT OR ABOVE 2000 HOLD AT MAVGI RIGHT TURN INBOUNDCOURSE 226 ALT 2000 LEGTIME 1 FAF DULEV MAP RNW 05"
            },
            "transitions": [
                {
                    "name": "APEKO",
                    "fixes": {
                        "APEKO": "APEKO"
                    }
                },
                {
                    "name": "RITVA",
                    "fixes": {
                        "RITVA": "RITVA RIGHT TURN INBOUNDCOURSE 046 ALT 2000 LEGTIME 1"
                    }
                },
                {
                    "name": "URKAP",
                    "fixes": {
                        "URKAP": "URKAP"
                    }
                }
            ]
        },
        {
            "name": "RNAV23",
            "fixes": {
                "MAVGI": "MAVGI AT OR ABOVE 2000",
                "OPILO": "OPILO 1660 RNW 23",
                "RITVA": "RITVA AT OR ABOVE 2000 HOLD AT RITVA RIGHT TURN INBOUNDCOURSE 046 ALT 2000 LEGTIME 1 FAF OPILO MAP RNW 23"
            },
            "transitions": [
                {
                    "name": "ESDUN",
                    "fixes": {
                        "ESDUN": "ESDUN"
                    }
                },
                {
                    "name": "IDPUB",
                    "fixes": {
                        "IDPUB": "IDPUB"
                    }
                },
                {
                    "name": "MAVGI",
                    "fixes": {
                        "MAVGI": "MAVGI RIGHT TURN INBOUNDCOURSE 226 ALT 2000 LEGTIME 1"
                    }
                }
            ]
        }
    ]
}