{
    "fixes": [
        {
            "name": "34VOR",
            "lat": 21.429677783333332,
            "lon": 40.54407221666666
        },
        {
            "name": "39VOR",
            "lat": 21.465216666666667,
            "lon": 40.48135833333333
        },
        {
            "name": "9NM",
            "lat": 22.05459443333333,
            "lon": 40.69724721666667
        },
        {
            "name": "AF001",
            "lat": 21.2398869,
            "lon": 40.30640988333333
        },
        {
            "name": "AF002",
            "lat": 21.205753383333334,
            "lon": 40.35426638333333
        },
        {
            "name": "AF003",
            "lat": 21.155617866666667,
            "lon": 40.50369141666667
        },
        {
            "name": "AF004",
            "lat": 21.1572335,
            "lon": 40.603163466666665
        },
        {
            "name": "AF005",
            "lat": 21.1843019,
            "lon": 40.6983318
        },
        {
            "name": "AF006",
            "lat": 21.777921833333334,
            "lon": 40.37322725
        },
        {
            "name": "AF007",
            "lat": 21.815692266666666,
            "lon": 40.491083016666664
        },
        {
            "name": "AF008",
            "lat": 21.813667283333334,
            "lon": 40.61575801666667
        },
        {
            "name": "AF009",
            "lat": 21.701363983333334,
            "lon": 40.517484716666665
        },
        {
            "name": "AF010",
            "lat": 21.678331149999998,
            "lon": 40.43898898333333
        },
        {
            "name": "AF011",
            "lat": 21.631361183333333,
            "lon": 40.374036866666664
        },
        {
            "name": "AF012",
            "lat": 21.566327366666666,
            "lon": 40.33073363333333
        },
        {
            "name": "AF013",
            "lat": 21.491352633333335,
            "lon": 40.31445645
        },
        {
            "name": "AF014",
            "lat": 21.525180516666666,
            "lon": 40.31811685
        },
        {
            "name": "AF015",
            "lat": 21.46994085,
            "lon": 40.31509321666667
        },
        {
            "name": "AF016",
            "lat": 21.49009235,
            "lon": 40.31443088333333
        },
        {
            "name": "AF017",
            "lat": 21.452420883333332,
            "lon": 40.31732173333333
        },
        {
            "name": "AF018",
            "lat": 21.702610316666668,
            "lon": 40.56351693333333
        },
        {
            "name": "AF019",
            "lat": 21.702313166666666,
            "lon": 40.52692566666666
        },
        {
            "name": "AF020",
            "lat": 21.619018183333335,
            "lon": 40.36297078333333
        },
        {
            "name": "AF021",
            "lat": 21.65359206666667,
            "lon": 40.398969316666665
        },
        {
            "name": "AF022",
            "lat": 21.679918183333335,
            "lon": 40.44230528333333
        },
        {
            "name": "AF023",
            "lat": 21.67311683333333,
            "lon": 40.665581816666666
        },
        {
            "name": "AF024",
            "lat": 21.631361183333333,
            "lon": 40.72046313333333
        },
        {
            "name": "AF025",
            "lat": 21.576188633333334,
            "lon": 40.759264216666665
        },
        {
            "name": "AF026",
            "lat": 21.362089416666667,
            "lon": 40.73782598333333
        },
        {
            "name": "AF027",
            "lat": 21.408685516666665,
            "lon": 40.76451708333333
        },
        {
            "name": "AF028",
            "lat": 21.459908416666668,
            "lon": 40.778321016666666
        },
        {
            "name": "AF029",
            "lat": 21.502368633333333,
            "lon": 40.31501613333333
        },
        {
            "name": "AF030",
            "lat": 21.424787516666665,
            "lon": 40.32408448333333
        },
        {
            "name": "AF031",
            "lat": 21.3552233,
            "lon": 40.36206858333333
        },
        {
            "name": "AF032",
            "lat": 21.286034783333335,
            "lon": 40.458890116666666
        },
        {
            "name": "AF033",
            "lat": 21.275071016666665,
            "lon": 40.496265066666666
        },
        {
            "name": "AF034",
            "lat": 21.292257783333334,
            "lon": 40.65040273333334
        },
        {
            "name": "AF035",
            "lat": 21.274275183333334,
            "lon": 40.59426776666667
        },
        {
            "name": "AF036",
            "lat": 21.277177533333333,
            "lon": 40.60742941666667
        },
        {
            "name": "AF037",
            "lat": 21.270990716666667,
            "lon": 40.57155345
        },
        {
            "name": "BOVAV",
            "lat": 21.256888883333332,
            "lon": 40.46972221666667
        },
        {
            "name": "BOXID",
            "lat": 20.829194433333335,
            "lon": 41.145527783333335
        },
        {
            "name": "BUBIM",
            "lat": 22.458805566666665,
            "lon": 40.78372221666667
        },
        {
            "name": "D010M",
            "lat": 21.698330566666666,
            "lon": 40.599586116666664
        },
        {
            "name": "D028T",
            "lat": 21.773072216666666,
            "lon": 40.731775
        },
        {
            "name": "D080M",
            "lat": 21.513527783333334,
            "lon": 40.77788888333333
        },
        {
            "name": "D136M",
            "lat": 21.322291666666665,
            "lon": 40.6995
        },
        {
            "name": "D136O",
            "lat": 21.295877783333335,
            "lon": 40.721475
        },
        {
            "name": "D136T",
            "lat": 21.232305566666668,
            "lon": 40.77945
        },
        {
            "name": "D153M",
            "lat": 21.287797216666668,
            "lon": 40.641616666666664
        },
        {
            "name": "D180M",
            "lat": 21.269319433333333,
            "lon": 40.53510833333333
        },
        {
            "name": "D200T",
            "lat": 21.178469433333333,
            "lon": 40.40788056666667
        },
        {
            "name": "D209M",
            "lat": 21.302019433333335,
            "lon": 40.424286116666664
        },
        {
            "name": "D229O",
            "lat": 21.33145,
            "lon": 40.33657778333333
        },
        {
            "name": "D229T",
            "lat": 21.279716666666666,
            "lon": 40.266452783333335
        },
        {
            "name": "D248J",
            "lat": 21.431927783333332,
            "lon": 40.37833333333333
        },
        {
            "name": "D248M",
            "lat": 21.41625,
            "lon": 40.327666666666666
        },
        {
            "name": "D278M",
            "lat": 21.527805566666668,
            "lon": 40.31912221666666
        },
        {
            "name": "D292M",
            "lat": 21.57785,
            "lon": 40.336363883333334
        },
        {
            "name": "D308T",
            "lat": 21.70572221666667,
            "lon": 40.277088883333334
        },
        {
            "name": "D343M",
            "lat": 21.698166666666665,
            "lon": 40.49094443333333
        },
        {
            "name": "EGPOB",
            "lat": 20.924361116666667,
            "lon": 39.786
        },
        {
            "name": "EMOTO",
            "lat": 21.379027783333335,
            "lon": 40.55977778333333
        },
        {
            "name": "GEVEM",
            "lat": 21.034138883333334,
            "lon": 39.93477778333333
        },
        {
            "name": "ISLAM",
            "lat": 21.78,
            "lon": 39.86666666666667
        },
        {
            "name": "KAPAV",
            "lat": 22.112444433333334,
            "lon": 39.772333333333336
        },
        {
            "name": "KAPED",
            "lat": 21.638666666666666,
            "lon": 40.743861116666665
        },
        {
            "name": "LAKNO",
            "lat": 21.168777783333333,
            "lon": 40.83744443333333
        },
        {
            "name": "LUDIK",
            "lat": 21.382916666666667,
            "lon": 40.54147221666667
        },
        {
            "name": "MA07",
            "lat": 21.475575,
            "lon": 40.513455566666664
        },
        {
            "name": "MA17",
            "lat": 21.512438883333335,
            "lon": 40.54033056666667
        },
        {
            "name": "MA25",
            "lat": 21.488516666666666,
            "lon": 40.564991666666664
        },
        {
            "name": "MA35",
            "lat": 21.468097216666667,
            "lon": 40.546219433333334
        },
        {
            "name": "MENDA",
            "lat": 21.904055566666667,
            "lon": 40.52380556666667
        },
        {
            "name": "MEVKI",
            "lat": 21.445027783333334,
            "lon": 40.800277783333335
        },
        {
            "name": "MISAM",
            "lat": 21.904166666666665,
            "lon": 40.031388883333335
        },
        {
            "name": "NM35",
            "lat": 22.057433333333332,
            "lon": 40.685625
        },
        {
            "name": "NOKTA",
            "lat": 21.598472216666668,
            "lon": 40.51738888333333
        },
        {
            "name": "PI001",
            "lat": 21.655072116666666,
            "lon": 40.50220515
        },
        {
            "name": "PI002",
            "lat": 21.6919701,
            "lon": 40.436093066666665
        },
        {
            "name": "PI003",
            "lat": 21.76018253333333,
            "lon": 40.473975116666665
        },
        {
            "name": "PI004",
            "lat": 21.5053753,
            "lon": 40.71236973333333
        },
        {
            "name": "PI005",
            "lat": 21.5618427,
            "lon": 40.75981208333333
        },
        {
            "name": "PI006",
            "lat": 21.518495233333333,
            "lon": 40.827957366666666
        },
        {
            "name": "RESOT",
            "lat": 21.448305566666665,
            "lon": 40.429
        },
        {
            "name": "RW25",
            "lat": 21.486205566666666,
            "lon": 40.55548056666667
        },
        {
            "name": "SETKU",
            "lat": 21.498277783333332,
            "lon": 40.650138883333334
        },
        {
            "name": "SISOP",
            "lat": 21.508527783333335,
            "lon": 40.64225
        },
        {
            "name": "TAF11",
            "lat": 21.486472216666666,
            "lon": 40.54725
        },
        {
            "name": "TAF12",
            "lat": 21.626944433333332,
            "lon": 40.22269443333333
        },
        {
            "name": "TAF13",
            "lat": 21.541833333333333,
            "lon": 40.77197221666667
        },
        {
            "name": "TAF14",
            "lat": 21.906944433333333,
            "lon": 40.66583333333333
        },
        {
            "name": "TAF15",
            "lat": 21.23027778333333,
            "lon": 40.776944433333334
        },
        {
            "name": "TAF21",
            "lat": 21.455,
            "lon": 40.434722216666664
        },
        {
            "name": "TAF31",
            "lat": 21.589166666666667,
            "lon": 40.52861111666667
        },
        {
            "name": "TAF32",
            "lat": 21.647222216666666,
            "lon": 40.34111111666667
        },
        {
            "name": "TAF33",
            "lat": 21.701111116666667,
            "lon": 40.686111116666666
        },
        {
            "name": "TAF34",
            "lat": 21.320555566666666,
            "lon": 40.34611111666667
        },
        {
            "name": "TAF35",
            "lat": 21.294444433333332,
            "lon": 40.71972221666667
        },
        {
            "name": "TAF41",
            "lat": 21.393611116666666,
            "lon": 40.557777783333336
        },
        {
            "name": "TAF51",
            "lat": 21.508333333333333,
            "lon": 40.641666666666666
        },
        {
            "name": "TATRO",
            "lat": 22.498055566666668,
            "lon": 41.20261111666667
        },
        {
            "name": "TIF",
            "lat": 21.486472216666666,
            "lon": 40.54725
        },
        {
            "name": "TUKEL",
            "lat": 21.270694433333333,
            "lon": 40.575777783333336
        }
    ],
    "rnws": [
        "RNW 07",
        "RNW 17",
        "RNW 25",
        "RNW 35"
    ],
    "sids": [
        {
            "name": "ALPHA1",
            "rnw": "05L",
            "fixes": {},
            "sub_fixes": [
                {
                    "rwy": "RNW 07",
                    "fixes": {
                        "RNW 07": "RNW 07 HDG 071 UNTIL 5250 HDG 071 VECTORS"
                    }
                },
                {
                    "rwy": "RNW 17",
                    "fixes": {
                        "RNW 17": "RNW 17 HDG 169 UNTIL 5250 HDG 169 VECTORS"
                    }
                },
                {
                    "rwy": "RNW 25",
                    "fixes": {
                        "RNW 25": "RNW 25 HDG 251 UNTIL 5250 HDG 251 VECTORS"
                    }
                },
                {
                    "rwy": "RNW 35",
                    "fixes": {
                        "RNW 35": "RNW 35 HDG 349 UNTIL 5250 HDG 349 VECTORS"
                    }
                }
            ],
            "transitions": []
        },
        {
            "name": "BOXI1A",
            "rnw": "25",
            "fixes": {
                "TIF": "TIF TURN LEFT HDG 091 INTERCEPT RADIAL 136 TO",
                "D136O": "D136O",
                "BOXID": "BOXID"
            },
            "sub_fixes": [],
            "transitions": []
        },
        {
            "name": "BOXI1B",
            "rnw": "35",
            "fixes": {
                "TIF": "TIF TURN LEFT HDG 199 INTERCEPT RADIAL 229 TO",
                "D229T": "D229T",
                "AF001": "AF001",
                "AF002": "AF002",
                "D200T": "D200T AT OR ABOVE 11000",
                "AF003": "AF003",
                "AF004": "AF004",
                "AF005": "AF005",
                "D136T": "D136T",
                "BOXID": "BOXID"
            },
            "sub_fixes": [],
            "transitions": []
        },
        {
            "name": "BOXI1C",
            "rnw": "07",
            "fixes": {
                "TIF": "TIF TURN RIGHT HDG 181 INTERCEPT RADIAL 136 TO",
                "D136O": "D136O",
                "BOXID": "BOXID"
            },
            "sub_fixes": [],
            "transitions": []
        },
        {
            "name": "BOXI1D",
            "rnw": "17",
            "fixes": {
                "TIF": "TIF HDG 106 INTERCEPT RADIAL 136 TO",
                "D136O": "D136O",
                "BOXID": "BOXID"
            },
            "sub_fixes": [],
            "transitions": []
        },
        {
            "name": "BOXI1E",
            "rnw": "25",
            "fixes": {
                "TAF21": "OVERFLY TAF21 9000 TURN LEFT DIRECT",
                "TAF35": "TAF35",
                "BOXID": "BOXID"
            },
            "sub_fixes": [],
            "transitions": []
        },
        {
            "name": "BOXI1F",
            "rnw": "35",
            "fixes": {
                "TAF31": "OVERFLY TAF31 9000 TURN LEFT DIRECT",
                "TAF35": "TAF35",
                "BOXID": "BOXID"
            },
            "sub_fixes": [],
            "transitions": []
        },
        {
            "name": "BOXI1G",
            "rnw": "07",
            "fixes": {
                "TAF51": "OVERFLY TAF51 9000",
                "TAF35": "TAF35",
                "BOXID": "BOXID"
            },
            "sub_fixes": [],
            "transitions": []
        },
        {
            "name": "BOXI1H",
            "rnw": "17",
            "fixes": {
                "TAF41": "OVERFLY TAF41 9000",
                "TAF35": "TAF35",
                "BOXID": "BOXID"
            },
            "sub_fixes": [],
            "transitions": []
        },
        {
            "name": "GEVE1A",
            "rnw": "25",
            "fixes": {
                "TIF": "TIF HDG 199 INTERCEPT RADIAL 229 TO",
                "D229O": "D229O",
                "GEVEM": "GEVEM"
            },
            "sub_fixes": [],
            "transitions": []
        },
        {
            "name": "GEVE1B",
            "rnw": "35",
            "fixes": {
                "TIF": "TIF TURN LEFT HDG 199 INTERCEPT RADIAL 229 TO",
                "D229O": "D229O",
                "GEVEM": "GEVEM"
            },
            "sub_fixes": [],
            "transitions": []
        },
        {
            "name": "GEVE1C",
            "rnw": "07",
            "fixes": {
                "TIF": "TIF TURN RIGHT HDG 259 INTERCEPT RADIAL 229 TO",
                "D229O": "D229O",
                "GEVEM": "GEVEM"
            },
            "sub_fixes": [],
            "transitions": []
        },
        {
            "name": "GEVE1D",
            "rnw": "17",
            "fixes": {
                "TIF": "TIF HDG 259 INTERCEPT RADIAL 229 TO",
                "D229O": "D229O",
                "GEVEM": "GEVEM"
            },
            "sub_fixes": [],
            "transitions": []
        },
        {
            "name": "GEVE1E",
            "rnw": "25",
            "fixes": {
                "TAF21": "OVERFLY TAF21 9000",
                "TAF34": "TAF34",
                "GEVEM": "GEVEM",
                "EGPOB": "EGPOB"
            },
            "sub_fixes": [],
            "transitions": []
        },
        {
            "name": "GEVE1F",
            "rnw": "35",
            "fixes": {
                "TAF31": "OVERFLY TAF31 9000 TURN LEFT DIRECT",
                "TAF34": "TAF34",
                "GEVEM": "GEVEM",
                "EGPOB": "EGPOB"
            },
            "sub_fixes": [],
            "transitions": []
        },
        {
            "name": "GEVE1G",
            "rnw": "07",
            "fixes": {
                "TAF51": "OVERFLY TAF51 9000 TURN RIGHT DIRECT",
                "TAF34": "TAF34",
                "GEVEM": "GEVEM",
                "EGPOB": "EGPOB"
            },
            "sub_fixes": [],
            "transitions": []
        },
        {
            "name": "GEVE1H",
            "rnw": "17",
            "fixes": {
                "TAF41": "OVERFLY TAF41 9000",
                "TAF34": "TAF34",
                "GEVEM": "GEVEM",
                "EGPOB": "EGPOB"
            },
            "sub_fixes": [],
            "transitions": []
        },
        {
            "name": "MISA1A",
            "rnw": "25",
            "fixes": {
                "TIF": "TIF HDG 338 INTERCEPT RADIAL 308 TO",
                "D308T": "D308T",
                "MISAM": "MISAM"
            },
            "sub_fixes": [],
            "transitions": []
        },
        {
            "name": "MISA1B",
            "rnw": "35",
            "fixes": {
                "TIF": "TIF HDG 278 INTERCEPT RADIAL 308 TO",
                "D308T": "D308T",
                "MISAM": "MISAM"
            },
            "sub_fixes": [],
            "transitions": []
        },
        {
            "name": "MISA1C",
            "rnw": "07",
            "fixes": {
                "TIF": "TIF TURN LEFT HDG 278 INTERCEPT RADIAL 308 TO",
                "D308T": "D308T",
                "MISAM": "MISAM"
            },
            "sub_fixes": [],
            "transitions": []
        },
        {
            "name": "MISA1D",
            "rnw": "17",
            "fixes": {
                "TIF": "TIF TURN RIGHT HDG 338 INTERCEPT RADIAL 308 TO",
                "D308T": "D308T",
                "MISAM": "MISAM"
            },
            "sub_fixes": [],
            "transitions": []
        },
        {
            "name": "MISA1E",
            "rnw": "25",
            "fixes": {
                "TAF21": "OVERFLY TAF21 9000",
                "TAF32": "TAF32",
                "MISAM": "MISAM",
                "KAPAV": "KAPAV"
            },
            "sub_fixes": [],
            "transitions": []
        },
        {
            "name": "MISA1F",
            "rnw": "35",
            "fixes": {
                "TAF31": "OVERFLY TAF31 9000",
                "TAF32": "TAF32",
                "MISAM": "MISAM",
                "KAPAV": "KAPAV"
            },
            "sub_fixes": [],
            "transitions": []
        },
        {
            "name": "MISA1G",
            "rnw": "07",
            "fixes": {
                "TAF51": "OVERFLY TAF51 9000 TURN LEFT DIRECT",
                "TAF32": "TAF32",
                "MISAM": "MISAM",
                "KAPAV": "KAPAV"
            },
            "sub_fixes": [],
            "transitions": []
        },
        {
            "name": "MISA1H",
            "rnw": "17",
            "fixes": {
                "TAF41": "OVERFLY TAF41 9000 TURN RIGHT DIRECT",
                "TAF32": "TAF32",
                "MISAM": "MISAM",
                "KAPAV": "KAPAV"
            },
            "sub_fixes": [],
            "transitions": []
        },
        {
            "name": "TATR1A",
            "rnw": "25",
            "fixes": {
                "TIF": "TIF TURN RIGHT HDG 058 INTERCEPT RADIAL 028 TO",
                "D028T": "D028T",
                "TATRO": "TATRO"
            },
            "sub_fixes": [],
            "transitions": []
        },
        {
            "name": "TATR1B",
            "rnw": "35",
            "fixes": {
                "TIF": "TIF HDG 058 INTERCEPT RADIAL 028 TO",
                "D028T": "D028T",
                "TATRO": "TATRO"
            },
            "sub_fixes": [],
            "transitions": []
        },
        {
            "name": "TATR1C",
            "rnw": "07",
            "fixes": {
                "TIF": "TIF HDG 358 INTERCEPT RADIAL 028 TO",
                "D028T": "D028T",
                "TATRO": "TATRO"
            },
            "sub_fixes": [],
            "transitions": []
        },
        {
            "name": "TATR1D",
            "rnw": "17",
            "fixes": {
                "TIF": "TIF",
                "D308T": "D308T",
                "AF006": "AF006",
                "AF007": "AF007",
                "AF008": "AF008",
                "D028T": "D028T",
                "TATRO": "TATRO"
            },
            "sub_fixes": [],
            "transitions": []
        },
        {
            "name": "TATR1E",
            "rnw": "25",
            "fixes": {
                "TAF21": "OVERFLY TAF21 9000 TURN RIGHT DIRECT",
                "TAF33": "TAF33",
                "TATRO": "TATRO"
            },
            "sub_fixes": [],
            "transitions": []
        },
        {
            "name": "TATR1F",
            "rnw": "35",
            "fixes": {
                "TAF31": "OVERFLY TAF31 9000",
                "TAF33": "TAF33",
                "TATRO": "TATRO"
            },
            "sub_fixes": [],
            "transitions": []
        },
        {
            "name": "TATR1G",
            "rnw": "07",
            "fixes": {
                "TAF51": "OVERFLY TAF51 9000",
                "TAF33": "TAF33",
                "TATRO": "TATRO"
            },
            "sub_fixes": [],
            "transitions": []
        },
        {
            "name": "TATR1H",
            "rnw": "17",
            "fixes": {
                "TAF41": "OVERFLY TAF41 9000 TURN RIGHT DIRECT",
                "TAF33": "TAF33",
                "TATRO": "TATRO"
            },
            "sub_fixes": [],
            "transitions": []
        }
    ],
    "stars": [],
    "approaches": [
        {
            "name": "VORD07",
            "fixes": {
                "RESOT": "RESOT 6600",
                "39VOR": "39VOR AT OR ABOVE 5620",
                "MA07": "MA07 5031 RNW 07",
                "TIF": "TIF AT OR ABOVE 5250",
                "MENDA": "MENDA 8000 HOLD AT MENDA RIGHT TURN INBOUNDCOURSE 174 LEGTIME 1 FAF RESOT MAP MA07"
            },
            "transitions": [
                {
                    "name": "BUBIM",
                    "fixes": {
                        "BUBIM": "BUBIM",
                        "D010M": "D010M",
                        "AF009": "AF009",
                        "AF010": "AF010",
                        "AF011": "AF011",
                        "AF012": "AF012",
                        "AF013": "AF013",
                        "D248M": "D248M AT OR ABOVE 8200",
                        "D248J": "D248J AT OR ABOVE 7400"
                    }
                },
                {
                    "name": "ISLAM",
                    "fixes": {
                        "ISLAM": "ISLAM",
                        "D292M": "D292M",
                        "AF014": "AF014",
                        "AF015": "AF015",
                        "D248M": "D248M AT OR ABOVE 8200",
                        "D248J": "D248J AT OR ABOVE 7400"
                    }
                },
                {
                    "name": "TIF",
                    "fixes": {
                        "TIF": "TIF",
                        "D278M": "D278M AT OR ABOVE 8200",
                        "AF016": "AF016",
                        "AF017": "AF017",
                        "D248M": "D248M AT OR ABOVE 8200",
                        "D248J": "D248J AT OR ABOVE 7400"
                    }
                }
            ]
        },
        {
            "name": "VORD17",
            "fixes": {
                "NOKTA": "NOKTA 6600",
                "MA17": "MA17 4918 RNW 17",
                "TIF": "TIF AT OR ABOVE 5250",
                "LAKNO": "LAKNO 10000 HOLD AT LAKNO LEFT TURN INBOUNDCOURSE 316 LEGTIME 1 FAF NOKTA MAP MA17"
            },
            "transitions": [
                {
                    "name": "BUBIM",
                    "fixes": {
                        "BUBIM": "BUBIM",
                        "D010M": "D010M",
                        "AF018": "AF018",
                        "AF019": "AF019",
                        "D343M": "D343M AT OR ABOVE 7500"
                    }
                },
                {
                    "name": "ISLAM",
                    "fixes": {
                        "ISLAM": "ISLAM",
                        "D292M": "D292M",
                        "AF020": "AF020",
                        "AF021": "AF021",
                        "AF022": "AF022",
                        "D343M": "D343M AT OR ABOVE 7500"
                    }
                },
                {
                    "name": "TIF",
                    "fixes": {
                        "TIF": "TIF",
                        "NOKTA": "NOKTA AT OR ABOVE 7500",
                        "PI001": "PI001 AT OR ABOVE 7500 SPEED 210",
                        "PI002": "OVERFLY PI002 AT OR ABOVE 7500 SPEED 210",
                        "PI003": "PI003 AT OR ABOVE 7500 SPEED 210"
                    }
                }
            ]
        },
        {
            "name": "VORD25",
            "fixes": {
                "SETKU": "SETKU 6500",
                "MA25": "MA25 4973 RNW 25 TURN LEFT TRK 106 INTERCEPT RADIAL 136 TO",
                "LAKNO": "LAKNO LAKNO 10000 HOLD AT LAKNO LEFT TURN INBOUNDCOURSE 316 LEGTIME 1 FAF SETKU MAP MA25"
            },
            "transitions": [
                {
                    "name": "BUBIM",
                    "fixes": {
                        "BUBIM": "BUBIM",
                        "D010M": "D010M",
                        "AF023": "AF023",
                        "AF024": "AF024",
                        "AF025": "AF025",
                        "D080M": "D080M AT OR ABOVE 7500"
                    }
                },
                {
                    "name": "LAKNO",
                    "fixes": {
                        "LAKNO": "LAKNO",
                        "D136M": "D136M",
                        "AF026": "AF026",
                        "AF027": "AF027",
                        "AF028": "AF028",
                        "D080M": "D080M AT OR ABOVE 7500"
                    }
                },
                {
                    "name": "TIF",
                    "fixes": {
                        "TIF": "TIF",
                        "SETKU": "SETKU AT OR ABOVE 7500",
                        "PI004": "PI004 AT OR ABOVE 7500 SPEED 210",
                        "PI005": "OVERFLY PI005 AT OR ABOVE 7500 SPEED 210",
                        "PI006": "PI006 AT OR ABOVE 7500 SPEED 210"
                    }
                }
            ]
        },
        {
            "name": "VORD35",
            "fixes": {
                "LUDIK": "LUDIK 6600",
                "34VOR": "34VOR AT OR ABOVE 5720",
                "MA35": "MA35 4983 RNW 35",
                "TIF": "TIF AT OR ABOVE 5250",
                "MENDA": "MENDA 8000 HOLD AT MENDA RIGHT TURN INBOUNDCOURSE 174 LEGTIME 1 FAF LUDIK MAP MA35"
            },
            "transitions": [
                {
                    "name": "ISLAM",
                    "fixes": {
                        "ISLAM": "ISLAM",
                        "D292M": "D292M",
                        "AF029": "AF029",
                        "AF030": "AF030",
                        "AF031": "AF031",
                        "D209M": "D209M AT OR ABOVE 9000",
                        "AF032": "AF032",
                        "AF033": "AF033",
                        "D180M": "D180M AT OR ABOVE 8000"
                    }
                },
                {
                    "name": "LAKNO",
                    "fixes": {
                        "LAKNO": "LAKNO",
                        "D136M": "D136M",
                        "AF034": "AF034",
                        "AF035": "AF035",
                        "D180M": "D180M AT OR ABOVE 8000"
                    }
                },
                {
                    "name": "TIF",
                    "fixes": {
                        "TIF": "TIF",
                        "D153M": "D153M AT OR ABOVE 8000",
                        "AF036": "AF036",
                        "AF037": "AF037",
                        "D180M": "D180M AT OR ABOVE 8000"
                    }
                }
            ]
        },
        {
            "name": "ILS25",
            "fixes": {
                "TAF13": "TAF13 AT OR ABOVE 7500",
                "SISOP": "SISOP 6424 RNW 25 TRK 251 UNTIL 5300 TURN LEFT DIRECT",
                "LAKNO": "LAKNO 10000 HOLD AT LAKNO LEFT TURN INBOUNDCOURSE 316 LEGTIME 1 FAF SISOP MAP RNW 25"
            },
            "transitions": [
                {
                    "name": "BOXID",
                    "fixes": {
                        "BOXID": "BOXID",
                        "TAF15": "TAF15 AT OR ABOVE 9000",
                        "MEVKI": "MEVKI AT OR ABOVE 8000"
                    }
                },
                {
                    "name": "BUBIM",
                    "fixes": {
                        "BUBIM": "BUBIM",
                        "9NM": "9NM AT OR ABOVE 11000",
                        "TAF14": "TAF14 AT OR ABOVE 8000",
                        "KAPED": "KAPED AT OR ABOVE 8000"
                    }
                },
                {
                    "name": "ISLAM",
                    "fixes": {
                        "ISLAM": "ISLAM",
                        "TAF12": "TAF12 AT OR ABOVE 8000",
                        "KAPED": "KAPED AT OR ABOVE 8000"
                    }
                }
            ]
        },
        {
            "name": "ILS35",
            "fixes": {
                "TUKEL": "TUKEL AT OR ABOVE 8000",
                "EMOTO": "EMOTO 6732 RNW 35 TRK 349 UNTIL 5250",
                "MENDA": "MENDA 8000 HOLD AT MENDA RIGHT TURN INBOUNDCOURSE 174 LEGTIME 1 FAF EMOTO MAP RNW 35"
            },
            "transitions": [
                {
                    "name": "BOXID",
                    "fixes": {
                        "BOXID": "BOXID",
                        "LAKNO": "LAKNO AT OR ABOVE 9000"
                    }
                },
                {
                    "name": "BUBIM",
                    "fixes": {
                        "BUBIM": "BUBIM",
                        "NM35": "NM35 AT OR ABOVE 11000",
                        "TAF11": "TAF11 AT OR ABOVE 8000"
                    }
                },
                {
                    "name": "ISLAM",
                    "fixes": {
                        "ISLAM": "ISLAM",
                        "TAF12": "TAF12 AT OR ABOVE 8500",
                        "BOVAV": "BOVAV AT OR ABOVE 8500"
                    }
                }
            ]
        },
        {
            "name": "VOR07",
            "fixes": {
                "RESOT": "RESOT 6600",
                "39VOR": "39VOR AT OR ABOVE 5620",
                "MA07": "MA07 5031 RNW 07",
                "TIF": "TIF AT OR ABOVE 5250",
                "MENDA": "MENDA 8000 HOLD AT MENDA RIGHT TURN INBOUNDCOURSE 174 LEGTIME 1 FAF RESOT MAP MA07"
            },
            "transitions": [
                {
                    "name": "BUBIM",
                    "fixes": {
                        "BUBIM": "BUBIM",
                        "D010M": "D010M",
                        "AF009": "AF009",
                        "AF010": "AF010",
                        "AF011": "AF011",
                        "AF012": "AF012",
                        "AF013": "AF013",
                        "D248M": "D248M AT OR ABOVE 8200",
                        "D248J": "D248J AT OR ABOVE 7400"
                    }
                },
                {
                    "name": "ISLAM",
                    "fixes": {
                        "ISLAM": "ISLAM",
                        "D292M": "D292M",
                        "AF014": "AF014",
                        "AF015": "AF015",
                        "D248M": "D248M AT OR ABOVE 8200",
                        "D248J": "D248J AT OR ABOVE 7400"
                    }
                },
                {
                    "name": "TIF",
                    "fixes": {
                        "TIF": "TIF",
                        "D278M": "D278M AT OR ABOVE 8200",
                        "AF016": "AF016",
                        "AF017": "AF017",
                        "D248M": "D248M AT OR ABOVE 8200",
                        "D248J": "D248J AT OR ABOVE 7400"
                    }
                }
            ]
        },
        {
            "name": "VOR17",
            "fixes": {
                "NOKTA": "NOKTA 6600",
                "MA17": "MA17 4918 RNW 17",
                "TIF": "TIF AT OR ABOVE 5250",
                "LAKNO": "LAKNO 10000 HOLD AT LAKNO LEFT TURN INBOUNDCOURSE 316 LEGTIME 1 FAF NOKTA MAP MA17"
            },
            "transitions": [
                {
                    "name": "BUBIM",
                    "fixes": {
                        "BUBIM": "BUBIM",
                        "D010M": "D010M",
                        "AF018": "AF018",
                        "AF019": "AF019",
                        "D343M": "D343M AT OR ABOVE 7500"
                    }
                },
                {
                    "name": "ISLAM",
                    "fixes": {
                        "ISLAM": "ISLAM",
                        "D292M": "D292M",
                        "AF020": "AF020",
                        "AF021": "AF021",
                        "AF022": "AF022",
                        "D343M": "D343M AT OR ABOVE 7500"
                    }
                },
                {
                    "name": "TIF",
                    "fixes": {
                        "TIF": "TIF",
                        "NOKTA": "NOKTA AT OR ABOVE 7500",
                        "PI001": "PI001 AT OR ABOVE 7500 SPEED 210",
                        "PI002": "OVERFLY PI002 AT OR ABOVE 7500 SPEED 210",
                        "PI003": "PI003 AT OR ABOVE 7500 SPEED 210"
                    }
                }
            ]
        },
        {
            "name": "VOR25",
            "fixes": {
                "SETKU": "SETKU 6500",
                "MA25": "MA25 4973 RNW 25 TURN LEFT TRK 106 INTERCEPT RADIAL 136 TO",
                "LAKNO": "LAKNO LAKNO 10000 HOLD AT LAKNO LEFT TURN INBOUNDCOURSE 316 LEGTIME 1 FAF SETKU MAP MA25"
            },
            "transitions": [
                {
                    "name": "BUBIM",
                    "fixes": {
                        "BUBIM": "BUBIM",
                        "D010M": "D010M",
                        "AF023": "AF023",
                        "AF024": "AF024",
                        "AF025": "AF025",
                        "D080M": "D080M AT OR ABOVE 7500"
                    }
                },
                {
                    "name": "LAKNO",
                    "fixes": {
                        "LAKNO": "LAKNO",
                        "D136M": "D136M",
                        "AF026": "AF026",
                        "AF027": "AF027",
                        "AF028": "AF028",
                        "D080M": "D080M AT OR ABOVE 7500"
                    }
                },
                {
                    "name": "TIF",
                    "fixes": {
                        "TIF": "TIF",
                        "SETKU": "SETKU AT OR ABOVE 7500",
                        "PI004": "PI004 AT OR ABOVE 7500 SPEED 210",
                        "PI005": "OVERFLY PI005 AT OR ABOVE 7500 SPEED 210",
                        "PI006": "PI006 AT OR ABOVE 7500 SPEED 210"
                    }
                }
            ]
        },
        {
            "name": "VOR35",
            "fixes": {
                "LUDIK": "LUDIK 6600",
                "34VOR": "34VOR AT OR ABOVE 5720",
                "MA35": "MA35 4983 RNW 35",
                "TIF": "TIF AT OR ABOVE 5250",
                "MENDA": "MENDA 8000 HOLD AT MENDA RIGHT TURN INBOUNDCOURSE 174 LEGTIME 1 FAF LUDIK MAP MA35"
            },
            "transitions": [
                {
                    "name": "ISLAM",
                    "fixes": {
                        "ISLAM": "ISLAM",
                        "D292M": "D292M",
                        "AF029": "AF029",
                        "AF030": "AF030",
                        "AF031": "AF031",
                        "D209M": "D209M AT OR ABOVE 9000",
                        "AF032": "AF032",
                        "AF033": "AF033",
                        "D180M": "D180M AT OR ABOVE 8000"
                    }
                },
                {
                    "name": "LAKNO",
                    "fixes": {
                        "LAKNO": "LAKNO",
                        "D136M": "D136M",
                        "AF034": "AF034",
                        "AF035": "AF035",
                        "D180M": "D180M AT OR ABOVE 8000"
                    }
                },
                {
                    "name": "TIF",
                    "fixes": {
                        "TIF": "TIF",
                        "D153M": "D153M AT OR ABOVE 8000",
                        "AF036": "AF036",
                        "AF037": "AF037",
                        "D180M": "D180M AT OR ABOVE 8000"
                    }
                }
            ]
        }
    ]
}