{
    "fixes": [
        {
            "name": "AF001",
            "lat": 32.00567398333333,
            "lon": 54.54841796666667
        },
        {
            "name": "AF002",
            "lat": 31.94646915,
            "lon": 54.571572483333334
        },
        {
            "name": "AF003",
            "lat": 31.834050583333333,
            "lon": 54.56736946666667
        },
        {
            "name": "AF004",
            "lat": 31.78649645,
            "lon": 54.54628591666667
        },
        {
            "name": "AF005",
            "lat": 32.0861974,
            "lon": 54.47627906666666
        },
        {
            "name": "AF006",
            "lat": 32.109582966666665,
            "lon": 54.439098683333334
        },
        {
            "name": "AF007",
            "lat": 32.146293416666666,
            "lon": 54.31355811666667
        },
        {
            "name": "AF008",
            "lat": 32.14306105,
            "lon": 54.226357066666665
        },
        {
            "name": "AF009",
            "lat": 32.118328416666664,
            "lon": 54.144117933333334
        },
        {
            "name": "AF010",
            "lat": 31.658881983333334,
            "lon": 54.1955983
        },
        {
            "name": "AF011",
            "lat": 31.647903966666668,
            "lon": 54.26988466666667
        },
        {
            "name": "AF012",
            "lat": 31.653343683333333,
            "lon": 54.345008633333336
        },
        {
            "name": "AF013",
            "lat": 31.693603283333335,
            "lon": 54.45261801666667
        },
        {
            "name": "AF014",
            "lat": 31.716663183333335,
            "lon": 54.485614033333334
        },
        {
            "name": "AF015",
            "lat": 32.12658578333333,
            "lon": 54.164195883333335
        },
        {
            "name": "AF016",
            "lat": 32.10400081666667,
            "lon": 54.116239566666664
        },
        {
            "name": "AF017",
            "lat": 32.02114803333333,
            "lon": 54.02648248333333
        },
        {
            "name": "AF018",
            "lat": 32.04906416666667,
            "lon": 54.04817163333333
        },
        {
            "name": "BOMIT",
            "lat": 32.215833333333336,
            "lon": 54.737222216666666
        },
        {
            "name": "BOMUN",
            "lat": 31.613333333333333,
            "lon": 54.76527778333333
        },
        {
            "name": "BONEG",
            "lat": 31.473888883333334,
            "lon": 53.97083333333333
        },
        {
            "name": "BONOL",
            "lat": 32.387222216666665,
            "lon": 54.15805556666667
        },
        {
            "name": "CD13",
            "lat": 32.01569166666667,
            "lon": 54.144080566666666
        },
        {
            "name": "CD31",
            "lat": 31.794741666666667,
            "lon": 54.43679721666667
        },
        {
            "name": "CF31",
            "lat": 31.7735,
            "lon": 54.441305566666664
        },
        {
            "name": "D020O",
            "lat": 32.128225,
            "lon": 54.397725
        },
        {
            "name": "D029G",
            "lat": 31.798469433333334,
            "lon": 54.210194433333335
        },
        {
            "name": "D029O",
            "lat": 31.685075,
            "lon": 54.12748056666667
        },
        {
            "name": "D047O",
            "lat": 32.05695,
            "lon": 54.50955833333333
        },
        {
            "name": "D090O",
            "lat": 31.884213883333334,
            "lon": 54.575913883333335
        },
        {
            "name": "D109O",
            "lat": 31.997691666666668,
            "lon": 54.01330278333333
        },
        {
            "name": "D125O",
            "lat": 31.743211116666668,
            "lon": 54.513719433333335
        },
        {
            "name": "D150O",
            "lat": 31.674366666666668,
            "lon": 54.415694433333336
        },
        {
            "name": "D209J",
            "lat": 31.75638611666667,
            "lon": 54.178344433333336
        },
        {
            "name": "D209O",
            "lat": 31.685713883333335,
            "lon": 54.12628888333333
        },
        {
            "name": "D289O",
            "lat": 31.994502783333335,
            "lon": 54.01170833333333
        },
        {
            "name": "D303T",
            "lat": 31.706727783333335,
            "lon": 54.60365
        },
        {
            "name": "D312O",
            "lat": 32.07464443333333,
            "lon": 54.074641666666665
        },
        {
            "name": "D331G",
            "lat": 31.795369433333335,
            "lon": 54.349016666666664
        },
        {
            "name": "D331T",
            "lat": 31.600016666666665,
            "lon": 54.460152783333335
        },
        {
            "name": "D344O",
            "lat": 32.142530566666665,
            "lon": 54.220522216666666
        },
        {
            "name": "FD13",
            "lat": 31.956697216666665,
            "lon": 54.213430566666666
        },
        {
            "name": "FD31",
            "lat": 31.846227783333333,
            "lon": 54.35978888333333
        },
        {
            "name": "FF306",
            "lat": 31.830016666666666,
            "lon": 54.39373056666667
        },
        {
            "name": "FF31",
            "lat": 31.828019433333335,
            "lon": 54.373013883333336
        },
        {
            "name": "FS13",
            "lat": 32.00743333333333,
            "lon": 54.15379443333333
        },
        {
            "name": "GADPU",
            "lat": 31.4525,
            "lon": 54.55055556666667
        },
        {
            "name": "MD13",
            "lat": 31.927186116666668,
            "lon": 54.248072216666664
        },
        {
            "name": "MD31",
            "lat": 31.884297216666667,
            "lon": 54.30274721666667
        },
        {
            "name": "TOVTA",
            "lat": 32.09111111666667,
            "lon": 53.73916666666667
        },
        {
            "name": "VEDOP",
            "lat": 31.537777783333333,
            "lon": 54.69055556666667
        },
        {
            "name": "YZD",
            "lat": 31.897666666666666,
            "lon": 54.28269443333333
        },
        {
            "name": "YZDNB",
            "lat": 31.90369443333333,
            "lon": 54.287166666666664
        }
    ],
    "rnws": [
        "RNW 13",
        "RNW 31"
    ],
    "sids": [
        {
            "name": "BOMI1A",
            "rnw": "31",
            "fixes": {
                "YZD": "YZD AT OR ABOVE 11500",
                "BOMIT": "BOMIT"
            },
            "sub_fixes": [],
            "transitions": []
        },
        {
            "name": "BOMI1B",
            "rnw": "13",
            "fixes": {
                "YZD": "YZD AT OR ABOVE 11500",
                "BOMIT": "BOMIT"
            },
            "sub_fixes": [],
            "transitions": []
        },
        {
            "name": "BOMU2C",
            "rnw": "31",
            "fixes": {
                "YZDNB": "YZDNB AT OR ABOVE 9000",
                "BOMUN": "BOMUN"
            },
            "sub_fixes": [],
            "transitions": []
        },
        {
            "name": "BOMU2D",
            "rnw": "13",
            "fixes": {
                "BOMUN": "BOMUN AT OR ABOVE 16000"
            },
            "sub_fixes": [],
            "transitions": []
        },
        {
            "name": "BOMU3A",
            "rnw": "31",
            "fixes": {
                "BOMUN": "BOMUN"
            },
            "sub_fixes": [],
            "transitions": []
        },
        {
            "name": "BOMU3B",
            "rnw": "13",
            "fixes": {
                "BOMUN": "BOMUN"
            },
            "sub_fixes": [],
            "transitions": []
        },
        {
            "name": "BONE3C",
            "rnw": "31",
            "fixes": {
                "YZDNB": "YZDNB AT OR ABOVE 12000",
                "BONEG": "BONEG"
            },
            "sub_fixes": [],
            "transitions": []
        },
        {
            "name": "BONE3D",
            "rnw": "13",
            "fixes": {
                "YZDNB": "YZDNB AT OR ABOVE 12000",
                "BONEG": "BONEG"
            },
            "sub_fixes": [],
            "transitions": []
        },
        {
            "name": "BONE5A",
            "rnw": "31",
            "fixes": {
                "YZD": "YZD AT OR ABOVE 12000",
                "BONEG": "BONEG"
            },
            "sub_fixes": [],
            "transitions": []
        },
        {
            "name": "BONE5B",
            "rnw": "13",
            "fixes": {
                "YZD": "YZD AT OR ABOVE 12000",
                "BONEG": "BONEG"
            },
            "sub_fixes": [],
            "transitions": []
        },
        {
            "name": "BONO1C",
            "rnw": "31",
            "fixes": {
                "BONOL": "BONOL AT OR ABOVE 15000"
            },
            "sub_fixes": [],
            "transitions": []
        },
        {
            "name": "BONO1D",
            "rnw": "13",
            "fixes": {
                "YZDNB": "YZDNB AT OR ABOVE 9000",
                "BONOL": "BONOL"
            },
            "sub_fixes": [],
            "transitions": []
        },
        {
            "name": "BONO3A",
            "rnw": "31",
            "fixes": {
                "BONOL": "BONOL"
            },
            "sub_fixes": [],
            "transitions": []
        },
        {
            "name": "BONO3B",
            "rnw": "13",
            "fixes": {
                "BONOL": "BONOL"
            },
            "sub_fixes": [],
            "transitions": []
        },
        {
            "name": "GADP1D",
            "rnw": "13",
            "fixes": {
                "YZDNB": "YZDNB AT OR ABOVE 7000",
                "GADPU": "GADPU AT OR ABOVE 15000"
            },
            "sub_fixes": [],
            "transitions": []
        },
        {
            "name": "GADP2B",
            "rnw": "31",
            "fixes": {
                "YZD": "YZD AT OR ABOVE 9000",
                "GADPU": "GADPU"
            },
            "sub_fixes": [],
            "transitions": []
        },
        {
            "name": "GADP2C",
            "rnw": "13",
            "fixes": {
                "YZD": "YZD AT OR ABOVE 7000 TURN LEFT DIRECT",
                "GADPU": "GADPU AT OR ABOVE 15000"
            },
            "sub_fixes": [],
            "transitions": []
        },
        {
            "name": "TOVT1C",
            "rnw": "31",
            "fixes": {
                "TOVTA": "TOVTA AT OR ABOVE 16000"
            },
            "sub_fixes": [],
            "transitions": []
        },
        {
            "name": "TOVT1D",
            "rnw": "13",
            "fixes": {
                "YZDNB": "YZDNB AT OR ABOVE 9000",
                "TOVTA": "TOVTA"
            },
            "sub_fixes": [],
            "transitions": []
        },
        {
            "name": "TOVT2A",
            "rnw": "31",
            "fixes": {
                "TOVTA": "TOVTA"
            },
            "sub_fixes": [],
            "transitions": []
        },
        {
            "name": "TOVT2B",
            "rnw": "13",
            "fixes": {
                "YZD": "YZD",
                "TOVTA": "TOVTA"
            },
            "sub_fixes": [],
            "transitions": []
        },
        {
            "name": "VEDO1C",
            "rnw": "13",
            "fixes": {
                "VEDOP": "VEDOP AT OR ABOVE 12000"
            },
            "sub_fixes": [],
            "transitions": []
        },
        {
            "name": "VEDO2A",
            "rnw": "31",
            "fixes": {
                "YZD": "YZD AT OR ABOVE 9000",
                "VEDOP": "VEDOP"
            },
            "sub_fixes": [],
            "transitions": []
        },
        {
            "name": "VEDO2B",
            "rnw": "13",
            "fixes": {
                "VEDOP": "VEDOP AT OR ABOVE 12000"
            },
            "sub_fixes": [],
            "transitions": []
        }
    ],
    "stars": [
        {
            "name": "BOMI1N",
            "runway": "RNW 13 RNW 31",
            "fixes": {
                "BOMIT": "BOMIT",
                "D047O": "D047O",
                "YZD": "YZD"
            }
        },
        {
            "name": "BOMI1P",
            "runway": "RNW 13 RNW 31",
            "fixes": {
                "BOMIT": "BOMIT",
                "D047O": "D047O",
                "AF001": "AF001",
                "AF002": "AF002",
                "D090O": "D090O",
                "AF003": "AF003",
                "AF004": "AF004",
                "D125O": "D125O"
            }
        },
        {
            "name": "BOMI1Q",
            "runway": "RNW 13 RNW 31",
            "fixes": {
                "BOMIT": "BOMIT",
                "D047O": "D047O",
                "AF005": "AF005",
                "AF006": "AF006",
                "D020O": "D020O",
                "AF007": "AF007",
                "AF008": "AF008",
                "AF009": "AF009",
                "D312O": "D312O"
            }
        },
        {
            "name": "BOMU1D",
            "runway": "RNW 13 RNW 31",
            "fixes": {
                "BOMUN": "BOMUN",
                "D303T": "D303T",
                "YZDNB": "YZDNB"
            }
        },
        {
            "name": "BOMU1N",
            "runway": "RNW 13 RNW 31",
            "fixes": {
                "BOMUN": "BOMUN",
                "YZD": "YZD"
            }
        },
        {
            "name": "BOMU1P",
            "runway": "RNW 13 RNW 31",
            "fixes": {
                "BOMUN": "BOMUN",
                "D125O": "D125O"
            }
        },
        {
            "name": "BOMU1Q",
            "runway": "RNW 13 RNW 31",
            "fixes": {
                "BOMUN": "BOMUN",
                "YZD": "YZD",
                "D312O": "D312O"
            }
        },
        {
            "name": "BONE1D",
            "runway": "RNW 13 RNW 31",
            "fixes": {
                "BONEG": "BONEG",
                "D029O": "D029O",
                "D029G": "D029G",
                "YZDNB": "YZDNB"
            }
        },
        {
            "name": "BONE1N",
            "runway": "RNW 13 RNW 31",
            "fixes": {
                "BONEG": "BONEG",
                "D209J": "D209J",
                "YZD": "YZD"
            }
        },
        {
            "name": "BONE1P",
            "runway": "RNW 13 RNW 31",
            "fixes": {
                "BONEG": "BONEG",
                "D209O": "D209O",
                "AF010": "AF010",
                "AF011": "AF011",
                "AF012": "AF012",
                "D150O": "D150O",
                "AF013": "AF013",
                "AF014": "AF014",
                "D125O": "D125O"
            }
        },
        {
            "name": "BONE1Q",
            "runway": "RNW 13 RNW 31",
            "fixes": {
                "BONEG": "BONEG",
                "D209J": "D209J",
                "YZD": "YZD",
                "D312O": "D312O"
            }
        },
        {
            "name": "BONO1D",
            "runway": "RNW 13 RNW 31",
            "fixes": {
                "BONOL": "BONOL",
                "YZDNB": "YZDNB"
            }
        },
        {
            "name": "BONO1N",
            "runway": "RNW 13 RNW 31",
            "fixes": {
                "BONOL": "BONOL",
                "YZD": "YZD"
            }
        },
        {
            "name": "BONO1P",
            "runway": "RNW 13 RNW 31",
            "fixes": {
                "BONOL": "BONOL",
                "YZD": "YZD",
                "D125O": "D125O"
            }
        },
        {
            "name": "BONO1Q",
            "runway": "RNW 13 RNW 31",
            "fixes": {
                "BONOL": "BONOL",
                "D344O": "D344O",
                "AF015": "AF015",
                "AF016": "AF016",
                "D312O": "D312O"
            }
        },
        {
            "name": "GADP1D",
            "runway": "RNW 13 RNW 31",
            "fixes": {
                "GADPU": "GADPU",
                "D331T": "D331T",
                "D331G": "D331G",
                "YZDNB": "YZDNB"
            }
        },
        {
            "name": "GADP1N",
            "runway": "RNW 13 RNW 31",
            "fixes": {
                "GADPU": "GADPU",
                "YZD": "YZD"
            }
        },
        {
            "name": "GADP1P",
            "runway": "RNW 13 RNW 31",
            "fixes": {
                "GADPU": "GADPU",
                "D150O": "D150O",
                "AF013": "AF013",
                "AF014": "AF014",
                "D125O": "D125O"
            }
        },
        {
            "name": "GADP1Q",
            "runway": "RNW 13 RNW 31",
            "fixes": {
                "GADPU": "GADPU",
                "D150O": "D150O",
                "YZD": "YZD",
                "D312O": "D312O"
            }
        },
        {
            "name": "TOVT1D",
            "runway": "RNW 13 RNW 31",
            "fixes": {
                "TOVTA": "TOVTA",
                "D109O": "D109O",
                "YZDNB": "YZDNB"
            }
        },
        {
            "name": "TOVT1N",
            "runway": "RNW 13 RNW 31",
            "fixes": {
                "TOVTA": "TOVTA",
                "YZD": "YZD"
            }
        },
        {
            "name": "TOVT1P",
            "runway": "RNW 13 RNW 31",
            "fixes": {
                "TOVTA": "TOVTA",
                "YZD": "YZD",
                "D125O": "D125O"
            }
        },
        {
            "name": "TOVT1Q",
            "runway": "RNW 13 RNW 31",
            "fixes": {
                "TOVTA": "TOVTA",
                "D289O": "D289O",
                "AF017": "AF017",
                "AF018": "AF018",
                "D312O": "D312O"
            }
        },
        {
            "name": "VEDO1D",
            "runway": "RNW 13 RNW 31",
            "fixes": {
                "VEDOP": "VEDOP",
                "YZDNB": "YZDNB"
            }
        },
        {
            "name": "VEDO1N",
            "runway": "RNW 13 RNW 31",
            "fixes": {
                "VEDOP": "VEDOP",
                "YZD": "YZD"
            }
        },
        {
            "name": "VEDO1P",
            "runway": "RNW 13 RNW 31",
            "fixes": {
                "VEDOP": "VEDOP",
                "D125O": "D125O"
            }
        },
        {
            "name": "VEDO1Q",
            "runway": "RNW 13 RNW 31",
            "fixes": {
                "VEDOP": "VEDOP",
                "YZD": "YZD",
                "D312O": "D312O"
            }
        }
    ],
    "approaches": [
        {
            "name": "VORD313",
            "fixes": {
                "CD13": "CD13 AT OR ABOVE 6200",
                "FD13": "FD13 5100",
                "MD13": "MD13 4310 RNW 13",
                "YZD": "YZD TRK 125 UNTIL 5500 TURN LEFT DIRECT YZD",
                "D312O": "D312O 8000 HOLD AT D312O LEFT TURN INBOUNDCOURSE 132 ALT 8000 SPEED 230 LEGTIME 1 FAF FD13 MAP MD13"
            },
            "transitions": [
                {
                    "name": "D312O",
                    "fixes": {
                        "D312O": "D312O AT OR ABOVE 8000"
                    }
                }
            ]
        },
        {
            "name": "VORD413",
            "fixes": {
                "CD13": "CD13 AT OR ABOVE 6200",
                "FD13": "FD13 5100",
                "MD13": "MD13 4310 RNW 13",
                "YZD": "YZD TRK 128 UNTIL 7300 TURN LEFT DIRECT YZD 10000 HOLD AT YZD RIGHT TURN INBOUNDCOURSE 307 ALT 10000 SPEED 185 LEGTIME 1 FAF FD13 MAP MD13"
            },
            "transitions": [
                {
                    "name": "YZD1",
                    "fixes": {
                        "YZD": "YZD AT OR ABOVE 10000 SPEED 185 TRK 330 UNTIL 10.0 FROM YZD"
                    }
                },
                {
                    "name": "YZD2",
                    "fixes": {
                        "YZD": "YZD AT OR ABOVE 10000 TRK 323 UNTIL 10.0 FROM YZD"
                    }
                }
            ]
        },
        {
            "name": "VORD131",
            "fixes": {
                "CD31": "CD31 AT OR ABOVE 7100",
                "FD31": "FD31 5500",
                "MD31": "MD31 4334 RNW 31",
                "YZD": "YZD TRK 312 UNTIL 6000 TURN RIGHT DIRECT YZD",
                "D125O": "D125O 9500 HOLD AT D125O RIGHT TURN INBOUNDCOURSE 305 ALT 13000 SPEED 230 LEGTIME 1 FAF FD31 MAP MD31"
            },
            "transitions": [
                {
                    "name": "D125O",
                    "fixes": {
                        "D125O": "D125O AT OR ABOVE 9500"
                    }
                }
            ]
        },
        {
            "name": "VORD231",
            "fixes": {
                "CD31": "CD31 AT OR ABOVE 7100",
                "FD31": "FD31 5500",
                "MD31": "MD31 4334 RNW 31",
                "YZD": "YZD TRK 312 UNTIL 6000 TURN RIGHT DIRECT YZD",
                "D125O": "D125O 9500 HOLD AT D125O RIGHT TURN INBOUNDCOURSE 305 ALT 13000 SPEED 230 LEGTIME 1 FAF FD31 MAP MD31"
            },
            "transitions": [
                {
                    "name": "YZD1",
                    "fixes": {
                        "YZD": "YZD AT OR ABOVE 10000 SPEED 210 TRK 101 UNTIL 10.0 FROM YZD"
                    }
                },
                {
                    "name": "YZD2",
                    "fixes": {
                        "YZD": "YZD AT OR ABOVE 10000 TRK 115 UNTIL 10.0 FROM YZD"
                    }
                }
            ]
        },
        {
            "name": "ILS31",
            "fixes": {
                "CF31": "CF31 AT OR ABOVE 7600",
                "FF31": "FF31 5900 RNW 31",
                "YZD": "YZD TRK 311 UNTIL 6000 TURN RIGHT DIRECT YZD",
                "D125O": "D125O 9500 HOLD AT D125O RIGHT TURN INBOUNDCOURSE 305 ALT 12000 SPEED 200 LEGTIME 1 FAF FF31 MAP RNW 31"
            },
            "transitions": [
                {
                    "name": "D125O",
                    "fixes": {
                        "D125O": "D125O AT OR ABOVE 9500"
                    }
                }
            ]
        },
        {
            "name": "NDBDB13",
            "fixes": {
                "FF306": "FF306 6500",
                "YZDNB": "YZDNB 5000 RNW 13 TRK 306 UNTIL 6500 TURN RIGHT DIRECT YZDNB 8500 HOLD AT YZDNB LEFT TURN INBOUNDCOURSE 132 ALT 8500 LEGTIME 1 FAF FF306 MAP YZD"
            },
            "transitions": [
                {
                    "name": "YZD1",
                    "fixes": {
                        "YZDNB": "YZDNB AT OR ABOVE 8500 SPEED 185 TRK 107 UNTIL 7.7 FROM YZDNB"
                    }
                },
                {
                    "name": "YZD2",
                    "fixes": {
                        "YZDNB": "YZDNB AT OR ABOVE 8500 TRK 114 UNTIL 7.0 FROM YZDNB"
                    }
                }
            ]
        },
        {
            "name": "NDBDB31",
            "fixes": {
                "FF306": "FF306 6500",
                "YZDNB": "YZDNB 5000 RNW 31 TRK 306 UNTIL 6500 TURN RIGHT DIRECT YZDNB 8500 HOLD AT YZDNB LEFT TURN INBOUNDCOURSE 132 ALT 8500 LEGTIME 1 FAF FF306 MAP YZD"
            },
            "transitions": [
                {
                    "name": "YZD1",
                    "fixes": {
                        "YZDNB": "YZDNB AT OR ABOVE 8500 SPEED 185 TRK 107 UNTIL 7.7 FROM YZDNB"
                    }
                },
                {
                    "name": "YZD2",
                    "fixes": {
                        "YZDNB": "YZDNB AT OR ABOVE 8500 TRK 114 UNTIL 7.0 FROM YZDNB"
                    }
                }
            ]
        },
        {
            "name": "VOR13",
            "fixes": {
                "FS13": "FS13 7000 RNW 13",
                "YZD": "OVERFLY YZD TRK 128 UNTIL 7300 TURN LEFT DIRECT YZD 10000 HOLD AT YZD RIGHT TURN INBOUNDCOURSE 282 ALT 10000 SPEED 185 LEGTIME 1 FAF FS13 MAP RNW 13"
            },
            "transitions": [
                {
                    "name": "YZD",
                    "fixes": {
                        "YZD": "YZD AT OR ABOVE 10000 SPEED 185",
                        "FS13": "FS13 7000 TRK 357 UNTIL 3.9 FROM FS13"
                    }
                }
            ]
        }
    ]
}