{
    "fixes": [
        {
            "name": "60VOR",
            "lat": 29.343947216666667,
            "lon": 47.917405566666666
        },
        {
            "name": "AF001",
            "lat": 29.302993316666665,
            "lon": 48.17554818333333
        },
        {
            "name": "AF002",
            "lat": 29.361834383333335,
            "lon": 48.14421886666667
        },
        {
            "name": "AF003",
            "lat": 29.408822733333334,
            "lon": 48.09288958333333
        },
        {
            "name": "AF004",
            "lat": 29.438995783333333,
            "lon": 48.026958216666664
        },
        {
            "name": "AF005",
            "lat": 29.449163283333334,
            "lon": 47.95338603333333
        },
        {
            "name": "AF006",
            "lat": 29.172673966666668,
            "lon": 48.22741056666667
        },
        {
            "name": "AF007",
            "lat": 29.1146251,
            "lon": 48.19606405
        },
        {
            "name": "AF008",
            "lat": 29.06544583333333,
            "lon": 48.14887243333333
        },
        {
            "name": "AF009",
            "lat": 29.306347716666668,
            "lon": 48.17444088333333
        },
        {
            "name": "AF010",
            "lat": 29.3675359,
            "lon": 48.13959681666667
        },
        {
            "name": "AF011",
            "lat": 29.41491285,
            "lon": 48.08311188333333
        },
        {
            "name": "AF012",
            "lat": 29.442929016666668,
            "lon": 48.011577816666666
        },
        {
            "name": "AF013",
            "lat": 29.448299133333332,
            "lon": 47.9333741
        },
        {
            "name": "AF014",
            "lat": 29.169566266666667,
            "lon": 48.2262364
        },
        {
            "name": "AF015",
            "lat": 29.109159116666667,
            "lon": 48.19194396666666
        },
        {
            "name": "AF016",
            "lat": 29.058936833333334,
            "lon": 48.14046523333333
        },
        {
            "name": "AF017",
            "lat": 29.173712816666665,
            "lon": 48.2277916
        },
        {
            "name": "AF018",
            "lat": 29.116467766666666,
            "lon": 48.197400933333334
        },
        {
            "name": "AF019",
            "lat": 29.067678883333333,
            "lon": 48.151609283333336
        },
        {
            "name": "ALVAX",
            "lat": 29.341666666666665,
            "lon": 48.406111116666665
        },
        {
            "name": "ASLUN",
            "lat": 28.995769433333333,
            "lon": 47.95603056666667
        },
        {
            "name": "ASVIR",
            "lat": 28.538888883333332,
            "lon": 48.372222216666664
        },
        {
            "name": "BOXIK",
            "lat": 28.803888883333332,
            "lon": 48.792777783333335
        },
        {
            "name": "CD15R",
            "lat": 29.383438883333334,
            "lon": 47.901861116666666
        },
        {
            "name": "CD33L",
            "lat": 29.100125,
            "lon": 48.04486943333333
        },
        {
            "name": "CI15L",
            "lat": 29.375055566666667,
            "lon": 47.912205566666664
        },
        {
            "name": "CI15R",
            "lat": 29.374391666666668,
            "lon": 47.89029166666667
        },
        {
            "name": "CI33L",
            "lat": 29.082219433333332,
            "lon": 48.04554721666667
        },
        {
            "name": "CI33R",
            "lat": 29.079077783333332,
            "lon": 48.069411116666664
        },
        {
            "name": "D149O",
            "lat": 29.027794433333334,
            "lon": 48.088541666666664
        },
        {
            "name": "D152L",
            "lat": 29.030597216666667,
            "lon": 48.095075
        },
        {
            "name": "D152M",
            "lat": 29.023138883333335,
            "lon": 48.07683888333333
        },
        {
            "name": "D338L",
            "lat": 29.438722216666665,
            "lon": 47.88008333333333
        },
        {
            "name": "DATAR",
            "lat": 29.408675,
            "lon": 47.87195833333333
        },
        {
            "name": "DEBTI",
            "lat": 28.735277783333334,
            "lon": 48.49027778333333
        },
        {
            "name": "DEKOB",
            "lat": 28.526388883333333,
            "lon": 47.85166666666667
        },
        {
            "name": "DESLU",
            "lat": 29.466666666666665,
            "lon": 49.03055556666666
        },
        {
            "name": "EMEBA",
            "lat": 29.036944433333332,
            "lon": 47.95583333333333
        },
        {
            "name": "FD15R",
            "lat": 29.304455566666668,
            "lon": 47.93293611666667
        },
        {
            "name": "FD33L",
            "lat": 29.145875,
            "lon": 48.017208333333336
        },
        {
            "name": "FF15L",
            "lat": 29.32614166666667,
            "lon": 47.938238883333334
        },
        {
            "name": "FF15R",
            "lat": 29.326858333333334,
            "lon": 47.91558056666667
        },
        {
            "name": "FF33L",
            "lat": 29.128197216666667,
            "lon": 48.021155566666664
        },
        {
            "name": "FF33R",
            "lat": 29.129802783333332,
            "lon": 48.04251943333333
        },
        {
            "name": "FI15L",
            "lat": 29.3266,
            "lon": 47.93800556666667
        },
        {
            "name": "FI15R",
            "lat": 29.32745278333333,
            "lon": 47.91528888333333
        },
        {
            "name": "FI33L",
            "lat": 29.127663883333334,
            "lon": 48.02145556666667
        },
        {
            "name": "FI33R",
            "lat": 29.130586116666667,
            "lon": 48.042116666666665
        },
        {
            "name": "GIBOD",
            "lat": 29.236944433333335,
            "lon": 48.182777783333336
        },
        {
            "name": "GINBI",
            "lat": 29.048847216666665,
            "lon": 48.085475
        },
        {
            "name": "IK13A",
            "lat": 29.438644433333334,
            "lon": 47.87830833333334
        },
        {
            "name": "IK13B",
            "lat": 29.431922216666667,
            "lon": 47.85961666666667
        },
        {
            "name": "IKIB",
            "lat": 29.237638883333332,
            "lon": 47.96166111666667
        },
        {
            "name": "IKIC",
            "lat": 29.239266666666666,
            "lon": 47.985788883333335
        },
        {
            "name": "IMGAV",
            "lat": 29.233888883333332,
            "lon": 48.24
        },
        {
            "name": "IVETA",
            "lat": 29.373288883333334,
            "lon": 47.785544433333335
        },
        {
            "name": "KATOD",
            "lat": 28.528055566666666,
            "lon": 47.931666666666665
        },
        {
            "name": "KFR",
            "lat": 28.620833333333334,
            "lon": 47.958055566666665
        },
        {
            "name": "KUA",
            "lat": 29.249166666666667,
            "lon": 47.95472221666667
        },
        {
            "name": "KUNRU",
            "lat": 28.538888883333332,
            "lon": 48.18055556666667
        },
        {
            "name": "LOTAL",
            "lat": 29.221930566666668,
            "lon": 47.866283333333335
        },
        {
            "name": "LUDIM",
            "lat": 29.230786116666668,
            "lon": 48.29693056666667
        },
        {
            "name": "MD15R",
            "lat": 29.260225,
            "lon": 47.95037778333333
        },
        {
            "name": "MD33L",
            "lat": 29.193097216666665,
            "lon": 47.988627783333335
        },
        {
            "name": "NIDAP",
            "lat": 28.649166666666666,
            "lon": 47.615555566666664
        },
        {
            "name": "ORKER",
            "lat": 29.369744433333334,
            "lon": 47.915022216666664
        },
        {
            "name": "PASEL",
            "lat": 29.472938883333335,
            "lon": 48.029383333333335
        },
        {
            "name": "PEDEL",
            "lat": 28.969722216666668,
            "lon": 48.116111116666666
        },
        {
            "name": "RALKA",
            "lat": 29.436388883333333,
            "lon": 48.30527778333333
        },
        {
            "name": "RARVA",
            "lat": 29.041377783333335,
            "lon": 48.06715833333333
        },
        {
            "name": "RERAN",
            "lat": 29.416116666666667,
            "lon": 47.89014721666667
        },
        {
            "name": "RW15L",
            "lat": 29.241233333333334,
            "lon": 47.98338888333333
        },
        {
            "name": "RW15R",
            "lat": 29.240522216666665,
            "lon": 47.961519433333336
        },
        {
            "name": "RW33L",
            "lat": 29.212705566666667,
            "lon": 47.97630278333333
        },
        {
            "name": "RW33R",
            "lat": 29.212602783333335,
            "lon": 47.99859443333333
        },
        {
            "name": "SD15L",
            "lat": 29.279094433333334,
            "lon": 47.96326666666667
        },
        {
            "name": "SD15R",
            "lat": 29.279894433333332,
            "lon": 47.94058056666667
        },
        {
            "name": "SESRU",
            "lat": 29.15,
            "lon": 48.913888883333335
        },
        {
            "name": "SIDAD",
            "lat": 29.875277783333335,
            "lon": 48.49555556666667
        },
        {
            "name": "SOBAB",
            "lat": 29.361575,
            "lon": 47.89706666666667
        },
        {
            "name": "TABTO",
            "lat": 29.105255566666667,
            "lon": 48.223444433333334
        },
        {
            "name": "TULGO",
            "lat": 29.4408,
            "lon": 48.0655
        }
    ],
    "rnws": [
        "RNW 15L",
        "RNW 15R",
        "RNW 33L",
        "RNW 33R"
    ],
    "sids": [
        {
            "name": "ALVA4E",
            "rnw": "11",
            "fixes": {},
            "sub_fixes": [
                {
                    "rwy": "RNW 15L",
                    "fixes": {
                        "RNW 15L": "RNW 15L TRK 152 UNTIL 1000 TURN LEFT DIRECT",
                        "ALVAX": "ALVAX"
                    }
                },
                {
                    "rwy": "RNW 15R",
                    "fixes": {
                        "RNW 15R": "RNW 15R TRK 152 UNTIL 1000 TURN LEFT DIRECT",
                        "ALVAX": "ALVAX"
                    }
                }
            ],
            "transitions": []
        },
        {
            "name": "ALVA4F",
            "rnw": "11",
            "fixes": {
                "TULGO": "TULGO",
                "ALVAX": "ALVAX"
            },
            "sub_fixes": [
                {
                    "rwy": "RNW 33L",
                    "fixes": {
                        "RNW 33L": "RNW 33L",
                        "SOBAB": "SOBAB AT OR ABOVE 2500"
                    }
                },
                {
                    "rwy": "RNW 33R",
                    "fixes": {
                        "RNW 33R": "RNW 33R",
                        "ORKER": "ORKER AT OR ABOVE 2500"
                    }
                }
            ],
            "transitions": []
        },
        {
            "name": "ASVI4E",
            "rnw": "11",
            "fixes": {},
            "sub_fixes": [
                {
                    "rwy": "RNW 15L",
                    "fixes": {
                        "RNW 15L": "RNW 15L TRK 152 UNTIL 1000",
                        "ASVIR": "ASVIR"
                    }
                },
                {
                    "rwy": "RNW 15R",
                    "fixes": {
                        "RNW 15R": "RNW 15R TRK 152 UNTIL 1000",
                        "ASVIR": "ASVIR"
                    }
                }
            ],
            "transitions": []
        },
        {
            "name": "ASVI4F",
            "rnw": "11",
            "fixes": {
                "ASLUN": "ASLUN",
                "ASVIR": "ASVIR"
            },
            "sub_fixes": [
                {
                    "rwy": "RNW 33L",
                    "fixes": {
                        "RNW 33L": "RNW 33L TRK 332 UNTIL 1000"
                    }
                },
                {
                    "rwy": "RNW 33R",
                    "fixes": {
                        "RNW 33R": "RNW 33R TRK 332 UNTIL 1000"
                    }
                }
            ],
            "transitions": []
        },
        {
            "name": "BOXI4E",
            "rnw": "11",
            "fixes": {},
            "sub_fixes": [
                {
                    "rwy": "RNW 15L",
                    "fixes": {
                        "RNW 15L": "RNW 15L TRK 152 UNTIL 1000",
                        "BOXIK": "BOXIK"
                    }
                },
                {
                    "rwy": "RNW 15R",
                    "fixes": {
                        "RNW 15R": "RNW 15R TRK 152 UNTIL 1000",
                        "BOXIK": "BOXIK"
                    }
                }
            ],
            "transitions": []
        },
        {
            "name": "BOXI4F",
            "rnw": "11",
            "fixes": {
                "TULGO": "TULGO",
                "BOXIK": "BOXIK"
            },
            "sub_fixes": [
                {
                    "rwy": "RNW 33L",
                    "fixes": {
                        "RNW 33L": "RNW 33L",
                        "SOBAB": "SOBAB AT OR ABOVE 2500"
                    }
                },
                {
                    "rwy": "RNW 33R",
                    "fixes": {
                        "RNW 33R": "RNW 33R",
                        "ORKER": "ORKER AT OR ABOVE 2500"
                    }
                }
            ],
            "transitions": []
        },
        {
            "name": "KFR4E",
            "rnw": "11",
            "fixes": {
                "KFR": "KFR"
            },
            "sub_fixes": [
                {
                    "rwy": "RNW 15L",
                    "fixes": {
                        "RNW 15L": "RNW 15L TRK 152 UNTIL 1000"
                    }
                },
                {
                    "rwy": "RNW 15R",
                    "fixes": {
                        "RNW 15R": "RNW 15R TRK 152 UNTIL 1000"
                    }
                }
            ],
            "transitions": [
                {
                    "name": "DEKOB",
                    "fixes": [
                        "DEKOB"
                    ]
                },
                {
                    "name": "KATOD",
                    "fixes": [
                        "KATOD"
                    ]
                },
                {
                    "name": "NIDAP",
                    "fixes": [
                        "NIDAP"
                    ]
                }
            ]
        },
        {
            "name": "KFR4F",
            "rnw": "11",
            "fixes": {
                "ASLUN": "ASLUN",
                "KFR": "KFR"
            },
            "sub_fixes": [
                {
                    "rwy": "RNW 33L",
                    "fixes": {
                        "RNW 33L": "RNW 33L TRK 332 UNTIL 1000"
                    }
                },
                {
                    "rwy": "RNW 33R",
                    "fixes": {
                        "RNW 33R": "RNW 33R TRK 332 UNTIL 1000"
                    }
                }
            ],
            "transitions": [
                {
                    "name": "DEKOB",
                    "fixes": [
                        "DEKOB"
                    ]
                },
                {
                    "name": "KATOD",
                    "fixes": [
                        "KATOD"
                    ]
                },
                {
                    "name": "NIDAP",
                    "fixes": [
                        "NIDAP"
                    ]
                }
            ]
        },
        {
            "name": "RALK4E",
            "rnw": "11",
            "fixes": {},
            "sub_fixes": [
                {
                    "rwy": "RNW 15L",
                    "fixes": {
                        "RNW 15L": "RNW 15L TRK 152 UNTIL 1000 TURN LEFT DIRECT",
                        "RALKA": "RALKA"
                    }
                },
                {
                    "rwy": "RNW 15R",
                    "fixes": {
                        "RNW 15R": "RNW 15R TRK 152 UNTIL 1000 TURN LEFT DIRECT",
                        "RALKA": "RALKA"
                    }
                }
            ],
            "transitions": []
        },
        {
            "name": "RALK4F",
            "rnw": "11",
            "fixes": {
                "TULGO": "TULGO",
                "RALKA": "RALKA"
            },
            "sub_fixes": [
                {
                    "rwy": "RNW 33L",
                    "fixes": {
                        "RNW 33L": "RNW 33L",
                        "SOBAB": "SOBAB AT OR ABOVE 2500"
                    }
                },
                {
                    "rwy": "RNW 33R",
                    "fixes": {
                        "RNW 33R": "RNW 33R",
                        "ORKER": "ORKER AT OR ABOVE 2500"
                    }
                }
            ],
            "transitions": []
        },
        {
            "name": "SESR4E",
            "rnw": "11",
            "fixes": {},
            "sub_fixes": [
                {
                    "rwy": "RNW 15L",
                    "fixes": {
                        "RNW 15L": "RNW 15L TRK 152 UNTIL 1000",
                        "SESRU": "SESRU"
                    }
                },
                {
                    "rwy": "RNW 15R",
                    "fixes": {
                        "RNW 15R": "RNW 15R TRK 152 UNTIL 1000",
                        "SESRU": "SESRU"
                    }
                }
            ],
            "transitions": []
        },
        {
            "name": "SESR4F",
            "rnw": "11",
            "fixes": {
                "TULGO": "TULGO",
                "SESRU": "SESRU"
            },
            "sub_fixes": [
                {
                    "rwy": "RNW 33L",
                    "fixes": {
                        "RNW 33L": "RNW 33L",
                        "SOBAB": "SOBAB AT OR ABOVE 2500"
                    }
                },
                {
                    "rwy": "RNW 33R",
                    "fixes": {
                        "RNW 33R": "RNW 33R",
                        "ORKER": "ORKER AT OR ABOVE 2500"
                    }
                }
            ],
            "transitions": []
        }
    ],
    "stars": [
        {
            "name": "ALVA3C",
            "runway": "RNW 33R RNW 33L",
            "fixes": {
                "ALVAX": "ALVAX AT OR ABOVE 3000",
                "TABTO": "TABTO 3000"
            }
        },
        {
            "name": "ALVA3D",
            "runway": "RNW 15R RNW 15L",
            "fixes": {
                "ALVAX": "ALVAX AT OR ABOVE 3000",
                "PASEL": "PASEL 3000"
            }
        },
        {
            "name": "ASVI3C.33L",
            "runway": "RNW 33L",
            "fixes": {
                "ASVIR": "ASVIR AT OR ABOVE 3000",
                "PEDEL": "PEDEL 3000",
                "RARVA": "RARVA 2500"
            }
        },
        {
            "name": "ASVI3C.33R",
            "runway": "RNW 33R",
            "fixes": {
                "ASVIR": "ASVIR AT OR ABOVE 3000",
                "PEDEL": "PEDEL 3000",
                "GINBI": "GINBI 2500"
            }
        },
        {
            "name": "ASVI3D",
            "runway": "RNW 15R RNW 15L",
            "fixes": {
                "ASVIR": "ASVIR AT OR ABOVE 3000",
                "EMEBA": "EMEBA AT OR ABOVE 3000",
                "LOTAL": "LOTAL 3000 SPEED 200",
                "IVETA": "IVETA"
            }
        },
        {
            "name": "DEBT3C.33L",
            "runway": "RNW 33L",
            "fixes": {
                "DEBTI": "DEBTI AT OR ABOVE 3000",
                "PEDEL": "PEDEL 3000",
                "RARVA": "RARVA 2500"
            }
        },
        {
            "name": "DEBT3C.33R",
            "runway": "RNW 33R",
            "fixes": {
                "DEBTI": "DEBTI AT OR ABOVE 3000",
                "PEDEL": "PEDEL 3000",
                "GINBI": "GINBI 2500"
            }
        },
        {
            "name": "DEBT3D",
            "runway": "RNW 15R RNW 15L",
            "fixes": {
                "DEBTI": "DEBTI AT OR ABOVE 3000",
                "PASEL": "PASEL 3000"
            }
        },
        {
            "name": "DEBT3E",
            "runway": "RNW 15R RNW 15L",
            "fixes": {
                "DEBTI": "DEBTI AT OR ABOVE 3000",
                "EMEBA": "EMEBA AT OR ABOVE 3000",
                "LOTAL": "LOTAL 3000 SPEED 200",
                "IVETA": "IVETA"
            }
        },
        {
            "name": "DESL3D",
            "runway": "RNW 15R RNW 15L",
            "fixes": {
                "DESLU": "DESLU AT OR ABOVE 3000",
                "PASEL": "PASEL 3000"
            }
        },
        {
            "name": "KFR3C.33L",
            "runway": "RNW 33L",
            "fixes": {
                "KFR": "KFR AT OR ABOVE 3000",
                "PEDEL": "PEDEL 3000",
                "RARVA": "RARVA 2500"
            }
        },
        {
            "name": "KFR3C.33R",
            "runway": "RNW 33R",
            "fixes": {
                "KFR": "KFR AT OR ABOVE 3000",
                "PEDEL": "PEDEL 3000",
                "GINBI": "GINBI 2500"
            }
        },
        {
            "name": "KFR3D",
            "runway": "RNW 15R RNW 15L",
            "fixes": {
                "KFR": "KFR AT OR ABOVE 3000",
                "EMEBA": "EMEBA AT OR ABOVE 3000",
                "LOTAL": "LOTAL 3000 SPEED 200",
                "IVETA": "IVETA"
            }
        },
        {
            "name": "KUNR3C.33L",
            "runway": "RNW 33L",
            "fixes": {
                "KUNRU": "KUNRU AT OR ABOVE 3000",
                "PEDEL": "PEDEL 3000",
                "RARVA": "RARVA 2500"
            }
        },
        {
            "name": "KUNR3C.33R",
            "runway": "RNW 33R",
            "fixes": {
                "KUNRU": "KUNRU AT OR ABOVE 3000",
                "PEDEL": "PEDEL 3000",
                "GINBI": "GINBI 2500"
            }
        },
        {
            "name": "KUNR3D",
            "runway": "RNW 15R RNW 15L",
            "fixes": {
                "KUNRU": "KUNRU AT OR ABOVE 3000",
                "EMEBA": "EMEBA AT OR ABOVE 3000",
                "LOTAL": "LOTAL 3000 SPEED 200",
                "IVETA": "IVETA"
            }
        },
        {
            "name": "RALK3C",
            "runway": "RNW 33R RNW 33L",
            "fixes": {
                "RALKA": "RALKA AT OR ABOVE 3000",
                "TABTO": "TABTO 3000"
            }
        },
        {
            "name": "RALK3D",
            "runway": "RNW 15R RNW 15L",
            "fixes": {
                "RALKA": "RALKA AT OR ABOVE 3000",
                "PASEL": "PASEL 3000"
            }
        },
        {
            "name": "SESR3C",
            "runway": "RNW 33R RNW 33L",
            "fixes": {
                "SESRU": "SESRU AT OR ABOVE 3000",
                "TABTO": "TABTO 3000"
            }
        },
        {
            "name": "SESR3D",
            "runway": "RNW 15R RNW 15L",
            "fixes": {
                "SESRU": "SESRU AT OR ABOVE 3000",
                "PASEL": "PASEL 3000"
            }
        },
        {
            "name": "SIDA3D",
            "runway": "RNW 15R RNW 15L",
            "fixes": {
                "SIDAD": "SIDAD AT OR ABOVE 3000",
                "PASEL": "PASEL 3000"
            }
        }
    ],
    "approaches": [
        {
            "name": "VORD15R",
            "fixes": {
                "CD15R": "CD15R AT OR ABOVE 2400",
                "60VOR": "60VOR AT OR ABOVE 2000",
                "FD15R": "FD15R 1500",
                "MD15R": "MD15R 606 RNW 15R TRK 158 UNTIL 6.6 FROM",
                "KUA": "KUA TURN LEFT HDG 045 INTERCEPT RADIAL 090 TO",
                "LUDIM": "LUDIM LUDIM 5000 FAF FD15R MAP MD15R"
            },
            "transitions": [
                {
                    "name": "GIBOD",
                    "fixes": {
                        "GIBOD": "GIBOD",
                        "AF001": "AF001",
                        "AF002": "AF002",
                        "AF003": "AF003",
                        "AF004": "AF004",
                        "AF005": "AF005",
                        "D338L": "D338L AT OR ABOVE 2400"
                    }
                },
                {
                    "name": "KUA",
                    "fixes": {
                        "KUA": "KUA AT OR ABOVE 3000 TRK 008 UNTIL 8.5 FROM KUA"
                    }
                }
            ]
        },
        {
            "name": "VORD33L",
            "fixes": {
                "CD33L": "CD33L AT OR ABOVE 2400",
                "FD33L": "FD33L 1500",
                "MD33L": "MD33L 652 RNW 33L TRK 329 UNTIL 2400 TURN RIGHT HDG 135 INTERCEPT RADIAL 090 TO",
                "LUDIM": "LUDIM LUDIM 5000 FAF FD33L MAP MD33L"
            },
            "transitions": [
                {
                    "name": "IMGAV",
                    "fixes": {
                        "IMGAV": "IMGAV",
                        "AF006": "AF006",
                        "AF007": "AF007",
                        "AF008": "AF008",
                        "D149O": "D149O AT OR ABOVE 2400"
                    }
                },
                {
                    "name": "KUA",
                    "fixes": {
                        "KUA": "KUA AT OR ABOVE 3000 TRK 124 UNTIL 10.1 FROM KUA"
                    }
                }
            ]
        },
        {
            "name": "ILS15LY",
            "fixes": {
                "RERAN": "RERAN AT OR ABOVE 2400",
                "FI15L": "FI15L 2000 RNW 15L TRK 152 UNTIL 5.3 FROM",
                "IKIC": "IKIC TURN LEFT HDG 045 INTERCEPT RADIAL 090 TO",
                "LUDIM": "LUDIM LUDIM 5000 FAF FI15L MAP RNW 15L"
            },
            "transitions": [
                {
                    "name": "IVETA",
                    "fixes": {
                        "IVETA": "IVETA AT OR ABOVE 3000"
                    }
                },
                {
                    "name": "PASEL",
                    "fixes": {
                        "PASEL": "PASEL AT OR ABOVE 3000"
                    }
                }
            ]
        },
        {
            "name": "ILS15LZ",
            "fixes": {
                "CI15L": "CI15L AT OR ABOVE 2400",
                "FI15L": "FI15L 2000 RNW 15L TRK 152 UNTIL 5.3 FROM",
                "IKIC": "IKIC TURN LEFT HDG 045 INTERCEPT RADIAL 090 TO",
                "LUDIM": "LUDIM LUDIM 5000 FAF FI15L MAP RNW 15L"
            },
            "transitions": [
                {
                    "name": "GIBOD",
                    "fixes": {
                        "GIBOD": "GIBOD",
                        "AF001": "AF001",
                        "AF002": "AF002",
                        "AF003": "AF003",
                        "AF004": "AF004",
                        "AF005": "AF005",
                        "IK13A": "IK13A AT OR ABOVE 2400"
                    }
                },
                {
                    "name": "KUA",
                    "fixes": {
                        "KUA": "KUA AT OR ABOVE 3000 TRK 006 UNTIL 9.0 FROM KUA"
                    }
                }
            ]
        },
        {
            "name": "ILS15RY",
            "fixes": {
                "DATAR": "DATAR AT OR ABOVE 2400",
                "FI15R": "FI15R 2000 RNW 15R TRK 152 UNTIL 5.8 FROM",
                "IKIB": "IKIB TURN LEFT HDG 045 INTERCEPT RADIAL 090 TO",
                "LUDIM": "LUDIM LUDIM 5000 FAF FI15R MAP RNW 15R"
            },
            "transitions": [
                {
                    "name": "IVETA",
                    "fixes": {
                        "IVETA": "IVETA AT OR ABOVE 3000"
                    }
                },
                {
                    "name": "PASEL",
                    "fixes": {
                        "PASEL": "PASEL AT OR ABOVE 3000"
                    }
                }
            ]
        },
        {
            "name": "ILS15RZ",
            "fixes": {
                "CI15R": "CI15R AT OR ABOVE 2400",
                "FI15R": "FI15R 2000 RNW 15R TRK 152 UNTIL 5.8 FROM",
                "IKIB": "IKIB TURN LEFT HDG 045 INTERCEPT RADIAL 090 TO",
                "LUDIM": "LUDIM LUDIM 5000 FAF FI15R MAP RNW 15R"
            },
            "transitions": [
                {
                    "name": "GIBOD",
                    "fixes": {
                        "GIBOD": "GIBOD",
                        "AF009": "AF009",
                        "AF010": "AF010",
                        "AF011": "AF011",
                        "AF012": "AF012",
                        "AF013": "AF013",
                        "IK13B": "IK13B AT OR ABOVE 2400"
                    }
                },
                {
                    "name": "KUA",
                    "fixes": {
                        "KUA": "KUA AT OR ABOVE 3000 TRK 000 UNTIL 9.0 FROM KUA"
                    }
                }
            ]
        },
        {
            "name": "ILS33LY",
            "fixes": {
                "RARVA": "RARVA AT OR ABOVE 2500",
                "FI33L": "FI33L 2000 RNW 33L TRK 332 UNTIL 2400 TURN RIGHT HDG 135 INTERCEPT RADIAL 090 TO",
                "LUDIM": "LUDIM LUDIM 5000 FAF FI33L MAP RNW 33L"
            },
            "transitions": [
                {
                    "name": "ASLUN",
                    "fixes": {
                        "ASLUN": "ASLUN AT OR ABOVE 3000"
                    }
                },
                {
                    "name": "TABTO",
                    "fixes": {
                        "TABTO": "TABTO AT OR ABOVE 3000"
                    }
                }
            ]
        },
        {
            "name": "ILS33LZ",
            "fixes": {
                "CI33L": "CI33L AT OR ABOVE 2400",
                "FI33L": "FI33L 2000 RNW 33L TRK 332 UNTIL 2400 TURN RIGHT HDG 135 INTERCEPT RADIAL 090 TO",
                "LUDIM": "LUDIM LUDIM 5000 FAF FI33L MAP RNW 33L"
            },
            "transitions": [
                {
                    "name": "IMGAV",
                    "fixes": {
                        "IMGAV": "IMGAV",
                        "AF014": "AF014",
                        "AF015": "AF015",
                        "AF016": "AF016",
                        "D152M": "D152M AT OR ABOVE 2400"
                    }
                },
                {
                    "name": "KUA",
                    "fixes": {
                        "KUA": "KUA AT OR ABOVE 3000 TRK 129 UNTIL 11.3 FROM KUA"
                    }
                }
            ]
        },
        {
            "name": "ILS33RY",
            "fixes": {
                "GINBI": "GINBI AT OR ABOVE 2500",
                "FI33R": "FI33R 2000 RNW 33R TRK 332 UNTIL 2400 TURN RIGHT HDG 135 INTERCEPT RADIAL 090 TO",
                "LUDIM": "LUDIM LUDIM 5000 FAF FI33R MAP RNW 33R"
            },
            "transitions": [
                {
                    "name": "ASLUN",
                    "fixes": {
                        "ASLUN": "ASLUN AT OR ABOVE 3000"
                    }
                },
                {
                    "name": "TABTO",
                    "fixes": {
                        "TABTO": "TABTO AT OR ABOVE 3000"
                    }
                }
            ]
        },
        {
            "name": "ILS33RZ",
            "fixes": {
                "CI33R": "CI33R AT OR ABOVE 2400",
                "FI33R": "FI33R 2000 RNW 33R TRK 332 UNTIL 2400 TURN RIGHT HDG 135 INTERCEPT RADIAL 090 TO",
                "LUDIM": "LUDIM LUDIM 5000 FAF FI33R MAP RNW 33R"
            },
            "transitions": [
                {
                    "name": "IMGAV",
                    "fixes": {
                        "IMGAV": "IMGAV",
                        "AF017": "AF017",
                        "AF018": "AF018",
                        "AF019": "AF019",
                        "D152L": "D152L AT OR ABOVE 2400"
                    }
                },
                {
                    "name": "KUA",
                    "fixes": {
                        "KUA": "KUA AT OR ABOVE 3000 TRK 125 UNTIL 12.1 FROM KUA"
                    }
                }
            ]
        },
        {
            "name": "RNAV15L",
            "fixes": {
                "RERAN": "RERAN AT OR ABOVE 2400",
                "FF15L": "FF15L 2000",
                "SD15L": "SD15L AT OR ABOVE 1000 RNW 15L HDG 152 UNTIL 1200",
                "LUDIM": "OVERFLY LUDIM 5000 FAF FF15L MAP RNW 15L"
            },
            "transitions": [
                {
                    "name": "IVETA",
                    "fixes": {
                        "IVETA": "IVETA AT OR ABOVE 3000"
                    }
                },
                {
                    "name": "PASEL",
                    "fixes": {
                        "PASEL": "PASEL AT OR ABOVE 3000"
                    }
                }
            ]
        },
        {
            "name": "RNAV15R",
            "fixes": {
                "DATAR": "DATAR AT OR ABOVE 2400",
                "FF15R": "FF15R 2000",
                "SD15R": "SD15R AT OR ABOVE 930 RNW 15R HDG 152 UNTIL 1200",
                "LUDIM": "OVERFLY LUDIM 5000 FAF FF15R MAP RNW 15R"
            },
            "transitions": [
                {
                    "name": "IVETA",
                    "fixes": {
                        "IVETA": "IVETA AT OR ABOVE 3000"
                    }
                },
                {
                    "name": "PASEL",
                    "fixes": {
                        "PASEL": "PASEL AT OR ABOVE 3000"
                    }
                }
            ]
        },
        {
            "name": "RNAV33L",
            "fixes": {
                "RARVA": "RARVA AT OR ABOVE 2500",
                "FF33L": "FF33L 2000 RNW 33L HDG 332 UNTIL 2400 TURN RIGHT DIRECT",
                "LUDIM": "OVERFLY LUDIM 5000 FAF FF33L MAP RNW 33L"
            },
            "transitions": [
                {
                    "name": "ASLUN",
                    "fixes": {
                        "ASLUN": "ASLUN AT OR ABOVE 3000"
                    }
                },
                {
                    "name": "TABTO",
                    "fixes": {
                        "TABTO": "TABTO AT OR ABOVE 3000"
                    }
                }
            ]
        },
        {
            "name": "RNAV33R",
            "fixes": {
                "GINBI": "GINBI AT OR ABOVE 2500",
                "FF33R": "FF33R 2000 RNW 33R HDG 332 UNTIL 2400 TURN RIGHT DIRECT",
                "LUDIM": "OVERFLY LUDIM 5000 FAF FF33R MAP RNW 33R"
            },
            "transitions": [
                {
                    "name": "ASLUN",
                    "fixes": {
                        "ASLUN": "ASLUN AT OR ABOVE 3000"
                    }
                },
                {
                    "name": "TABTO",
                    "fixes": {
                        "TABTO": "TABTO AT OR ABOVE 3000"
                    }
                }
            ]
        }
    ]
}