{
    "fixes": [
        {
            "name": "BUVPE",
            "lat": 70.11295833333334,
            "lon": 143.38771666666668
        },
        {
            "name": "CAGIX",
            "lat": 70.11311666666667,
            "lon": 143.62909443333334
        },
        {
            "name": "DEVKE",
            "lat": 70.11225833333333,
            "lon": 143.07076943333334
        },
        {
            "name": "EBGEC",
            "lat": 70.24505556666666,
            "lon": 143.0672
        },
        {
            "name": "FABAX",
            "lat": 69.97945833333333,
            "lon": 143.07429721666668
        },
        {
            "name": "HULKS",
            "lat": 70.11205833333334,
            "lon": 144.23457221666666
        },
        {
            "name": "IYAPI",
            "lat": 70.11286666666666,
            "lon": 143.91763056666667
        },
        {
            "name": "JESOT",
            "lat": 70.11310833333333,
            "lon": 143.67771666666667
        },
        {
            "name": "KNARS",
            "lat": 70.11302221666666,
            "lon": 143.80431943333335
        },
        {
            "name": "KOKBE",
            "lat": 70.24485278333333,
            "lon": 144.23854166666666
        },
        {
            "name": "LEPGE",
            "lat": 69.97926111666666,
            "lon": 144.23065278333334
        },
        {
            "name": "ZUVHO",
            "lat": 70.11308056666667,
            "lon": 143.51206111666667
        }
    ],
    "rnws": [
        "RNW 07",
        "RNW 25"
    ],
    "sids": [],
    "stars": [],
    "approaches": [
        {
            "name": "RNAV07",
            "fixes": {
                "HULKS": "HULKS AT OR ABOVE 2000",
                "IYAPI": "IYAPI 1700",
                "KNARS": "KNARS AT OR ABOVE 960",
                "JESOT": "OVERFLY JESOT 132 RNW 07 TRK 072 UNTIL 320",
                "DEVKE": "OVERFLY DEVKE AT OR ABOVE 2000 HOLD AT DEVKE RIGHT TURN INBOUNDCOURSE 253 LEGDIST 4 FAF IYAPI MAP JESO"
            },
            "transitions": [
                {
                    "name": "HULKS",
                    "fixes": {
                        "HULKS": "HULKS RIGHT TURN INBOUNDCOURSE 071 ALT 2000 LEGDIST 4"
                    }
                },
                {
                    "name": "KOKBE",
                    "fixes": {
                        "KOKBE": "KOKBE"
                    }
                },
                {
                    "name": "LEPGE",
                    "fixes": {
                        "LEPGE": "LEPGE"
                    }
                }
            ]
        },
        {
            "name": "RNAV25",
            "fixes": {
                "DEVKE": "DEVKE AT OR ABOVE 2000",
                "BUVPE": "BUVPE 1700",
                "ZUVHO": "ZUVHO AT OR ABOVE 900",
                "CAGIX": "OVERFLY CAGIX 122 RNW 25 TRK 252 UNTIL 320",
                "HULKS": "OVERFLY HULKS AT OR ABOVE 2000 HOLD AT HULKS RIGHT TURN INBOUNDCOURSE 071 LEGDIST 4 FAF BUVPE MAP CAGIX"
            },
            "transitions": [
                {
                    "name": "DEVKE",
                    "fixes": {
                        "DEVKE": "DEVKE RIGHT TURN INBOUNDCOURSE 253 ALT 2000 LEGDIST 4"
                    }
                },
                {
                    "name": "EBGEC",
                    "fixes": {
                        "EBGEC": "EBGEC"
                    }
                },
                {
                    "name": "FABAX",
                    "fixes": {
                        "FABAX": "FABAX"
                    }
                }
            ]
        }
    ]
}