{
    "fixes": [
        {
            "name": "ATUTE",
            "lat": 61.442116666666664,
            "lon": 158.86255
        },
        {
            "name": "CIKNO",
            "lat": 61.54005278333333,
            "lon": 158.94042778333332
        },
        {
            "name": "EBSIH",
            "lat": 61.50633333333333,
            "lon": 158.85205
        },
        {
            "name": "FALUD",
            "lat": 61.605216666666664,
            "lon": 159.40275556666666
        },
        {
            "name": "HINSU",
            "lat": 61.63340278333333,
            "lon": 159.60690556666665
        },
        {
            "name": "KOWWY",
            "lat": 61.55355,
            "lon": 159.65515
        },
        {
            "name": "OFRAM",
            "lat": 61.601225,
            "lon": 158.76202221666668
        },
        {
            "name": "PAWLA",
            "lat": 61.52168056666667,
            "lon": 158.81241388333333
        },
        {
            "name": "REDOY",
            "lat": 61.713236116666664,
            "lon": 159.55841111666666
        },
        {
            "name": "TUCCI",
            "lat": 61.554313883333336,
            "lon": 159.04049166666667
        }
    ],
    "rnws": [
        "RNW 09",
        "RNW 27"
    ],
    "sids": [
        {
            "name": "EBSIH1",
            "rnw": "32R",
            "fixes": {},
            "sub_fixes": [
                {
                    "rwy": "RNW 09",
                    "fixes": {
                        "RNW 09": "RNW 09 HDG 091 UNTIL 800",
                        "EBSIH": "OVERFLY EBSIH"
                    }
                },
                {
                    "rwy": "RNW 27",
                    "fixes": {
                        "RNW 27": "RNW 27 HDG 271 UNTIL 800 TURN LEFT DIRECT",
                        "EBSIH": "OVERFLY EBSIH"
                    }
                }
            ],
            "transitions": []
        }
    ],
    "stars": [],
    "approaches": [
        {
            "name": "RNAV09",
            "fixes": {
                "HINSU": "HINSU AT OR ABOVE 3200",
                "FALUD": "FALUD 2000 RNW 09",
                "PAWLA": "OVERFLY PAWLA AT OR ABOVE 3400 HOLD AT PAWLA RIGHT TURN INBOUNDCOURSE 272 LEGDIST 4 FAF FALUD MAP RNW 09"
            },
            "transitions": [
                {
                    "name": "HINSU",
                    "fixes": {
                        "HINSU": "HINSU RIGHT TURN INBOUNDCOURSE 091 ALT 3200 LEGDIST 4"
                    }
                },
                {
                    "name": "KOWWY",
                    "fixes": {
                        "KOWWY": "KOWWY AT OR ABOVE 3200"
                    }
                },
                {
                    "name": "REDOY",
                    "fixes": {
                        "REDOY": "REDOY AT OR ABOVE 3200"
                    }
                }
            ]
        },
        {
            "name": "RNAV27",
            "fixes": {
                "PAWLA": "PAWLA AT OR ABOVE 3400",
                "CIKNO": "CIKNO AT OR ABOVE 2500",
                "TUCCI": "TUCCI 1900 RNW 27",
                "HINSU": "OVERFLY HINSU AT OR ABOVE 3200 HOLD AT HINSU RIGHT TURN INBOUNDCOURSE 091 LEGDIST 4 FAF TUCCI MAP RNW 27"
            },
            "transitions": [
                {
                    "name": "ATUTE",
                    "fixes": {
                        "ATUTE": "ATUTE"
                    }
                },
                {
                    "name": "OFRAM",
                    "fixes": {
                        "OFRAM": "OFRAM"
                    }
                },
                {
                    "name": "PAWLA",
                    "fixes": {
                        "PAWLA": "PAWLA RIGHT TURN INBOUNDCOURSE 272 ALT 3400 LEGDIST 4"
                    }
                }
            ]
        }
    ]
}