{
    "fixes": [
        {
            "name": "CUCAR",
            "lat": 60.36966666666667,
            "lon": 161.72201943333334
        },
        {
            "name": "HULIG",
            "lat": 60.252544433333334,
            "lon": 162.03138333333334
        },
        {
            "name": "IPOYU",
            "lat": 60.390594433333334,
            "lon": 161.98727778333333
        },
        {
            "name": "JUDOK",
            "lat": 60.176491666666664,
            "lon": 162.05586666666667
        },
        {
            "name": "OVIYI",
            "lat": 60.11979443333333,
            "lon": 162.07404443333334
        },
        {
            "name": "ROGVE",
            "lat": 60.036713883333334,
            "lon": 162.09985833333334
        },
        {
            "name": "TEKOC",
            "lat": 60.410994433333336,
            "lon": 162.252875
        },
        {
            "name": "VICUB",
            "lat": 60.30748611666667,
            "lon": 162.01362778333333
        },
        {
            "name": "VICUK",
            "lat": 60.05681943333333,
            "lon": 162.36269721666667
        },
        {
            "name": "WUBUG",
            "lat": 60.01608611666666,
            "lon": 161.83734443333333
        }
    ],
    "rnws": [
        "RNW 18",
        "RNW 36"
    ],
    "sids": [],
    "stars": [],
    "approaches": [
        {
            "name": "RNAV18",
            "fixes": {
                "IPOYU": "IPOYU AT OR ABOVE 2500 OVERFLY IPOYU AT OR ABOVE 2500 HOLD AT IPOYU RIGHT TURN INBOUNDCOURSE 178 LEGDIST 4 FAF VICUB MAP RNW 18",
                "VICUB": "VICUB 1800",
                "HULIG": "HULIG AT OR ABOVE 720 RNW 18 TRK 178 UNTIL 600 TURN RIGHT DIRECT"
            },
            "transitions": [
                {
                    "name": "CUCAR",
                    "fixes": {
                        "CUCAR": "CUCAR"
                    }
                },
                {
                    "name": "IPOYU",
                    "fixes": {
                        "IPOYU": "IPOYU RIGHT TURN INBOUNDCOURSE 178 ALT 2500 LEGDIST 4"
                    }
                },
                {
                    "name": "TEKOC",
                    "fixes": {
                        "TEKOC": "TEKOC"
                    }
                }
            ]
        },
        {
            "name": "RNAV36",
            "fixes": {
                "ROGVE": "ROGVE AT OR ABOVE 2500 OVERFLY ROGVE AT OR ABOVE 2500 HOLD AT ROGVE RIGHT TURN INBOUNDCOURSE 358 LEGDIST 4 FAF OVIYI MAP RNW 36",
                "OVIYI": "OVIYI 1800",
                "JUDOK": "JUDOK AT OR ABOVE 680 RNW 36 TRK 358 UNTIL 427 TURN RIGHT DIRECT"
            },
            "transitions": [
                {
                    "name": "ROGVE",
                    "fixes": {
                        "ROGVE": "ROGVE RIGHT TURN INBOUNDCOURSE 358 ALT 2500 LEGDIST 4"
                    }
                },
                {
                    "name": "VICUK",
                    "fixes": {
                        "VICUK": "VICUK"
                    }
                },
                {
                    "name": "WUBUG",
                    "fixes": {
                        "WUBUG": "WUBUG"
                    }
                }
            ]
        }
    ]
}