{
    "fixes": [
        {
            "name": "ACIGE",
            "lat": 60.439805566666664,
            "lon": 151.7689
        },
        {
            "name": "AF001",
            "lat": 60.60744998333333,
            "lon": 150.92394263333333
        },
        {
            "name": "AF002",
            "lat": 60.646699383333335,
            "lon": 150.93131915
        },
        {
            "name": "AF003",
            "lat": 60.68317163333333,
            "lon": 150.96182626666666
        },
        {
            "name": "AF004",
            "lat": 60.67327825,
            "lon": 151.43956913333332
        },
        {
            "name": "AF005",
            "lat": 60.70260546666667,
            "lon": 151.39983743333335
        },
        {
            "name": "AF006",
            "lat": 60.72580331666666,
            "lon": 151.34573895
        },
        {
            "name": "AF007",
            "lat": 60.741241083333335,
            "lon": 151.28105013333334
        },
        {
            "name": "AF008",
            "lat": 60.74783168333333,
            "lon": 151.21031451666667
        },
        {
            "name": "BEYAY",
            "lat": 60.29618333333333,
            "lon": 151.68152778333334
        },
        {
            "name": "CAPRU",
            "lat": 60.49405278333333,
            "lon": 151.34259721666666
        },
        {
            "name": "D027H",
            "lat": 60.706927783333335,
            "lon": 151.00006111666667
        },
        {
            "name": "D357H",
            "lat": 60.7425,
            "lon": 151.12036943333334
        },
        {
            "name": "DIXIT",
            "lat": 60.47226943333333,
            "lon": 151.36902221666668
        },
        {
            "name": "DOKKA",
            "lat": 60.52923611666667,
            "lon": 151.29974721666667
        },
        {
            "name": "EKAYU",
            "lat": 60.041122216666665,
            "lon": 151.50157221666666
        },
        {
            "name": "ENA",
            "lat": 60.614702783333335,
            "lon": 151.19524166666667
        },
        {
            "name": "FATEL",
            "lat": 60.65027778333334,
            "lon": 151.15152221666668
        },
        {
            "name": "FOPTY",
            "lat": 60.407052783333334,
            "lon": 151.44808611666667
        },
        {
            "name": "FREDE",
            "lat": 60.637366666666665,
            "lon": 151.16735556666666
        },
        {
            "name": "HOM",
            "lat": 59.70943056666667,
            "lon": 151.4566
        },
        {
            "name": "JASGO",
            "lat": 60.329538883333335,
            "lon": 151.54136666666668
        },
        {
            "name": "KASSI",
            "lat": 60.28571388333334,
            "lon": 151.2919
        },
        {
            "name": "PI001",
            "lat": 60.420283266666665,
            "lon": 151.42267083333334
        },
        {
            "name": "PI002",
            "lat": 60.398065683333336,
            "lon": 151.56065275
        },
        {
            "name": "PI003",
            "lat": 60.323680583333335,
            "lon": 151.52185018333333
        },
        {
            "name": "ROJAR",
            "lat": 60.560222216666666,
            "lon": 150.94864721666667
        },
        {
            "name": "SWANS",
            "lat": 60.7281,
            "lon": 150.94754721666666
        },
        {
            "name": "TBONE",
            "lat": 60.728419433333336,
            "lon": 151.05505833333333
        },
        {
            "name": "TWIGI",
            "lat": 60.64780556666667,
            "lon": 151.45741111666666
        },
        {
            "name": "YILUS",
            "lat": 60.84748056666667,
            "lon": 151.25135
        },
        {
            "name": "ZUTOR",
            "lat": 60.70721111666667,
            "lon": 150.75648056666665
        }
    ],
    "rnws": [
        "RNW 02",
        "RNW 02L",
        "RNW 02R",
        "RNW 20",
        "RNW 20L",
        "RNW 20R"
    ],
    "sids": [],
    "stars": [],
    "approaches": [
        {
            "name": "VORD02L",
            "fixes": {
                "JASGO": "JASGO AT OR ABOVE 2200",
                "DIXIT": "DIXIT 2200",
                "DOKKA": "DOKKA AT OR ABOVE 900 RNW 02L",
                "ENA": "ENA",
                "SWANS": "SWANS AT OR ABOVE 2000 HOLD AT SWANS RIGHT TURN INBOUNDCOURSE 208 LEGTIME 1 FAF DIXIT MAP RNW 02L"
            },
            "transitions": [
                {
                    "name": "ACIGE",
                    "fixes": {
                        "ACIGE": "ACIGE"
                    }
                },
                {
                    "name": "BEYAY",
                    "fixes": {
                        "BEYAY": "BEYAY HDG 062 INTERCEPT RADIAL 012 TO",
                        "JASGO": "JASGO"
                    }
                },
                {
                    "name": "ENA",
                    "fixes": {
                        "ENA": "ENA",
                        "DIXIT": "DIXIT AT OR ABOVE 2200",
                        "PI001": "PI001 AT OR ABOVE 2200 SPEED 210",
                        "PI002": "OVERFLY PI002 AT OR ABOVE 2200 SPEED 210",
                        "PI003": "PI003 AT OR ABOVE 2200 SPEED 210"
                    }
                },
                {
                    "name": "HOM",
                    "fixes": {
                        "HOM": "HOM",
                        "EKAYU": "EKAYU AT OR ABOVE 3500"
                    }
                }
            ]
        },
        {
            "name": "VORD20R",
            "fixes": {
                "TBONE": "TBONE AT OR ABOVE 2000",
                "FATEL": "FATEL AT OR ABOVE 1300",
                "ENA": "ENA 1000 RNW 20R",
                "DIXIT": "DIXIT AT OR ABOVE 2200 HOLD AT DIXIT LEFT TURN INBOUNDCOURSE 012 LEGTIME 1 FAF ENA MAP RNW 20R"
            },
            "transitions": [
                {
                    "name": "ENA",
                    "fixes": {
                        "ENA": "ENA",
                        "TBONE": "TBONE AT OR ABOVE 2000 HOLD AT TBONE RIGHT TURN INBOUNDCOURSE 192 ALT 2000 LEGTIME 1"
                    }
                },
                {
                    "name": "ROJAR",
                    "fixes": {
                        "ROJAR": "ROJAR"
                    }
                },
                {
                    "name": "TWIGI",
                    "fixes": {
                        "TWIGI": "TWIGI"
                    }
                }
            ]
        },
        {
            "name": "ILS20RY",
            "fixes": {
                "TBONE": "TBONE AT OR ABOVE 2000 TBONE TBONE AT OR ABOVE 4000 HOLD AT TBONE RIGHT TURN INBOUNDCOURSE 212 LEGTIME 1 FAF FREDE MAP RNW 20R",
                "FREDE": "FREDE 1400 RNW 20R TRK 196 UNTIL 1800 TURN RIGHT HDG 046 INTERCEPT RADIAL 032 TO"
            },
            "transitions": [
                {
                    "name": "ENA",
                    "fixes": {
                        "ENA": "ENA",
                        "TBONE": "TBONE AT OR ABOVE 2000 HOLD AT TBONE RIGHT TURN INBOUNDCOURSE 196 ALT 2000 LEGTIME 1"
                    }
                },
                {
                    "name": "ROJAR",
                    "fixes": {
                        "ROJAR": "ROJAR",
                        "AF001": "AF001",
                        "AF002": "AF002",
                        "AF003": "AF003",
                        "D027H": "D027H AT OR ABOVE 2000"
                    }
                },
                {
                    "name": "TWIGI",
                    "fixes": {
                        "TWIGI": "TWIGI",
                        "AF004": "AF004",
                        "AF005": "AF005",
                        "AF006": "AF006",
                        "AF007": "AF007",
                        "AF008": "AF008",
                        "D357H": "D357H AT OR ABOVE 2000"
                    }
                }
            ]
        },
        {
            "name": "ILS20RZ",
            "fixes": {
                "TBONE": "TBONE AT OR ABOVE 2000",
                "FREDE": "FREDE 1400 RNW 20R TRK 196 UNTIL 500",
                "DIXIT": "DIXIT AT OR ABOVE 2200 HOLD AT DIXIT LEFT TURN INBOUNDCOURSE 012 LEGTIME 1 FAF FREDE MAP RNW 20R"
            },
            "transitions": [
                {
                    "name": "ENA",
                    "fixes": {
                        "ENA": "ENA",
                        "TBONE": "TBONE AT OR ABOVE 2000 HOLD AT TBONE RIGHT TURN INBOUNDCOURSE 196 ALT 2000 LEGTIME 1"
                    }
                },
                {
                    "name": "ROJAR",
                    "fixes": {
                        "ROJAR": "ROJAR",
                        "AF001": "AF001",
                        "AF002": "AF002",
                        "AF003": "AF003",
                        "D027H": "D027H AT OR ABOVE 2000"
                    }
                },
                {
                    "name": "TWIGI",
                    "fixes": {
                        "TWIGI": "TWIGI",
                        "AF004": "AF004",
                        "AF005": "AF005",
                        "AF006": "AF006",
                        "AF007": "AF007",
                        "AF008": "AF008",
                        "D357H": "D357H AT OR ABOVE 2000"
                    }
                }
            ]
        },
        {
            "name": "RNAV02L",
            "fixes": {
                "FOPTY": "FOPTY AT OR ABOVE 2000",
                "CAPRU": "CAPRU 1700 RNW 02L TRK 016 UNTIL 344",
                "TBONE": "OVERFLY TBONE AT OR ABOVE 2000 HOLD AT TBONE RIGHT TURN INBOUNDCOURSE 196 LEGDIST 5 FAF CAPRU MAP RNW 02L"
            },
            "transitions": [
                {
                    "name": "ACIGE",
                    "fixes": {
                        "ACIGE": "ACIGE"
                    }
                },
                {
                    "name": "ENA",
                    "fixes": {
                        "ENA": "ENA",
                        "FOPTY": "OVERFLY FOPTY AT OR ABOVE 2000 HOLD AT FOPTY LEFT TURN INBOUNDCOURSE 016 ALT 2000 LEGDIST 5"
                    }
                },
                {
                    "name": "KASSI",
                    "fixes": {
                        "KASSI": "KASSI"
                    }
                }
            ]
        },
        {
            "name": "RNAV20R",
            "fixes": {
                "TBONE": "TBONE AT OR ABOVE 2000",
                "FREDE": "FREDE 1400 RNW 20R TRK 196 UNTIL 298",
                "FOPTY": "OVERFLY FOPTY AT OR ABOVE 2000 HOLD AT FOPTY LEFT TURN INBOUNDCOURSE 016 LEGDIST 5 FAF FREDE MAP RNW 20R"
            },
            "transitions": [
                {
                    "name": "ENA",
                    "fixes": {
                        "ENA": "ENA",
                        "TBONE": "OVERFLY TBONE AT OR ABOVE 2000 HOLD AT TBONE RIGHT TURN INBOUNDCOURSE 196 ALT 2000 LEGDIST 5"
                    }
                },
                {
                    "name": "YILUS",
                    "fixes": {
                        "YILUS": "YILUS"
                    }
                },
                {
                    "name": "ZUTOR",
                    "fixes": {
                        "ZUTOR": "ZUTOR"
                    }
                }
            ]
        }
    ]
}