{
    "fixes": [
        {
            "name": "AF001",
            "lat": 58.87106971666667,
            "lon": 156.36111196666667
        },
        {
            "name": "AF002",
            "lat": 58.80530108333333,
            "lon": 156.29596655
        },
        {
            "name": "AF003",
            "lat": 58.7325417,
            "lon": 156.27097223333334
        },
        {
            "name": "AF004",
            "lat": 58.48895421666667,
            "lon": 156.91201333333333
        },
        {
            "name": "AF005",
            "lat": 58.4748651,
            "lon": 156.73566085
        },
        {
            "name": "AF006",
            "lat": 58.49530715,
            "lon": 156.56158341666668
        },
        {
            "name": "AF007",
            "lat": 58.49889771666667,
            "lon": 155.71965586666667
        },
        {
            "name": "AF008",
            "lat": 58.432334383333334,
            "lon": 155.78409478333333
        },
        {
            "name": "AF009",
            "lat": 58.63184378333333,
            "lon": 157.01857048333332
        },
        {
            "name": "AF010",
            "lat": 58.6714715,
            "lon": 157.05633055
        },
        {
            "name": "AF011",
            "lat": 58.714867416666664,
            "lon": 157.07277873333334
        },
        {
            "name": "AF012",
            "lat": 58.821627766666666,
            "lon": 156.49079995
        },
        {
            "name": "AF013",
            "lat": 58.84098086666667,
            "lon": 156.52194316666666
        },
        {
            "name": "AF014",
            "lat": 58.88363043333333,
            "lon": 156.65536633333335
        },
        {
            "name": "AF015",
            "lat": 58.891278533333335,
            "lon": 156.76360516666668
        },
        {
            "name": "AF016",
            "lat": 58.879729616666665,
            "lon": 156.87053455
        },
        {
            "name": "AKN",
            "lat": 58.72471388333334,
            "lon": 156.75234721666666
        },
        {
            "name": "AUBNB",
            "lat": 58.73716666666667,
            "lon": 156.77830833333334
        },
        {
            "name": "CACCA",
            "lat": 58.6373,
            "lon": 156.30355833333334
        },
        {
            "name": "CASNO",
            "lat": 58.55763888333333,
            "lon": 156.39546666666666
        },
        {
            "name": "CICAR",
            "lat": 58.62443888333333,
            "lon": 156.53745556666667
        },
        {
            "name": "D108O",
            "lat": 58.584544433333335,
            "lon": 156.35612778333333
        },
        {
            "name": "D124O",
            "lat": 58.53329443333333,
            "lon": 156.44579721666668
        },
        {
            "name": "D284J",
            "lat": 58.807461116666666,
            "lon": 157.02957778333334
        },
        {
            "name": "D308J",
            "lat": 58.85881388333333,
            "lon": 156.94059721666667
        },
        {
            "name": "DUPYA",
            "lat": 58.808283333333335,
            "lon": 156.93245278333333
        },
        {
            "name": "EPEYA",
            "lat": 58.644677783333336,
            "lon": 156.5807
        },
        {
            "name": "EXIPE",
            "lat": 58.72678333333333,
            "lon": 157.07200833333334
        },
        {
            "name": "FELUM",
            "lat": 58.595058333333334,
            "lon": 156.47486943333334
        },
        {
            "name": "FOMUT",
            "lat": 58.88268611666667,
            "lon": 156.80424443333334
        },
        {
            "name": "GAKKE",
            "lat": 58.52528611666666,
            "lon": 156.32692221666667
        },
        {
            "name": "HENAS",
            "lat": 58.45125,
            "lon": 156.45456666666666
        },
        {
            "name": "HEXES",
            "lat": 58.73908888333333,
            "lon": 156.78332221666668
        },
        {
            "name": "ICADI",
            "lat": 58.61213333333333,
            "lon": 156.17623888333333
        },
        {
            "name": "JUTAN",
            "lat": 58.497258333333335,
            "lon": 156.64136666666667
        },
        {
            "name": "KINGE",
            "lat": 58.73871666666667,
            "lon": 156.78251943333333
        },
        {
            "name": "KOKOZ",
            "lat": 58.51833056666667,
            "lon": 155.70893611666668
        },
        {
            "name": "KUMBE",
            "lat": 58.64183333333333,
            "lon": 156.57459166666666
        },
        {
            "name": "LODKE",
            "lat": 58.70848611666667,
            "lon": 156.71743611666668
        },
        {
            "name": "NIRRI",
            "lat": 58.834977783333336,
            "lon": 156.99103611666666
        },
        {
            "name": "NOGAE",
            "lat": 58.60900556666667,
            "lon": 156.98243611666666
        },
        {
            "name": "NOVET",
            "lat": 59.05467778333333,
            "lon": 157.47410556666668
        },
        {
            "name": "OLAYA",
            "lat": 58.909338883333334,
            "lon": 156.43008333333333
        },
        {
            "name": "OLLER",
            "lat": 58.551119433333334,
            "lon": 157.09666943333335
        },
        {
            "name": "OSKOE",
            "lat": 58.78712221666667,
            "lon": 156.45617778333335
        },
        {
            "name": "PI001",
            "lat": 58.75978855,
            "lon": 156.84217491666666
        },
        {
            "name": "PI002",
            "lat": 58.749742033333334,
            "lon": 156.97897596666667
        },
        {
            "name": "PI003",
            "lat": 58.87459215,
            "lon": 157.13860131666667
        },
        {
            "name": "PUCID",
            "lat": 58.55768056666667,
            "lon": 156.39546666666666
        },
        {
            "name": "TUYOC",
            "lat": 58.33416943333334,
            "lon": 155.92660278333332
        },
        {
            "name": "WAKSA",
            "lat": 58.49093611666667,
            "lon": 156.25451111666666
        },
        {
            "name": "WULAK",
            "lat": 58.659919433333336,
            "lon": 156.61326388333333
        },
        {
            "name": "YEYYU",
            "lat": 58.77261943333333,
            "lon": 157.058425
        },
        {
            "name": "ZAMOM",
            "lat": 58.8479,
            "lon": 156.53831388333333
        },
        {
            "name": "ZARLU",
            "lat": 58.63794443333333,
            "lon": 156.56628056666668
        }
    ],
    "rnws": [
        "RNW 12",
        "RNW 18",
        "RNW 30",
        "RNW 36"
    ],
    "sids": [],
    "stars": [],
    "approaches": [
        {
            "name": "LOCB30",
            "fixes": {
                "PUCID": "PUCID AT OR ABOVE 2900",
                "FELUM": "FELUM AT OR ABOVE 1600",
                "CICAR": "CICAR 1400",
                "ZARLU": "ZARLU AT OR ABOVE 1000",
                "WULAK": "WULAK 349 RNW 30 TRK 301 UNTIL 600 HDG 240 INTERCEPT RADIAL 210 TO",
                "OLLER": "OLLER OLLER AT OR ABOVE 3000 HOLD AT OLLER RIGHT TURN INBOUNDCOURSE 030 SPEED 230 LEGTIME 1 FAF CICAR MAP WULAK"
            },
            "transitions": [
                {
                    "name": "AKN",
                    "fixes": {
                        "AKN": "AKN",
                        "PUCID": "PUCID AT OR ABOVE 2900 HOLD AT PUCID LEFT TURN INBOUNDCOURSE 301 ALT 2900 LEGTIME 1"
                    }
                },
                {
                    "name": "AUB",
                    "fixes": {
                        "AUBNB": "AUBNB",
                        "PUCID": "PUCID AT OR ABOVE 2900 HOLD AT PUCID LEFT TURN INBOUNDCOURSE 301 ALT 2900 LEGTIME 1"
                    }
                },
                {
                    "name": "CACCA",
                    "fixes": {
                        "CACCA": "CACCA",
                        "D108O": "D108O AT OR ABOVE 2900"
                    }
                },
                {
                    "name": "OLAYA",
                    "fixes": {
                        "OLAYA": "OLAYA",
                        "AF001": "AF001",
                        "AF002": "AF002",
                        "AF003": "AF003",
                        "CACCA": "CACCA AT OR ABOVE 2900",
                        "D108O": "D108O AT OR ABOVE 2900"
                    }
                },
                {
                    "name": "OLLER",
                    "fixes": {
                        "OLLER": "OLLER",
                        "AF004": "AF004",
                        "AF005": "AF005",
                        "AF006": "AF006",
                        "D124O": "D124O AT OR ABOVE 2900"
                    }
                }
            ]
        },
        {
            "name": "VORDY30",
            "fixes": {
                "CASNO": "CASNO AT OR ABOVE 2900",
                "FELUM": "FELUM AT OR ABOVE 2200",
                "CICAR": "CICAR 1400",
                "EPEYA": "EPEYA AT OR ABOVE 800 RNW 30 TRK 296 UNTIL 480 HDG 240 INTERCEPT RADIAL 210 TO",
                "OLLER": "OLLER OLLER AT OR ABOVE 3000 HOLD AT OLLER RIGHT TURN INBOUNDCOURSE 030 SPEED 230 LEGTIME 1 FAF CICAR MAP RNW 30"
            },
            "transitions": [
                {
                    "name": "AKN",
                    "fixes": {
                        "AKN": "AKN",
                        "CASNO": "CASNO AT OR ABOVE 2900 HOLD AT CASNO LEFT TURN INBOUNDCOURSE 296 ALT 2900 LEGTIME 1"
                    }
                },
                {
                    "name": "AUB",
                    "fixes": {
                        "AUBNB": "AUBNB",
                        "CASNO": "CASNO AT OR ABOVE 2900 HOLD AT CASNO LEFT TURN INBOUNDCOURSE 296 ALT 2900 LEGTIME 1"
                    }
                },
                {
                    "name": "CACCA",
                    "fixes": {
                        "CACCA": "CACCA"
                    }
                },
                {
                    "name": "OLAYA",
                    "fixes": {
                        "OLAYA": "OLAYA",
                        "AF001": "AF001",
                        "AF002": "AF002",
                        "AF003": "AF003",
                        "CACCA": "CACCA AT OR ABOVE 2900"
                    }
                },
                {
                    "name": "OLLER",
                    "fixes": {
                        "OLLER": "OLLER"
                    }
                }
            ]
        },
        {
            "name": "VORDZ30",
            "fixes": {
                "CASNO": "CASNO AT OR ABOVE 3100",
                "FELUM": "FELUM AT OR ABOVE 2200",
                "CICAR": "CICAR 1400",
                "EPEYA": "EPEYA AT OR ABOVE 800 RNW 30 TRK 296 UNTIL 480 HDG 240 INTERCEPT RADIAL 210 TO",
                "OLLER": "OLLER OLLER AT OR ABOVE 3000 HOLD AT OLLER RIGHT TURN INBOUNDCOURSE 030 ALT 17500 SPEED 230 LEGTIME 1 FAF CICAR MAP RNW 30"
            },
            "transitions": [
                {
                    "name": "KOKOZ",
                    "fixes": {
                        "KOKOZ": "KOKOZ AT OR ABOVE 12000",
                        "AF007": "AF007",
                        "AF008": "AF008",
                        "TUYOC": "TUYOC AT OR ABOVE 5800",
                        "WAKSA": "WAKSA AT OR ABOVE 4800"
                    }
                }
            ]
        },
        {
            "name": "ILSY12",
            "fixes": {
                "NIRRI": "NIRRI AT OR ABOVE 2000",
                "KINGE": "KINGE 1700 RNW 12 TRK 121 UNTIL 600 TURN RIGHT HDG 240 INTERCEPT RADIAL 210 TO",
                "OLLER": "OLLER OLLER AT OR ABOVE 3000 HOLD AT OLLER RIGHT TURN INBOUNDCOURSE 030 SPEED 230 LEGTIME 1 FAF KINGE MAP RNW 12"
            },
            "transitions": [
                {
                    "name": "AKN",
                    "fixes": {
                        "PI001": "PI001 AT OR ABOVE 2000 SPEED 210",
                        "PI002": "OVERFLY PI002 AT OR ABOVE 2000 SPEED 210",
                        "PI003": "PI003 AT OR ABOVE 2000 SPEED 210"
                    }
                },
                {
                    "name": "NOGAE",
                    "fixes": {
                        "NOGAE": "NOGAE",
                        "AF009": "AF009",
                        "AF010": "AF010",
                        "AF011": "AF011",
                        "YEYYU": "YEYYU AT OR ABOVE 2000",
                        "D284J": "D284J AT OR ABOVE 2000"
                    }
                },
                {
                    "name": "OSKOE",
                    "fixes": {
                        "OSKOE": "OSKOE",
                        "AF012": "AF012",
                        "AF013": "AF013",
                        "ZAMOM": "ZAMOM AT OR ABOVE 2400",
                        "AF014": "AF014",
                        "AF015": "AF015",
                        "AF016": "AF016",
                        "D308J": "D308J AT OR ABOVE 2000"
                    }
                },
                {
                    "name": "YEYYU",
                    "fixes": {
                        "YEYYU": "YEYYU",
                        "D284J": "D284J AT OR ABOVE 2000"
                    }
                },
                {
                    "name": "ZAMOM",
                    "fixes": {
                        "ZAMOM": "ZAMOM",
                        "AF014": "AF014",
                        "AF015": "AF015",
                        "AF016": "AF016",
                        "D308J": "D308J AT OR ABOVE 2000"
                    }
                }
            ]
        },
        {
            "name": "ILSZ12",
            "fixes": {
                "NIRRI": "NIRRI AT OR ABOVE 2000",
                "KINGE": "KINGE 1700 RNW 12 TRK 121 UNTIL 600 TURN RIGHT HDG 240 INTERCEPT RADIAL 210 TO",
                "OLLER": "OLLER OLLER AT OR ABOVE 3000 HOLD AT OLLER RIGHT TURN INBOUNDCOURSE 030 ALT 17500 SPEED 230 LEGTIME 1 FAF KINGE MAP RNW 12"
            },
            "transitions": [
                {
                    "name": "NOVET",
                    "fixes": {
                        "NOVET": "NOVET AT OR ABOVE 20000"
                    }
                }
            ]
        },
        {
            "name": "RNAV12",
            "fixes": {
                "DUPYA": "DUPYA AT OR ABOVE 2000",
                "HEXES": "HEXES 1700",
                "LODKE": "LODKE AT OR ABOVE 820 RNW 12 TRK 121 UNTIL 262",
                "FELUM": "FELUM",
                "JUTAN": "JUTAN",
                "OLLER": "OVERFLY OLLER AT OR ABOVE 3000 HOLD AT OLLER RIGHT TURN INBOUNDCOURSE 035 SPEED 230 LEGDIST 6 FAF HEXES MAP RNW 12"
            },
            "transitions": [
                {
                    "name": "DUPYA",
                    "fixes": {
                        "DUPYA": "DUPYA RIGHT TURN INBOUNDCOURSE 121 ALT 2000 LEGDIST 6"
                    }
                },
                {
                    "name": "EXIPE",
                    "fixes": {
                        "EXIPE": "EXIPE"
                    }
                },
                {
                    "name": "FOMUT",
                    "fixes": {
                        "FOMUT": "FOMUT"
                    }
                }
            ]
        },
        {
            "name": "RNAV30",
            "fixes": {
                "GAKKE": "GAKKE AT OR ABOVE 3200",
                "FELUM": "FELUM 2200",
                "KUMBE": "KUMBE AT OR ABOVE 860 RNW 30 TRK 301 UNTIL 273",
                "HEXES": "HEXES",
                "EXIPE": "EXIPE",
                "OLLER": "OVERFLY OLLER AT OR ABOVE 3000 HOLD AT OLLER RIGHT TURN INBOUNDCOURSE 035 SPEED 230 LEGDIST 6 FAF FELUM MAP RNW 30"
            },
            "transitions": [
                {
                    "name": "GAKKE",
                    "fixes": {
                        "GAKKE": "GAKKE LEFT TURN INBOUNDCOURSE 301 ALT 3200 LEGDIST 6"
                    }
                },
                {
                    "name": "HENAS",
                    "fixes": {
                        "HENAS": "HENAS"
                    }
                },
                {
                    "name": "ICADI",
                    "fixes": {
                        "ICADI": "ICADI"
                    }
                }
            ]
        },
        {
            "name": "VORY12",
            "fixes": {
                "NIRRI": "NIRRI AT OR ABOVE 2000",
                "AKN": "AKN 1300 RNW 12 TRK 116 UNTIL 600 TURN RIGHT DIRECT AKN AT OR ABOVE 3000 HOLD AT AKN RIGHT TURN INBOUNDCOURSE 116 ALT 3000 LEGTIME 1 FAF AKN MAP RNW 12"
            },
            "transitions": [
                {
                    "name": "AKN",
                    "fixes": {
                        "PI001": "PI001 AT OR ABOVE 2000 SPEED 210",
                        "PI002": "OVERFLY PI002 AT OR ABOVE 2000 SPEED 210",
                        "PI003": "PI003 AT OR ABOVE 2000 SPEED 210"
                    }
                },
                {
                    "name": "NOGAE",
                    "fixes": {
                        "NOGAE": "NOGAE",
                        "AF009": "AF009",
                        "AF010": "AF010",
                        "AF011": "AF011",
                        "YEYYU": "YEYYU AT OR ABOVE 2000"
                    }
                },
                {
                    "name": "OSKOE",
                    "fixes": {
                        "OSKOE": "OSKOE",
                        "AF012": "AF012",
                        "AF013": "AF013",
                        "ZAMOM": "ZAMOM AT OR ABOVE 2400"
                    }
                },
                {
                    "name": "YEYYU",
                    "fixes": {
                        "YEYYU": "YEYYU"
                    }
                },
                {
                    "name": "ZAMOM",
                    "fixes": {
                        "ZAMOM": "ZAMOM"
                    }
                }
            ]
        },
        {
            "name": "VORZ12",
            "fixes": {
                "NIRRI": "NIRRI AT OR ABOVE 2000",
                "AKN": "AKN 1300 RNW 12 TRK 116 UNTIL 480 TURN RIGHT HDG 238 INTERCEPT RADIAL 210 TO",
                "OLLER": "OLLER OLLER AT OR ABOVE 3000 HOLD AT OLLER RIGHT TURN INBOUNDCOURSE 030 ALT 17500 SPEED 230 LEGTIME 1 FAF AKN MAP RNW 12"
            },
            "transitions": [
                {
                    "name": "NOVET",
                    "fixes": {
                        "NOVET": "NOVET AT OR ABOVE 20000"
                    }
                }
            ]
        },
        {
            "name": "VORY12",
            "fixes": {
                "NIRRI": "NIRRI AT OR ABOVE 2000",
                "AKN": "AKN 1300 RNW 12 TRK 116 UNTIL 480 TURN RIGHT HDG 238 INTERCEPT RADIAL 210 TO",
                "OLLER": "OLLER OLLER AT OR ABOVE 3000 HOLD AT OLLER RIGHT TURN INBOUNDCOURSE 030 LEGTIME 1 FAF AKN MAP RNW 12"
            },
            "transitions": [
                {
                    "name": "AKN",
                    "fixes": {
                        "PI001": "PI001 AT OR ABOVE 2000 SPEED 210",
                        "PI002": "OVERFLY PI002 AT OR ABOVE 2000 SPEED 210",
                        "PI003": "PI003 AT OR ABOVE 2000 SPEED 210"
                    }
                },
                {
                    "name": "NOGAE",
                    "fixes": {
                        "NOGAE": "NOGAE",
                        "AF009": "AF009",
                        "AF010": "AF010",
                        "AF011": "AF011",
                        "YEYYU": "YEYYU AT OR ABOVE 2000"
                    }
                },
                {
                    "name": "OSKOE",
                    "fixes": {
                        "OSKOE": "OSKOE",
                        "AF012": "AF012",
                        "AF013": "AF013",
                        "ZAMOM": "ZAMOM AT OR ABOVE 2400"
                    }
                },
                {
                    "name": "YEYYU",
                    "fixes": {
                        "YEYYU": "YEYYU"
                    }
                },
                {
                    "name": "ZAMOM",
                    "fixes": {
                        "ZAMOM": "ZAMOM"
                    }
                }
            ]
        },
        {
            "name": "VORZ12",
            "fixes": {
                "NIRRI": "NIRRI AT OR ABOVE 2000",
                "AKN": "AKN 1300 RNW 12 TRK 116 UNTIL 480 TURN RIGHT HDG 238 INTERCEPT RADIAL 210 TO",
                "OLLER": "OLLER OLLER AT OR ABOVE 3000 HOLD AT OLLER RIGHT TURN INBOUNDCOURSE 030 ALT 17500 SPEED 230 LEGTIME 1 FAF AKN MAP RNW 12"
            },
            "transitions": [
                {
                    "name": "NOVET",
                    "fixes": {
                        "NOVET": "NOVET AT OR ABOVE 20000"
                    }
                }
            ]
        },
        {
            "name": "VORY30",
            "fixes": {
                "CASNO": "CASNO AT OR ABOVE 2900",
                "FELUM": "FELUM AT OR ABOVE 2200",
                "CICAR": "CICAR 1400",
                "EPEYA": "EPEYA AT OR ABOVE 800 RNW 30 TRK 296 UNTIL 480 HDG 240 INTERCEPT RADIAL 210 TO",
                "OLLER": "OLLER OLLER AT OR ABOVE 3000 HOLD AT OLLER RIGHT TURN INBOUNDCOURSE 030 SPEED 230 LEGTIME 1 FAF CICAR MAP RNW 30"
            },
            "transitions": [
                {
                    "name": "AKN",
                    "fixes": {
                        "AKN": "AKN",
                        "CASNO": "CASNO AT OR ABOVE 2900 HOLD AT CASNO LEFT TURN INBOUNDCOURSE 296 ALT 2900 LEGTIME 1"
                    }
                },
                {
                    "name": "AUB",
                    "fixes": {
                        "AUBNB": "AUBNB",
                        "CASNO": "CASNO AT OR ABOVE 2900 HOLD AT CASNO LEFT TURN INBOUNDCOURSE 296 ALT 2900 LEGTIME 1"
                    }
                },
                {
                    "name": "CACCA",
                    "fixes": {
                        "CACCA": "CACCA"
                    }
                },
                {
                    "name": "OLAYA",
                    "fixes": {
                        "OLAYA": "OLAYA",
                        "AF001": "AF001",
                        "AF002": "AF002",
                        "AF003": "AF003",
                        "CACCA": "CACCA AT OR ABOVE 2900"
                    }
                },
                {
                    "name": "OLLER",
                    "fixes": {
                        "OLLER": "OLLER"
                    }
                }
            ]
        },
        {
            "name": "VORZ30",
            "fixes": {
                "CASNO": "CASNO AT OR ABOVE 3100",
                "FELUM": "FELUM AT OR ABOVE 2200",
                "CICAR": "CICAR 1400",
                "EPEYA": "EPEYA AT OR ABOVE 800 RNW 30 TRK 296 UNTIL 480 HDG 240 INTERCEPT RADIAL 210 TO",
                "OLLER": "OLLER OLLER AT OR ABOVE 3000 HOLD AT OLLER RIGHT TURN INBOUNDCOURSE 030 ALT 17500 SPEED 230 LEGTIME 1 FAF CICAR MAP RNW 30"
            },
            "transitions": [
                {
                    "name": "KOKOZ",
                    "fixes": {
                        "KOKOZ": "KOKOZ AT OR ABOVE 12000",
                        "AF007": "AF007",
                        "AF008": "AF008",
                        "TUYOC": "TUYOC AT OR ABOVE 5800",
                        "WAKSA": "WAKSA AT OR ABOVE 4800"
                    }
                }
            ]
        }
    ]
}