{
    "fixes": [
        {
            "name": "DEALS",
            "lat": 59.73416666666667,
            "lon": 147.51969166666666
        },
        {
            "name": "MDO",
            "lat": 59.42180556666667,
            "lon": 146.35001388333333
        },
        {
            "name": "MODDS",
            "lat": 59.842333333333336,
            "lon": 147.38941943333333
        },
        {
            "name": "NUGIC",
            "lat": 59.518338883333335,
            "lon": 146.21324166666668
        },
        {
            "name": "PI001",
            "lat": 59.3770989,
            "lon": 146.42362406666666
        },
        {
            "name": "PI002",
            "lat": 59.30570436666667,
            "lon": 146.41138766666666
        },
        {
            "name": "PI003",
            "lat": 59.29396268333333,
            "lon": 146.55981476666668
        },
        {
            "name": "PIVIY",
            "lat": 59.45820833333333,
            "lon": 146.29408333333333
        },
        {
            "name": "RUROC",
            "lat": 59.60221666666666,
            "lon": 146.09988333333334
        },
        {
            "name": "TECOD",
            "lat": 59.658597216666664,
            "lon": 146.26234721666665
        },
        {
            "name": "VIBBU",
            "lat": 59.43734166666667,
            "lon": 146.32205
        },
        {
            "name": "WOSTO",
            "lat": 59.377127783333336,
            "lon": 146.40251943333334
        },
        {
            "name": "YULUP",
            "lat": 59.293002783333336,
            "lon": 146.51435833333332
        },
        {
            "name": "ZEBAD",
            "lat": 59.34888333333333,
            "lon": 146.67601388333333
        }
    ],
    "rnws": [
        "RNW 02",
        "RNW 13",
        "RNW 20",
        "RNW 31"
    ],
    "sids": [],
    "stars": [],
    "approaches": [
        {
            "name": "RNAV02",
            "fixes": {
                "YULUP": "YULUP AT OR ABOVE 1700",
                "WOSTO": "WOSTO 1700",
                "VIBBU": "OVERFLY VIBBU 305 RNW 02 TRK 016 UNTIL 500",
                "RUROC": "OVERFLY RUROC AT OR ABOVE 1700 HOLD AT RUROC RIGHT TURN INBOUNDCOURSE 196 LEGDIST 4 FAF WOSTO MAP VIBBU"
            },
            "transitions": [
                {
                    "name": "DEALS",
                    "fixes": {
                        "DEALS": "DEALS",
                        "ZEBAD": "ZEBAD AT OR ABOVE 2600"
                    }
                },
                {
                    "name": "MODDS",
                    "fixes": {
                        "MODDS": "MODDS",
                        "ZEBAD": "ZEBAD AT OR ABOVE 2600"
                    }
                },
                {
                    "name": "YULUP",
                    "fixes": {
                        "YULUP": "YULUP RIGHT TURN INBOUNDCOURSE 016 ALT 1700 LEGDIST 4"
                    }
                }
            ]
        },
        {
            "name": "RNAV20",
            "fixes": {
                "RUROC": "RUROC AT OR ABOVE 1700",
                "NUGIC": "NUGIC 1700",
                "PIVIY": "OVERFLY PIVIY 305 RNW 20 TRK 196 UNTIL 420",
                "YULUP": "OVERFLY YULUP AT OR ABOVE 1700 HOLD AT YULUP RIGHT TURN INBOUNDCOURSE 016 LEGDIST 4 FAF NUGIC MAP PIVIY"
            },
            "transitions": [
                {
                    "name": "DEALS",
                    "fixes": {
                        "DEALS": "DEALS",
                        "TECOD": "TECOD AT OR ABOVE 2600"
                    }
                },
                {
                    "name": "MODDS",
                    "fixes": {
                        "MODDS": "MODDS",
                        "TECOD": "TECOD AT OR ABOVE 2600"
                    }
                },
                {
                    "name": "RUROC",
                    "fixes": {
                        "RUROC": "RUROC RIGHT TURN INBOUNDCOURSE 196 ALT 1700 LEGDIST 4"
                    }
                }
            ]
        },
        {
            "name": "VOR02",
            "fixes": {
                "MDO": "MDO 700 RNW 02 TRK 022 UNTIL 1000 TURN LEFT DIRECT MDO AT OR ABOVE 1500 HOLD AT MDO RIGHT TURN INBOUNDCOURSE 022 LEGTIME 1 FAF MDO MAP RNW 02"
            },
            "transitions": [
                {
                    "name": "DEALS",
                    "fixes": {
                        "DEALS": "DEALS",
                        "MDO": "MDO AT OR ABOVE 2500",
                        "PI001": "PI001 AT OR ABOVE 1500 SPEED 210",
                        "PI002": "OVERFLY PI002 AT OR ABOVE 1500 SPEED 210",
                        "PI003": "PI003 AT OR ABOVE 1500 SPEED 210"
                    }
                },
                {
                    "name": "MODDS",
                    "fixes": {
                        "MODDS": "MODDS",
                        "MDO": "MDO AT OR ABOVE 2500",
                        "PI001": "PI001 AT OR ABOVE 1500 SPEED 210",
                        "PI002": "OVERFLY PI002 AT OR ABOVE 1500 SPEED 210",
                        "PI003": "PI003 AT OR ABOVE 1500 SPEED 210"
                    }
                }
            ]
        }
    ]
}