{
    "fixes": [
        {
            "name": "CEVMU",
            "lat": 63.610711116666664,
            "lon": 161.71148611666666
        },
        {
            "name": "DUKGE",
            "lat": 63.30663333333333,
            "lon": 162.26513888333332
        },
        {
            "name": "HUDNO",
            "lat": 63.65626388333333,
            "lon": 161.86814166666667
        },
        {
            "name": "IBHAX",
            "lat": 63.478569433333334,
            "lon": 162.12697778333333
        },
        {
            "name": "JIKOV",
            "lat": 63.278441666666666,
            "lon": 162.09150278333334
        },
        {
            "name": "JOXIX",
            "lat": 63.388122216666666,
            "lon": 162.25724443333334
        },
        {
            "name": "KUBNE",
            "lat": 63.33461388333333,
            "lon": 162.43911388333333
        },
        {
            "name": "ORDAE",
            "lat": 63.701644433333335,
            "lon": 162.0253
        },
        {
            "name": "OVEWU",
            "lat": 63.400983333333336,
            "lon": 162.18953333333334
        },
        {
            "name": "POYIT",
            "lat": 63.566766666666666,
            "lon": 162.471425
        },
        {
            "name": "VUYUV",
            "lat": 63.571733333333334,
            "lon": 161.99176111666668
        }
    ],
    "rnws": [
        "RNW 02",
        "RNW 20"
    ],
    "sids": [],
    "stars": [],
    "approaches": [
        {
            "name": "RNAV02",
            "fixes": {
                "DUKGE": "DUKGE AT OR ABOVE 2200 OVERFLY DUKGE AT OR ABOVE 2200 HOLD AT DUKGE RIGHT TURN INBOUNDCOURSE 003 LEGDIST 4 FAF OVEWU MAP IBHAX",
                "OVEWU": "OVEWU 1900",
                "IBHAX": "OVERFLY IBHAX 302 RNW 02 TRK 003 UNTIL 493 TURN RIGHT DIRECT"
            },
            "transitions": [
                {
                    "name": "DUKGE",
                    "fixes": {
                        "DUKGE": "DUKGE RIGHT TURN INBOUNDCOURSE 003 ALT 2200 LEGDIST 4"
                    }
                },
                {
                    "name": "JIKOV",
                    "fixes": {
                        "JIKOV": "JIKOV AT OR ABOVE 2500"
                    }
                },
                {
                    "name": "KUBNE",
                    "fixes": {
                        "KUBNE": "KUBNE AT OR ABOVE 2200"
                    }
                }
            ]
        },
        {
            "name": "RNAV20",
            "fixes": {
                "HUDNO": "HUDNO AT OR ABOVE 1900 OVERFLY HUDNO AT OR ABOVE 1900 HOLD AT HUDNO RIGHT TURN INBOUNDCOURSE 196 LEGDIST 4 FAF VUYUV MAP RNW 20",
                "VUYUV": "VUYUV 1900 RNW 20",
                "JOXIX": "JOXIX TURN RIGHT DIRECT",
                "POYIT": "POYIT"
            },
            "transitions": [
                {
                    "name": "CEVMU",
                    "fixes": {
                        "CEVMU": "CEVMU AT OR ABOVE 1900"
                    }
                },
                {
                    "name": "HUDNO",
                    "fixes": {
                        "HUDNO": "HUDNO RIGHT TURN INBOUNDCOURSE 196 ALT 1900 LEGDIST 4"
                    }
                },
                {
                    "name": "ORDAE",
                    "fixes": {
                        "ORDAE": "ORDAE AT OR ABOVE 1900"
                    }
                }
            ]
        }
    ]
}