{
    "fixes": [
        {
            "name": "CUGAV",
            "lat": 60.59706666666666,
            "lon": 161.96393056666668
        },
        {
            "name": "FODEK",
            "lat": 60.720613883333336,
            "lon": 162.28079166666666
        },
        {
            "name": "GAYEY",
            "lat": 60.496969433333334,
            "lon": 161.94839721666668
        },
        {
            "name": "GOVBE",
            "lat": 60.885336116666664,
            "lon": 162.00926666666666
        },
        {
            "name": "JETPI",
            "lat": 60.63834443333333,
            "lon": 162.26705833333332
        },
        {
            "name": "KOKCE",
            "lat": 60.784680566666665,
            "lon": 161.99333056666666
        },
        {
            "name": "KUYEC",
            "lat": 60.503180566666664,
            "lon": 161.78036943333333
        },
        {
            "name": "LIKIY",
            "lat": 60.87883888333333,
            "lon": 162.17925278333334
        },
        {
            "name": "NUYIL",
            "lat": 60.49074721666667,
            "lon": 162.11639166666666
        },
        {
            "name": "OBETE",
            "lat": 60.89164721666667,
            "lon": 161.83921666666666
        }
    ],
    "rnws": [
        "RNW 16",
        "RNW 34"
    ],
    "sids": [],
    "stars": [],
    "approaches": [
        {
            "name": "RNAV16",
            "fixes": {
                "GOVBE": "GOVBE AT OR ABOVE 2200",
                "KOKCE": "KOKCE 1800 RNW 16 TRK 162 UNTIL 298",
                "CUGAV": "CUGAV",
                "JETPI": "JETPI",
                "LIKIY": "OVERFLY LIKIY AT OR ABOVE 2200 HOLD AT LIKIY RIGHT TURN INBOUNDCOURSE 071 LEGDIST 4 FAF KOKCE MAP RNW 16"
            },
            "transitions": [
                {
                    "name": "GOVBE",
                    "fixes": {
                        "GOVBE": "GOVBE RIGHT TURN INBOUNDCOURSE 162 ALT 2200 LEGDIST 4"
                    }
                },
                {
                    "name": "LIKIY",
                    "fixes": {
                        "LIKIY": "LIKIY"
                    }
                },
                {
                    "name": "OBETE",
                    "fixes": {
                        "OBETE": "OBETE"
                    }
                }
            ]
        },
        {
            "name": "RNAV34",
            "fixes": {
                "GAYEY": "GAYEY AT OR ABOVE 2700",
                "CUGAV": "CUGAV 1800 RNW 34 TRK 342 UNTIL 298",
                "KOKCE": "KOKCE",
                "FODEK": "FODEK",
                "NUYIL": "OVERFLY NUYIL AT OR ABOVE 2700 HOLD AT NUYIL RIGHT TURN INBOUNDCOURSE 072 LEGDIST 4 FAF CUGAV MAP RNW 34"
            },
            "transitions": [
                {
                    "name": "GAYEY",
                    "fixes": {
                        "GAYEY": "GAYEY RIGHT TURN INBOUNDCOURSE 342 ALT 2700 LEGDIST 4"
                    }
                },
                {
                    "name": "KUYEC",
                    "fixes": {
                        "KUYEC": "KUYEC"
                    }
                },
                {
                    "name": "NUYIL",
                    "fixes": {
                        "NUYIL": "NUYIL"
                    }
                }
            ]
        }
    ]
}