{
    "fixes": [
        {
            "name": "ACUDU",
            "lat": 66.87099443333334,
            "lon": 162.38640556666667
        },
        {
            "name": "AF001",
            "lat": 67.05984245,
            "lon": 162.79131046666666
        },
        {
            "name": "AF002",
            "lat": 67.03930208333334,
            "lon": 162.86719726666666
        },
        {
            "name": "AF003",
            "lat": 66.99107631666666,
            "lon": 162.97386286666668
        },
        {
            "name": "AF004",
            "lat": 66.96634573333333,
            "lon": 163.00690246666667
        },
        {
            "name": "AF005",
            "lat": 66.72777331666667,
            "lon": 162.85158525
        },
        {
            "name": "AF006",
            "lat": 66.76759373333333,
            "lon": 162.95012663333333
        },
        {
            "name": "AF007",
            "lat": 66.81655931666667,
            "lon": 163.01733426666667
        },
        {
            "name": "D255L",
            "lat": 66.88486943333334,
            "lon": 163.04704166666667
        },
        {
            "name": "D275L",
            "lat": 66.95312221666667,
            "lon": 163.01779166666665
        },
        {
            "name": "FIWWI",
            "lat": 67.17171943333334,
            "lon": 163.31022221666666
        },
        {
            "name": "GIGRE",
            "lat": 67.00633611666666,
            "lon": 163.15349166666667
        },
        {
            "name": "HERDU",
            "lat": 66.78297778333334,
            "lon": 163.15908056666666
        },
        {
            "name": "HHMNB",
            "lat": 66.90126388333333,
            "lon": 162.56438333333332
        },
        {
            "name": "HUPUG",
            "lat": 67.02345278333334,
            "lon": 162.90741666666668
        },
        {
            "name": "INIYU",
            "lat": 66.88477778333333,
            "lon": 162.46813333333333
        },
        {
            "name": "JUMAS",
            "lat": 66.75818611666666,
            "lon": 162.15122778333333
        },
        {
            "name": "JUTIX",
            "lat": 66.878825,
            "lon": 162.48056111666668
        },
        {
            "name": "KAYEC",
            "lat": 66.90154721666667,
            "lon": 162.78441943333334
        },
        {
            "name": "KEPTE",
            "lat": 66.89713611666667,
            "lon": 162.73176111666666
        },
        {
            "name": "KOTEC",
            "lat": 66.92768056666667,
            "lon": 163.08555278333333
        },
        {
            "name": "LIYRE",
            "lat": 66.71561388333333,
            "lon": 162.15556388333334
        },
        {
            "name": "LOTIC",
            "lat": 66.88377778333333,
            "lon": 162.39211388333334
        },
        {
            "name": "MUNUE",
            "lat": 66.91618056666667,
            "lon": 162.03848611666666
        },
        {
            "name": "NECSI",
            "lat": 66.70675833333334,
            "lon": 162.76237221666668
        },
        {
            "name": "NEMDE",
            "lat": 66.84545278333333,
            "lon": 162.08423888333334
        },
        {
            "name": "OMPAE",
            "lat": 67.07834721666667,
            "lon": 162.67016666666666
        },
        {
            "name": "OTZ",
            "lat": 66.88568333333333,
            "lon": 162.53993611666667
        },
        {
            "name": "PI001",
            "lat": 66.9021511,
            "lon": 162.87989016666666
        },
        {
            "name": "PI002",
            "lat": 66.85602311666666,
            "lon": 163.01956926666668
        },
        {
            "name": "PI003",
            "lat": 66.9110978,
            "lon": 163.15514486666666
        },
        {
            "name": "PI004",
            "lat": 66.8857441,
            "lon": 162.24360928333334
        },
        {
            "name": "PI005",
            "lat": 66.93810883333333,
            "lon": 162.11883668333334
        },
        {
            "name": "PI006",
            "lat": 66.88902705,
            "lon": 161.96775518333334
        },
        {
            "name": "TUBDE",
            "lat": 66.91845,
            "lon": 163.040625
        },
        {
            "name": "VAGUY",
            "lat": 66.91513611666667,
            "lon": 163.04178333333334
        },
        {
            "name": "WUXIP",
            "lat": 66.88976388333333,
            "lon": 162.60781111666665
        },
        {
            "name": "ZIKBO",
            "lat": 66.90459166666666,
            "lon": 162.79578611666668
        },
        {
            "name": "ZIPYU",
            "lat": 66.97525833333333,
            "lon": 162.01215556666668
        },
        {
            "name": "ZOTOR",
            "lat": 66.87857778333333,
            "lon": 162.03321943333333
        }
    ],
    "rnws": [
        "RNW 09",
        "RNW 18",
        "RNW 27",
        "RNW 36"
    ],
    "sids": [],
    "stars": [],
    "approaches": [
        {
            "name": "VORD09",
            "fixes": {
                "VAGUY": "VAGUY AT OR ABOVE 1600",
                "KEPTE": "KEPTE 1000",
                "WUXIP": "WUXIP 55 RNW 09 TRK 084 UNTIL 1500 TURN RIGHT DIRECT",
                "OTZ": "OTZ AT OR ABOVE 2000 HOLD AT OTZ RIGHT TURN INBOUNDCOURSE 295 ALT 2000 LEGTIME 1 FAF KEPTE MAP WUXIP"
            },
            "transitions": [
                {
                    "name": "FIWWI",
                    "fixes": {
                        "FIWWI": "FIWWI",
                        "HUPUG": "HUPUG AT OR ABOVE 3900"
                    }
                },
                {
                    "name": "HHM",
                    "fixes": {
                        "HHMNB": "HHMNB",
                        "KEPTE": "KEPTE AT OR ABOVE 2500",
                        "PI001": "PI001 AT OR ABOVE 1500 SPEED 210",
                        "PI002": "OVERFLY PI002 AT OR ABOVE 1500 SPEED 210",
                        "PI003": "PI003 AT OR ABOVE 1500 SPEED 210"
                    }
                },
                {
                    "name": "NECSI",
                    "fixes": {
                        "NECSI": "NECSI"
                    }
                },
                {
                    "name": "OMPAE",
                    "fixes": {
                        "OMPAE": "OMPAE",
                        "AF001": "AF001",
                        "AF002": "AF002",
                        "HUPUG": "HUPUG AT OR ABOVE 2000"
                    }
                },
                {
                    "name": "OTZ",
                    "fixes": {
                        "OTZ": "OTZ",
                        "KEPTE": "KEPTE AT OR ABOVE 2500",
                        "PI001": "PI001 AT OR ABOVE 1500 SPEED 210",
                        "PI002": "OVERFLY PI002 AT OR ABOVE 1500 SPEED 210",
                        "PI003": "PI003 AT OR ABOVE 1500 SPEED 210"
                    }
                }
            ]
        },
        {
            "name": "VORD27",
            "fixes": {
                "ZOTOR": "ZOTOR AT OR ABOVE 1600",
                "LOTIC": "LOTIC 1600",
                "INIYU": "INIYU AT OR ABOVE 920",
                "OTZ": "OTZ 307 RNW 27 TRK 257 UNTIL 1600 TURN LEFT DIRECT OTZ AT OR ABOVE 2000 HOLD AT OTZ RIGHT TURN INBOUNDCOURSE 295 ALT 2000 LEGTIME 1 FAF LOTIC MAP OTZ"
            },
            "transitions": [
                {
                    "name": "JUMAS",
                    "fixes": {
                        "JUMAS": "JUMAS"
                    }
                },
                {
                    "name": "MUNUE",
                    "fixes": {
                        "MUNUE": "MUNUE"
                    }
                },
                {
                    "name": "OTZ",
                    "fixes": {
                        "OTZ": "OTZ",
                        "LOTIC": "LOTIC AT OR ABOVE 2500",
                        "PI004": "PI004 AT OR ABOVE 1600 SPEED 210",
                        "PI005": "OVERFLY PI005 AT OR ABOVE 1600 SPEED 210",
                        "PI006": "PI006 AT OR ABOVE 1600 SPEED 210"
                    }
                }
            ]
        },
        {
            "name": "ILS09",
            "fixes": {
                "TUBDE": "TUBDE AT OR ABOVE 1600",
                "KAYEC": "KAYEC 1400 RNW 09 TRK 089 UNTIL 1700 TURN RIGHT DIRECT",
                "OTZ": "OTZ AT OR ABOVE 2000 HOLD AT OTZ RIGHT TURN INBOUNDCOURSE 295 ALT 2000 LEGTIME 1 FAF KAYEC MAP RNW 09"
            },
            "transitions": [
                {
                    "name": "FIWWI",
                    "fixes": {
                        "FIWWI": "FIWWI",
                        "HUPUG": "HUPUG AT OR ABOVE 3900",
                        "AF003": "AF003",
                        "AF004": "AF004",
                        "D275L": "D275L AT OR ABOVE 1600"
                    }
                },
                {
                    "name": "HHM",
                    "fixes": {
                        "HHMNB": "HHMNB",
                        "TUBDE": "TUBDE AT OR ABOVE 2500 HOLD AT TUBDE RIGHT TURN INBOUNDCOURSE 089 ALT 1600 LEGTIME 1"
                    }
                },
                {
                    "name": "NECSI",
                    "fixes": {
                        "NECSI": "NECSI",
                        "AF005": "AF005",
                        "AF006": "AF006",
                        "AF007": "AF007",
                        "D255L": "D255L AT OR ABOVE 1600"
                    }
                },
                {
                    "name": "OMPAE",
                    "fixes": {
                        "OMPAE": "OMPAE",
                        "AF001": "AF001",
                        "AF002": "AF002",
                        "HUPUG": "HUPUG AT OR ABOVE 2000",
                        "AF003": "AF003",
                        "AF004": "AF004",
                        "D275L": "D275L AT OR ABOVE 1600"
                    }
                },
                {
                    "name": "OTZ",
                    "fixes": {
                        "OTZ": "OTZ",
                        "TUBDE": "TUBDE AT OR ABOVE 2500 HOLD AT TUBDE RIGHT TURN INBOUNDCOURSE 089 ALT 1600 LEGTIME 1"
                    }
                }
            ]
        },
        {
            "name": "RNAV09",
            "fixes": {
                "KOTEC": "KOTEC AT OR ABOVE 1900",
                "ZIKBO": "ZIKBO 1500 RNW 09 TRK 091 UNTIL 500 TURN RIGHT DIRECT",
                "HERDU": "OVERFLY HERDU AT OR ABOVE 2000 HOLD AT HERDU RIGHT TURN INBOUNDCOURSE 056 LEGDIST 4 FAF ZIKBO MAP RNW 09"
            },
            "transitions": [
                {
                    "name": "GIGRE",
                    "fixes": {
                        "GIGRE": "GIGRE"
                    }
                },
                {
                    "name": "HERDU",
                    "fixes": {
                        "HERDU": "HERDU"
                    }
                },
                {
                    "name": "KOTEC",
                    "fixes": {
                        "KOTEC": "KOTEC RIGHT TURN INBOUNDCOURSE 090 ALT 1900 LEGDIST 4"
                    }
                }
            ]
        },
        {
            "name": "RNAV27",
            "fixes": {
                "NEMDE": "NEMDE AT OR ABOVE 2000 OVERFLY NEMDE AT OR ABOVE 2000 HOLD AT NEMDE RIGHT TURN INBOUNDCOURSE 271 LEGDIST 4 FAF ACUDU MAP RNW 27",
                "ACUDU": "ACUDU 1600",
                "JUTIX": "JUTIX AT OR ABOVE 800 RNW 27 TRK 271 UNTIL 415 TURN LEFT DIRECT"
            },
            "transitions": [
                {
                    "name": "LIYRE",
                    "fixes": {
                        "LIYRE": "LIYRE"
                    }
                },
                {
                    "name": "NEMDE",
                    "fixes": {
                        "NEMDE": "NEMDE RIGHT TURN INBOUNDCOURSE 271 ALT 2000 LEGDIST 4"
                    }
                },
                {
                    "name": "ZIPYU",
                    "fixes": {
                        "ZIPYU": "ZIPYU"
                    }
                }
            ]
        }
    ]
}