{
    "fixes": [
        {
            "name": "BTT",
            "lat": 66.90500833333333,
            "lon": 151.53588333333335
        },
        {
            "name": "CITMI",
            "lat": 66.69757221666667,
            "lon": 151.15543888333335
        },
        {
            "name": "CYCLE",
            "lat": 66.56815,
            "lon": 150.922075
        },
        {
            "name": "FODOS",
            "lat": 67.03901666666667,
            "lon": 150.78305
        },
        {
            "name": "GIKDE",
            "lat": 66.79637221666667,
            "lon": 150.67194721666667
        },
        {
            "name": "HIKIV",
            "lat": 66.76477778333333,
            "lon": 150.72249443333334
        },
        {
            "name": "KUYNE",
            "lat": 66.58660556666666,
            "lon": 150.70887778333332
        },
        {
            "name": "PAXAE",
            "lat": 66.89245833333334,
            "lon": 150.51725278333333
        },
        {
            "name": "RABOC",
            "lat": 66.75843333333333,
            "lon": 150.73262221666667
        },
        {
            "name": "SOYER",
            "lat": 66.63964166666666,
            "lon": 150.921175
        },
        {
            "name": "TAVPE",
            "lat": 66.72453056666667,
            "lon": 150.78665833333332
        },
        {
            "name": "UGAKY",
            "lat": 67.04858333333334,
            "lon": 150.83256666666668
        },
        {
            "name": "VUWCU",
            "lat": 66.90644721666666,
            "lon": 150.49465
        },
        {
            "name": "WOGIM",
            "lat": 66.850575,
            "lon": 150.98474443333333
        },
        {
            "name": "WOLPI",
            "lat": 66.92876388333333,
            "lon": 150.458475
        },
        {
            "name": "YURUG",
            "lat": 66.83353056666667,
            "lon": 150.61230556666666
        },
        {
            "name": "ZANEB",
            "lat": 66.86439166666666,
            "lon": 150.56261388333334
        },
        {
            "name": "ZIDOV",
            "lat": 67.04114166666666,
            "lon": 150.44595833333332
        },
        {
            "name": "ZUTAB",
            "lat": 66.99122221666667,
            "lon": 150.75895833333334
        }
    ],
    "rnws": [
        "RNW 01",
        "RNW 19"
    ],
    "sids": [
        {
            "name": "CYCLE1",
            "rnw": "03",
            "fixes": {},
            "sub_fixes": [
                {
                    "rwy": "RNW 01",
                    "fixes": {
                        "RNW 01": "RNW 01 HDG 011 UNTIL 3600",
                        "ZUTAB": "ZUTAB TURN LEFT DIRECT",
                        "WOGIM": "WOGIM",
                        "CYCLE": "CYCLE"
                    }
                },
                {
                    "rwy": "RNW 19",
                    "fixes": {
                        "RNW 19": "RNW 19 HDG 191 UNTIL 2700",
                        "CYCLE": "CYCLE"
                    }
                }
            ],
            "transitions": []
        }
    ],
    "stars": [],
    "approaches": [
        {
            "name": "RNAVY01",
            "fixes": {
                "SOYER": "SOYER AT OR ABOVE 4200",
                "TAVPE": "TAVPE 3500",
                "HIKIV": "HIKIV AT OR ABOVE 2360",
                "GIKDE": "OVERFLY GIKDE 1473 RNW 01 TRK 011 UNTIL 1495 TURN LEFT DIRECT",
                "CITMI": "OVERFLY CITMI AT OR ABOVE 4200 HOLD AT CITMI RIGHT TURN INBOUNDCOURSE 101 LEGDIST 5 FAF TAVPE MAP GIKDE"
            },
            "transitions": [
                {
                    "name": "CITMI",
                    "fixes": {
                        "CITMI": "CITMI AT OR ABOVE 6300"
                    }
                },
                {
                    "name": "KUYNE",
                    "fixes": {
                        "KUYNE": "KUYNE AT OR ABOVE 6600"
                    }
                },
                {
                    "name": "SOYER",
                    "fixes": {
                        "SOYER": "SOYER RIGHT TURN INBOUNDCOURSE 011 ALT 4200 LEGDIST 5"
                    }
                }
            ]
        },
        {
            "name": "RNAVZ01",
            "fixes": {
                "TAVPE": "TAVPE AT OR ABOVE 3100",
                "RABOC": "RABOC 2500 RNW 01",
                "PAXAE": "PAXAE",
                "FODOS": "OVERFLY FODOS AT OR ABOVE 5000 HOLD AT FODOS RIGHT TURN INBOUNDCOURSE 064 LEGDIST 5 FAF RABOC MAP RNW 01"
            },
            "transitions": [
                {
                    "name": "CITMI",
                    "fixes": {
                        "CITMI": "CITMI AT OR ABOVE 6300",
                        "SOYER": "SOYER AT OR ABOVE 4200"
                    }
                },
                {
                    "name": "KUYNE",
                    "fixes": {
                        "KUYNE": "KUYNE AT OR ABOVE 6600",
                        "SOYER": "SOYER AT OR ABOVE 4200"
                    }
                },
                {
                    "name": "SOYER",
                    "fixes": {
                        "SOYER": "SOYER RIGHT TURN INBOUNDCOURSE 011 ALT 4200 LEGDIST 5"
                    }
                }
            ]
        },
        {
            "name": "RNAV19",
            "fixes": {
                "ZIDOV": "ZIDOV AT OR ABOVE 4600",
                "WOLPI": "WOLPI 4100",
                "VUWCU": "VUWCU AT OR ABOVE 3480",
                "ZANEB": "ZANEB AT OR ABOVE 2340",
                "YURUG": "OVERFLY YURUG 1503 RNW 19 TRK 191 UNTIL 1700 TURN RIGHT DIRECT",
                "UGAKY": "OVERFLY UGAKY AT OR ABOVE 5000 HOLD AT UGAKY RIGHT TURN INBOUNDCOURSE 072 ALT 5000 LEGDIST 5 FAF WOLPI MAP YURUG"
            },
            "transitions": [
                {
                    "name": "BTT",
                    "fixes": {
                        "BTT": "BTT",
                        "UGAKY": "UGAKY AT OR ABOVE 5000"
                    }
                },
                {
                    "name": "CITMI",
                    "fixes": {
                        "CITMI": "CITMI",
                        "UGAKY": "UGAKY AT OR ABOVE 5000"
                    }
                }
            ]
        }
    ]
}