{
    "fixes": [
        {
            "name": "BIBNE",
            "lat": 61.8157,
            "lon": 163.00075833333332
        },
        {
            "name": "CEVUD",
            "lat": 62.324691666666666,
            "lon": 163.58923056666666
        },
        {
            "name": "COPMI",
            "lat": 62.07865278333333,
            "lon": 163.29918611666668
        },
        {
            "name": "ENM",
            "lat": 62.784588883333335,
            "lon": 164.48753333333335
        },
        {
            "name": "GAKCE",
            "lat": 61.82848056666667,
            "lon": 163.64400833333335
        },
        {
            "name": "JEMTU",
            "lat": 62.11567778333333,
            "lon": 163.29581666666667
        },
        {
            "name": "JOHNI",
            "lat": 62.462130566666666,
            "lon": 163.2639
        },
        {
            "name": "ONEPY",
            "lat": 61.979269433333336,
            "lon": 163.30819166666666
        },
        {
            "name": "PI001",
            "lat": 62.11768383333333,
            "lon": 163.27754958333333
        },
        {
            "name": "PI002",
            "lat": 62.17005803333333,
            "lon": 163.3822442
        },
        {
            "name": "PI003",
            "lat": 62.22595068333333,
            "lon": 163.26942048333333
        },
        {
            "name": "RUVHO",
            "lat": 61.859180566666666,
            "lon": 163.31899721666667
        },
        {
            "name": "SAWNY",
            "lat": 62.157477783333334,
            "lon": 163.29200278333334
        },
        {
            "name": "SMANB",
            "lat": 62.059386116666666,
            "lon": 163.28190278333332
        },
        {
            "name": "WOMEV",
            "lat": 62.312025,
            "lon": 162.96546388333334
        },
        {
            "name": "YOZMO",
            "lat": 62.25878888333333,
            "lon": 163.28271388333334
        }
    ],
    "rnws": [
        "RNW 06",
        "RNW 17",
        "RNW 24",
        "RNW 35"
    ],
    "sids": [],
    "stars": [],
    "approaches": [
        {
            "name": "LOC17",
            "fixes": {
                "YOZMO": "YOZMO AT OR ABOVE 3100",
                "SAWNY": "SAWNY 2000 SAWNY SAWNY AT OR ABOVE 2600 HOLD AT SAWNY RIGHT TURN INBOUNDCOURSE 170 ALT 2600 LEGTIME 1 FAF SAWNY MAP COPMI",
                "JEMTU": "JEMTU AT OR ABOVE 1160",
                "COPMI": "COPMI 488 RNW 17 TRK 170 UNTIL 800 TURN RIGHT HDG 025 INTERCEPT RADIAL 350 TO"
            },
            "transitions": [
                {
                    "name": "ENM",
                    "fixes": {
                        "ENM": "ENM"
                    }
                },
                {
                    "name": "JOHNI",
                    "fixes": {
                        "JOHNI": "JOHNI"
                    }
                },
                {
                    "name": "SMA",
                    "fixes": {
                        "PI001": "PI001 AT OR ABOVE 2600 SPEED 210",
                        "PI002": "OVERFLY PI002 AT OR ABOVE 2600 SPEED 210",
                        "PI003": "PI003 AT OR ABOVE 2600 SPEED 210"
                    }
                }
            ]
        },
        {
            "name": "RNAV17",
            "fixes": {
                "YOZMO": "YOZMO AT OR ABOVE 2600",
                "SAWNY": "SAWNY 2000 RNW 17 TRK 170 UNTIL 700",
                "RUVHO": "OVERFLY RUVHO AT OR ABOVE 2100 HOLD AT RUVHO RIGHT TURN INBOUNDCOURSE 350 LEGDIST 4 FAF SAWNY MAP RNW 17"
            },
            "transitions": [
                {
                    "name": "CEVUD",
                    "fixes": {
                        "CEVUD": "CEVUD"
                    }
                },
                {
                    "name": "WOMEV",
                    "fixes": {
                        "WOMEV": "WOMEV"
                    }
                },
                {
                    "name": "YOZMO",
                    "fixes": {
                        "YOZMO": "YOZMO RIGHT TURN INBOUNDCOURSE 170 ALT 2600 LEGDIST 4"
                    }
                }
            ]
        },
        {
            "name": "RNAV35",
            "fixes": {
                "RUVHO": "RUVHO AT OR ABOVE 2000",
                "ONEPY": "ONEPY 1800 RNW 35 TRK 350 UNTIL 508",
                "YOZMO": "OVERFLY YOZMO AT OR ABOVE 2600 HOLD AT YOZMO RIGHT TURN INBOUNDCOURSE 170 LEGDIST 4 FAF ONEPY MAP RNW 35"
            },
            "transitions": [
                {
                    "name": "BIBNE",
                    "fixes": {
                        "BIBNE": "BIBNE"
                    }
                },
                {
                    "name": "GAKCE",
                    "fixes": {
                        "GAKCE": "GAKCE"
                    }
                },
                {
                    "name": "RUVHO",
                    "fixes": {
                        "RUVHO": "RUVHO RIGHT TURN INBOUNDCOURSE 350 ALT 2000 LEGDIST 4"
                    }
                }
            ]
        }
    ]
}