{
    "fixes": [
        {
            "name": "BUWOG",
            "lat": 65.17295278333333,
            "lon": 152.359275
        },
        {
            "name": "CUPUN",
            "lat": 65.17101388333333,
            "lon": 152.61785556666666
        },
        {
            "name": "DEYKI",
            "lat": 65.24085556666667,
            "lon": 152.62745278333333
        },
        {
            "name": "DUKAC",
            "lat": 65.17210556666667,
            "lon": 152.47958888333332
        },
        {
            "name": "FISEP",
            "lat": 65.17428888333333,
            "lon": 152.13218056666668
        },
        {
            "name": "HONSI",
            "lat": 65.08797778333333,
            "lon": 152.61393611666668
        },
        {
            "name": "JISKO",
            "lat": 65.25405,
            "lon": 152.62179721666666
        },
        {
            "name": "KICEP",
            "lat": 65.19286111666666,
            "lon": 152.49177221666667
        },
        {
            "name": "LUBKE",
            "lat": 65.17914443333333,
            "lon": 152.21678888333332
        },
        {
            "name": "NELTE",
            "lat": 65.13975278333334,
            "lon": 152.64304443333333
        },
        {
            "name": "OCULA",
            "lat": 65.20045556666666,
            "lon": 152.64874443333332
        },
        {
            "name": "OLITE",
            "lat": 65.18705,
            "lon": 152.37396666666666
        },
        {
            "name": "SOBUE",
            "lat": 65.17368611666667,
            "lon": 152.24214443333332
        },
        {
            "name": "TAL",
            "lat": 65.177125,
            "lon": 152.17755
        },
        {
            "name": "ZOSUM",
            "lat": 65.09229166666667,
            "lon": 152.60599166666665
        }
    ],
    "rnws": [
        "RNW 07",
        "RNW 25"
    ],
    "sids": [],
    "stars": [],
    "approaches": [
        {
            "name": "VORD07",
            "fixes": {
                "KICEP": "KICEP AT OR ABOVE 3100",
                "OLITE": "OLITE 2300",
                "LUBKE": "LUBKE AT OR ABOVE 1120 RNW 07 TRK 078 UNTIL 636 TURN RIGHT HDG 275 INTERCEPT RADIAL 258 TO",
                "OCULA": "OCULA OCULA AT OR ABOVE 4000 HOLD AT OCULA RIGHT TURN INBOUNDCOURSE 078 LEGTIME 1 FAF OLITE MAP RNW 07"
            },
            "transitions": [
                {
                    "name": "DEYKI",
                    "fixes": {
                        "DEYKI": "DEYKI",
                        "OCULA": "OCULA AT OR ABOVE 4000"
                    }
                },
                {
                    "name": "NELTE",
                    "fixes": {
                        "NELTE": "NELTE",
                        "OCULA": "OCULA AT OR ABOVE 4000"
                    }
                },
                {
                    "name": "TAL",
                    "fixes": {
                        "TAL": "TAL",
                        "OCULA": "OCULA AT OR ABOVE 4000 HOLD AT OCULA RIGHT TURN INBOUNDCOURSE 078 ALT 4000 LEGTIME 1"
                    }
                },
                {
                    "name": "ZOSUM",
                    "fixes": {
                        "ZOSUM": "ZOSUM",
                        "NELTE": "NELTE AT OR ABOVE 4000",
                        "OCULA": "OCULA AT OR ABOVE 4000"
                    }
                }
            ]
        },
        {
            "name": "RNAV07",
            "fixes": {
                "DUKAC": "DUKAC AT OR ABOVE 3000",
                "BUWOG": "BUWOG 2200",
                "SOBUE": "SOBUE AT OR ABOVE 1240",
                "FISEP": "OVERFLY FISEP 361 RNW 07 TRK 070 UNTIL 636 TURN RIGHT DIRECT",
                "CUPUN": "OVERFLY CUPUN AT OR ABOVE 3500 HOLD AT CUPUN RIGHT TURN INBOUNDCOURSE 070 LEGDIST 6 FAF BUWOG MAP FISEP"
            },
            "transitions": [
                {
                    "name": "CUPUN",
                    "fixes": {
                        "CUPUN": "CUPUN RIGHT TURN INBOUNDCOURSE 070 ALT 3500 LEGDIST 6"
                    }
                },
                {
                    "name": "HONSI",
                    "fixes": {
                        "HONSI": "HONSI AT OR ABOVE 3500",
                        "CUPUN": "CUPUN AT OR ABOVE 3500"
                    }
                },
                {
                    "name": "JISKO",
                    "fixes": {
                        "JISKO": "JISKO AT OR ABOVE 4200",
                        "CUPUN": "CUPUN AT OR ABOVE 3500"
                    }
                }
            ]
        }
    ]
}