{
    "fixes": [
        {
            "name": "ARANY",
            "lat": 65.36434443333333,
            "lon": 166.79266666666666
        },
        {
            "name": "ATAYI",
            "lat": 65.23311943333333,
            "lon": 167.08536111666666
        },
        {
            "name": "AVEYU",
            "lat": 65.35923611666666,
            "lon": 165.89057778333333
        },
        {
            "name": "BICAC",
            "lat": 65.23866111666666,
            "lon": 166.55790278333333
        },
        {
            "name": "DITAY",
            "lat": 65.24296943333333,
            "lon": 165.88775833333332
        },
        {
            "name": "GUYEL",
            "lat": 65.23648333333334,
            "lon": 166.78519721666666
        },
        {
            "name": "GUYET",
            "lat": 65.241775,
            "lon": 166.12544443333334
        },
        {
            "name": "HAKEX",
            "lat": 65.12670278333333,
            "lon": 165.88496111666666
        },
        {
            "name": "JIPAK",
            "lat": 65.10898888333334,
            "lon": 166.77776666666668
        }
    ],
    "rnws": [
        "RNW 08",
        "RNW 26"
    ],
    "sids": [
        {
            "name": "JIPAK3",
            "rnw": "36",
            "fixes": {},
            "sub_fixes": [
                {
                    "rwy": "RNW 08",
                    "fixes": {
                        "RNW 08": "RNW 08 HDG 080 UNTIL 800 TURN RIGHT DIRECT",
                        "JIPAK": "OVERFLY JIPAK HOLD AT JIPAK RIGHT TURN INBOUNDCOURSE 125 ALT 6000 LEGDIST 9"
                    }
                },
                {
                    "rwy": "RNW 26",
                    "fixes": {
                        "RNW 26": "RNW 26 HDG 260 UNTIL 800",
                        "JIPAK": "OVERFLY JIPAK HOLD AT JIPAK RIGHT TURN INBOUNDCOURSE 125 ALT 6000 LEGDIST 9"
                    }
                }
            ],
            "transitions": []
        }
    ],
    "stars": [],
    "approaches": [
        {
            "name": "RNAV08",
            "fixes": {
                "GUYEL": "GUYEL AT OR ABOVE 3700",
                "BICAC": "BICAC 2000 RNW 08 TRK 080 UNTIL 499",
                "DITAY": "OVERFLY DITAY AT OR ABOVE 3700 HOLD AT DITAY RIGHT TURN INBOUNDCOURSE 260 LEGDIST 4 FAF BICAC MAP RNW 08"
            },
            "transitions": [
                {
                    "name": "ARANY",
                    "fixes": {
                        "ARANY": "ARANY"
                    }
                },
                {
                    "name": "GUYEL",
                    "fixes": {
                        "GUYEL": "GUYEL RIGHT TURN INBOUNDCOURSE 080 ALT 3700 LEGDIST 4"
                    }
                },
                {
                    "name": "JIPAK",
                    "fixes": {
                        "JIPAK": "JIPAK"
                    }
                }
            ]
        },
        {
            "name": "RNAV26",
            "fixes": {
                "DITAY": "DITAY AT OR ABOVE 3700",
                "GUYET": "GUYET 2000 RNW 26 TRK 260 UNTIL 549",
                "ATAYI": "OVERFLY ATAYI AT OR ABOVE 4000 HOLD AT ATAYI RIGHT TURN INBOUNDCOURSE 124 LEGDIST 4 FAF GUYET MAP RNW 26"
            },
            "transitions": [
                {
                    "name": "AVEYU",
                    "fixes": {
                        "AVEYU": "AVEYU"
                    }
                },
                {
                    "name": "DITAY",
                    "fixes": {
                        "DITAY": "DITAY RIGHT TURN INBOUNDCOURSE 260 ALT 3700 LEGDIST 4"
                    }
                },
                {
                    "name": "HAKEX",
                    "fixes": {
                        "HAKEX": "HAKEX"
                    }
                }
            ]
        }
    ]
}