{
    "fixes": [
        {
            "name": "BROUS",
            "lat": 59.141866666666665,
            "lon": 159.30676388333333
        },
        {
            "name": "CIMIB",
            "lat": 58.969658333333335,
            "lon": 160.51243888333335
        },
        {
            "name": "FASGI",
            "lat": 59.221325,
            "lon": 160.18501943333334
        },
        {
            "name": "FEVKU",
            "lat": 59.063663883333334,
            "lon": 160.37980278333333
        },
        {
            "name": "JIROP",
            "lat": 59.12991111666667,
            "lon": 160.30116388333334
        },
        {
            "name": "NACIP",
            "lat": 59.38819721666667,
            "lon": 160.63500278333333
        },
        {
            "name": "REBOY",
            "lat": 59.160558333333334,
            "lon": 160.26230833333332
        },
        {
            "name": "ROGOC",
            "lat": 58.803266666666666,
            "lon": 160.66953056666668
        },
        {
            "name": "UJXUW",
            "lat": 59.04229721666667,
            "lon": 160.41631943333334
        },
        {
            "name": "UVEPE",
            "lat": 59.224597216666666,
            "lon": 159.99753611666668
        },
        {
            "name": "WIRPU",
            "lat": 59.294891666666665,
            "lon": 160.30737221666666
        },
        {
            "name": "YARUV",
            "lat": 59.228316666666665,
            "lon": 159.76251943333332
        },
        {
            "name": "YIPVU",
            "lat": 59.08637221666667,
            "lon": 160.35288888333332
        },
        {
            "name": "ZADUB",
            "lat": 59.34391943333333,
            "lon": 160.38931388333333
        }
    ],
    "rnws": [
        "RNW 03",
        "RNW 10",
        "RNW 21",
        "RNW 28"
    ],
    "sids": [],
    "stars": [],
    "approaches": [
        {
            "name": "RNAV03",
            "fixes": {
                "ROGOC": "ROGOC AT OR ABOVE 4400 OVERFLY ROGOC AT OR ABOVE 4400 HOLD AT ROGOC RIGHT TURN INBOUNDCOURSE 015 ALT 4400 LEGDIST 5 FAF CIMIB MAP UJXUW",
                "CIMIB": "CIMIB 1900",
                "UJXUW": "OVERFLY UJXUW 215 RNW 03 TRK 023 UNTIL 420 TURN RIGHT DIRECT"
            },
            "transitions": [
                {
                    "name": "ROGOC",
                    "fixes": {
                        "ROGOC": "ROGOC RIGHT TURN INBOUNDCOURSE 015 ALT 4400 LEGDIST 5"
                    }
                }
            ]
        },
        {
            "name": "RNAV21",
            "fixes": {
                "FASGI": "FASGI AT OR ABOVE 3700",
                "REBOY": "REBOY AT OR ABOVE 2400",
                "JIROP": "JIROP 1700",
                "YIPVU": "YIPVU AT OR ABOVE 720",
                "FEVKU": "OVERFLY FEVKU 215 RNW 21 TRK 200 UNTIL 340",
                "ROGOC": "OVERFLY ROGOC AT OR ABOVE 4400 HOLD AT ROGOC RIGHT TURN INBOUNDCOURSE 015 ALT 4400 LEGDIST 5 FAF JIROP MAP FEVKU"
            },
            "transitions": [
                {
                    "name": "BROUS",
                    "fixes": {
                        "BROUS": "BROUS",
                        "YARUV": "YARUV AT OR ABOVE 5000",
                        "UVEPE": "UVEPE AT OR ABOVE 5000"
                    }
                },
                {
                    "name": "NACIP",
                    "fixes": {
                        "NACIP": "NACIP",
                        "ZADUB": "ZADUB AT OR ABOVE 4500",
                        "WIRPU": "WIRPU AT OR ABOVE 4500"
                    }
                }
            ]
        }
    ]
}