{
    "fixes": [
        {
            "name": "ACDAV",
            "lat": 64.49167778333333,
            "lon": 162.73810556666666
        },
        {
            "name": "ADADE",
            "lat": 64.37908611666667,
            "lon": 162.26719721666666
        },
        {
            "name": "AHCUJ",
            "lat": 64.43554443333333,
            "lon": 162.50216111666666
        },
        {
            "name": "BIYIR",
            "lat": 64.82336666666667,
            "lon": 161.99705556666666
        },
        {
            "name": "BLIZZ",
            "lat": 64.66403611666667,
            "lon": 162.08878888333334
        },
        {
            "name": "BNDIT",
            "lat": 64.62156388333334,
            "lon": 161.71911666666668
        },
        {
            "name": "BONNZ",
            "lat": 64.72254443333334,
            "lon": 161.85759443333333
        },
        {
            "name": "BOWII",
            "lat": 64.61981666666667,
            "lon": 162.25264721666667
        },
        {
            "name": "MOS",
            "lat": 64.696525,
            "lon": 162.07126666666667
        },
        {
            "name": "OPPUS",
            "lat": 64.53875833333333,
            "lon": 162.36935278333334
        },
        {
            "name": "WUGAT",
            "lat": 64.36284443333334,
            "lon": 162.59501388333334
        }
    ],
    "rnws": [
        "RNW 01",
        "RNW 19"
    ],
    "sids": [
        {
            "name": "MOS2",
            "rnw": "19",
            "fixes": {
                "MOS": "MOS"
            },
            "sub_fixes": [],
            "transitions": []
        }
    ],
    "stars": [],
    "approaches": [
        {
            "name": "RNAV01",
            "fixes": {
                "AHCUJ": "AHCUJ AT OR ABOVE 4000",
                "OPPUS": "OPPUS 1800 RNW 01 TRK 020 UNTIL 562",
                "BIYIR": "OVERFLY BIYIR AT OR ABOVE 5000 HOLD AT BIYIR LEFT TURN INBOUNDCOURSE 195 ALT 5000 LEGDIST 5 FAF OPPUS MAP RNW 01"
            },
            "transitions": [
                {
                    "name": "ACDAV",
                    "fixes": {
                        "ACDAV": "ACDAV"
                    }
                },
                {
                    "name": "ADADE",
                    "fixes": {
                        "ADADE": "ADADE"
                    }
                },
                {
                    "name": "AHCUJ",
                    "fixes": {
                        "AHCUJ": "AHCUJ RIGHT TURN INBOUNDCOURSE 020 ALT 4000 LEGDIST 4"
                    }
                }
            ]
        },
        {
            "name": "RNAVA01",
            "fixes": {
                "BONNZ": "BONNZ AT OR ABOVE 3500",
                "BLIZZ": "BLIZZ 2600",
                "BOWII": "OVERFLY BOWII 1040 RNW 01 TRK 229 UNTIL 1040",
                "WUGAT": "OVERFLY WUGAT HOLD AT WUGAT RIGHT TURN INBOUNDCOURSE 015 LEGDIST 4 FAF BLIZZ MAP BOWII"
            },
            "transitions": [
                {
                    "name": "BIYIR",
                    "fixes": {
                        "BIYIR": "BIYIR"
                    }
                },
                {
                    "name": "BNDIT",
                    "fixes": {
                        "BNDIT": "BNDIT"
                    }
                },
                {
                    "name": "BONNZ",
                    "fixes": {
                        "BONNZ": "BONNZ RIGHT TURN INBOUNDCOURSE 231 ALT 3500 LEGDIST 4"
                    }
                }
            ]
        },
        {
            "name": "RNAVA19",
            "fixes": {
                "BONNZ": "BONNZ AT OR ABOVE 3500",
                "BLIZZ": "BLIZZ 2600",
                "BOWII": "OVERFLY BOWII 1040 RNW 19 TRK 229 UNTIL 1040",
                "WUGAT": "OVERFLY WUGAT HOLD AT WUGAT RIGHT TURN INBOUNDCOURSE 015 LEGDIST 4 FAF BLIZZ MAP BOWII"
            },
            "transitions": [
                {
                    "name": "BIYIR",
                    "fixes": {
                        "BIYIR": "BIYIR"
                    }
                },
                {
                    "name": "BNDIT",
                    "fixes": {
                        "BNDIT": "BNDIT"
                    }
                },
                {
                    "name": "BONNZ",
                    "fixes": {
                        "BONNZ": "BONNZ RIGHT TURN INBOUNDCOURSE 231 ALT 3500 LEGDIST 4"
                    }
                }
            ]
        }
    ]
}