{
    "fixes": [
        {
            "name": "BARGN",
            "lat": 66.99474721666667,
            "lon": 160.49030556666668
        },
        {
            "name": "CUBIX",
            "lat": 66.76644721666666,
            "lon": 160.34001666666666
        },
        {
            "name": "FERKU",
            "lat": 66.79403056666666,
            "lon": 161.242075
        },
        {
            "name": "FOBIR",
            "lat": 66.88061943333334,
            "lon": 160.414775
        },
        {
            "name": "FUZZI",
            "lat": 66.86599721666667,
            "lon": 160.55785556666666
        },
        {
            "name": "GAHTI",
            "lat": 66.80309721666667,
            "lon": 161.15764443333333
        },
        {
            "name": "MABYL",
            "lat": 66.83295833333334,
            "lon": 160.87601943333334
        },
        {
            "name": "ODMEE",
            "lat": 66.76750278333333,
            "lon": 161.48639721666666
        },
        {
            "name": "PATYI",
            "lat": 66.85124721666666,
            "lon": 160.70076388333334
        },
        {
            "name": "SEAYA",
            "lat": 66.87950833333333,
            "lon": 161.56538333333333
        },
        {
            "name": "TETUE",
            "lat": 66.65545556666666,
            "lon": 161.40813056666667
        }
    ],
    "rnws": [
        "RNW 06",
        "RNW 24"
    ],
    "sids": [],
    "stars": [],
    "approaches": [
        {
            "name": "RNAV06",
            "fixes": {
                "ODMEE": "ODMEE AT OR ABOVE 2700",
                "FERKU": "FERKU 1700",
                "GAHTI": "GAHTI AT OR ABOVE 1020 RNW 06 TRK 064 UNTIL 304",
                "MABYL": "MABYL",
                "BARGN": "OVERFLY BARGN AT OR ABOVE 4400 HOLD AT BARGN RIGHT TURN INBOUNDCOURSE 154 ALT 4400 LEGDIST 5 FAF FERKU MAP RNW 06"
            },
            "transitions": [
                {
                    "name": "ODMEE",
                    "fixes": {
                        "ODMEE": "ODMEE RIGHT TURN INBOUNDCOURSE 064 ALT 2700 LEGDIST 4"
                    }
                },
                {
                    "name": "SEAYA",
                    "fixes": {
                        "SEAYA": "SEAYA"
                    }
                },
                {
                    "name": "TETUE",
                    "fixes": {
                        "TETUE": "TETUE"
                    }
                }
            ]
        },
        {
            "name": "RNAV24",
            "fixes": {
                "FOBIR": "FOBIR AT OR ABOVE 4400",
                "FUZZI": "FUZZI AT OR ABOVE 2700",
                "PATYI": "PATYI 2500",
                "MABYL": "MABYL AT OR ABOVE 1120 RNW 24 TRK 244 UNTIL 305",
                "ODMEE": "OVERFLY ODMEE AT OR ABOVE 2700 HOLD AT ODMEE RIGHT TURN INBOUNDCOURSE 064 ALT 2700 LEGDIST 4 FAF PATYI MAP RNW 24"
            },
            "transitions": [
                {
                    "name": "BARGN",
                    "fixes": {
                        "BARGN": "BARGN"
                    }
                },
                {
                    "name": "CUBIX",
                    "fixes": {
                        "CUBIX": "CUBIX"
                    }
                },
                {
                    "name": "FOBIR",
                    "fixes": {
                        "FOBIR": "FOBIR RIGHT TURN INBOUNDCOURSE 245 ALT 4400 LEGDIST 5"
                    }
                }
            ]
        }
    ]
}