{
    "fixes": [
        {
            "name": "ALICA",
            "lat": 21.582266666666666,
            "lon": 153.38545
        },
        {
            "name": "APACK",
            "lat": 24.043702783333334,
            "lon": 156.31954166666668
        },
        {
            "name": "BLUSH",
            "lat": 21.333697216666668,
            "lon": 156.67383333333333
        },
        {
            "name": "CLUTS",
            "lat": 23.003258333333335,
            "lon": 154.65477221666666
        },
        {
            "name": "EBBER",
            "lat": 21.713433333333334,
            "lon": 153.14728333333332
        },
        {
            "name": "FF04R",
            "lat": 21.246541666666666,
            "lon": 158.141675
        },
        {
            "name": "FITES",
            "lat": 20.794555566666666,
            "lon": 153.00063333333333
        },
        {
            "name": "GECKO",
            "lat": 21.19225,
            "lon": 158.30978056666666
        },
        {
            "name": "HIKAG",
            "lat": 21.256636116666666,
            "lon": 158.14524166666666
        },
        {
            "name": "HNL",
            "lat": 21.308322216666667,
            "lon": 157.93041111666668
        },
        {
            "name": "HNNB",
            "lat": 21.324708333333334,
            "lon": 158.049
        },
        {
            "name": "HPKNS",
            "lat": 21.288436116666666,
            "lon": 158.16864166666667
        },
        {
            "name": "HUMUU",
            "lat": 21.425316666666667,
            "lon": 157.09018888333333
        },
        {
            "name": "JELIE",
            "lat": 21.157972216666668,
            "lon": 158.09161388333334
        },
        {
            "name": "KEOLA",
            "lat": 21.298122216666666,
            "lon": 158.490525
        },
        {
            "name": "LNY",
            "lat": 20.764499999999998,
            "lon": 156.96888888333334
        },
        {
            "name": "MAGGI",
            "lat": 21.840530566666665,
            "lon": 156.96561111666668
        },
        {
            "name": "MANOH",
            "lat": 21.030819433333335,
            "lon": 158.00353888333333
        },
        {
            "name": "MARYN",
            "lat": 21.098733333333332,
            "lon": 158.25885
        },
        {
            "name": "MKK",
            "lat": 21.138111116666668,
            "lon": 157.16741666666667
        },
        {
            "name": "OSOFE",
            "lat": 21.397772216666667,
            "lon": 158.31825556666666
        },
        {
            "name": "PALAY",
            "lat": 21.105761116666667,
            "lon": 157.57034443333333
        },
        {
            "name": "PI001",
            "lat": 21.285669316666667,
            "lon": 158.09552388333333
        },
        {
            "name": "PI002",
            "lat": 21.214100816666665,
            "lon": 158.09954726666666
        },
        {
            "name": "PI003",
            "lat": 21.213134433333334,
            "lon": 158.18185988333335
        },
        {
            "name": "REXIE",
            "lat": 22.992552783333334,
            "lon": 156.91290833333332
        },
        {
            "name": "SERYU",
            "lat": 22.455,
            "lon": 156.78766666666667
        },
        {
            "name": "SESXI",
            "lat": 21.285333333333334,
            "lon": 154.7405
        },
        {
            "name": "SIMSN",
            "lat": 21.208586116666666,
            "lon": 158.21825278333333
        },
        {
            "name": "TARLE",
            "lat": 21.274927783333332,
            "lon": 158.328075
        },
        {
            "name": "TOADS",
            "lat": 22.761955566666668,
            "lon": 156.69718333333333
        },
        {
            "name": "UPP",
            "lat": 20.200541666666666,
            "lon": 155.84326666666666
        },
        {
            "name": "YUDYU",
            "lat": 21.2959,
            "lon": 158.07975833333333
        },
        {
            "name": "ZEGPI",
            "lat": 21.368405566666667,
            "lon": 158.19042778333332
        },
        {
            "name": "ZIGIE",
            "lat": 24.313694433333332,
            "lon": 157.28536111666668
        }
    ],
    "rnws": [
        "RNW 04L",
        "RNW 04R",
        "RNW 11",
        "RNW 22L",
        "RNW 22R",
        "RNW 29"
    ],
    "sids": [
        {
            "name": "JELIE1",
            "rnw": "16",
            "fixes": {},
            "sub_fixes": [
                {
                    "rwy": "RNW 11",
                    "fixes": {
                        "RNW 11": "RNW 11 HDG 107 UNTIL 540",
                        "JELIE": "JELIE AT OR BELOW 3000 AT OR ABOVE 2300 SPEED 230"
                    }
                },
                {
                    "rwy": "RNW 22L",
                    "fixes": {
                        "RNW 22L": "RNW 22L HDG 224 UNTIL 530",
                        "JELIE": "JELIE AT OR BELOW 3000 AT OR ABOVE 2300 SPEED 230"
                    }
                }
            ],
            "transitions": [
                {
                    "name": "APACK",
                    "fixes": [
                        "MANOH",
                        "PALAY",
                        "HUMUU",
                        "MAGGI",
                        "SERYU",
                        "TOADS",
                        "APACK"
                    ]
                },
                {
                    "name": "CLUTS",
                    "fixes": [
                        "MANOH",
                        "PALAY",
                        "HUMUU",
                        "CLUTS"
                    ]
                },
                {
                    "name": "EBBER",
                    "fixes": [
                        "MANOH",
                        "PALAY",
                        "MKK",
                        "BLUSH",
                        "SESXI",
                        "ALICA",
                        "EBBER"
                    ]
                },
                {
                    "name": "FITES",
                    "fixes": [
                        "MANOH",
                        "PALAY",
                        "MKK",
                        "BLUSH",
                        "FITES"
                    ]
                },
                {
                    "name": "KEOLA",
                    "fixes": [
                        "MARYN",
                        "KEOLA"
                    ]
                },
                {
                    "name": "MKK",
                    "fixes": [
                        "MANOH",
                        "PALAY",
                        "MKK"
                    ]
                },
                {
                    "name": "UPP",
                    "fixes": [
                        "MANOH",
                        "PALAY",
                        "LNY",
                        "UPP"
                    ]
                },
                {
                    "name": "ZIGIE",
                    "fixes": [
                        "MANOH",
                        "PALAY",
                        "HUMUU",
                        "MAGGI",
                        "SERYU",
                        "REXIE",
                        "ZIGIE"
                    ]
                }
            ]
        }
    ],
    "stars": [],
    "approaches": [
        {
            "name": "VORD04R",
            "fixes": {
                "TARLE": "TARLE AT OR ABOVE 3000",
                "HPKNS": "HPKNS 1700",
                "YUDYU": "YUDYU 86 RNW 04R TRK 074 UNTIL 530 TURN RIGHT HDG 248 INTERCEPT RADIAL 241 TO",
                "GECKO": "GECKO GECKO AT OR ABOVE 3000 HOLD AT GECKO RIGHT TURN INBOUNDCOURSE 061 LEGTIME 1 FAF HPKNS MAP YUDYU"
            },
            "transitions": [
                {
                    "name": "GECKO",
                    "fixes": {
                        "GECKO": "GECKO"
                    }
                },
                {
                    "name": "HNL",
                    "fixes": {
                        "HNL": "HNL",
                        "ZEGPI": "ZEGPI AT OR ABOVE 5300",
                        "OSOFE": "OSOFE AT OR ABOVE 3000"
                    }
                }
            ]
        },
        {
            "name": "NDB04R",
            "fixes": {
                "FF04R": "FF04R 2300 RNW 04R",
                "HNNB": "HNNB AT OR ABOVE 430 TRK 175 UNTIL 2600 TURN RIGHT DIRECT HNNB AT OR ABOVE 4900 HOLD AT HNNB RIGHT TURN INBOUNDCOURSE 090 LEGTIME 1 FAF FF04R MAP RNW 04R"
            },
            "transitions": [
                {
                    "name": "HN",
                    "fixes": {
                        "PI001": "PI001 AT OR ABOVE 2300 SPEED 210",
                        "PI002": "OVERFLY PI002 AT OR ABOVE 2300 SPEED 210",
                        "PI003": "PI003 AT OR ABOVE 2300 SPEED 210"
                    }
                }
            ]
        },
        {
            "name": "RNAV04R",
            "fixes": {
                "SIMSN": "SIMSN AT OR ABOVE 2000",
                "HIKAG": "HIKAG 1500 RNW 04R TRK 044 UNTIL 430 TURN RIGHT DIRECT",
                "GECKO": "OVERFLY GECKO AT OR ABOVE 3000 HOLD AT GECKO RIGHT TURN INBOUNDCOURSE 061 LEGDIST 4 FAF HIKAG MAP RNW 04R"
            },
            "transitions": [
                {
                    "name": "HNL",
                    "fixes": {
                        "HNL": "HNL",
                        "SIMSN": "OVERFLY SIMSN AT OR ABOVE 2300 HOLD AT SIMSN RIGHT TURN INBOUNDCOURSE 044 ALT 2000 LEGDIST 4"
                    }
                },
                {
                    "name": "KEOLA",
                    "fixes": {
                        "KEOLA": "KEOLA",
                        "GECKO": "GECKO AT OR ABOVE 4000"
                    }
                }
            ]
        }
    ]
}