{
    "fixes": [
        {
            "name": "00LIH",
            "lat": 23.361,
            "lon": 160.33894443333332
        },
        {
            "name": "23LIH",
            "lat": 23.680361116666667,
            "lon": 160.57138888333333
        },
        {
            "name": "AF001",
            "lat": 20.973259733333332,
            "lon": 157.00630263333332
        },
        {
            "name": "AF002",
            "lat": 20.9477715,
            "lon": 157.08221193333333
        },
        {
            "name": "AF003",
            "lat": 20.899048033333333,
            "lon": 157.1437179
        },
        {
            "name": "AF004",
            "lat": 21.084537233333332,
            "lon": 157.99467298333334
        },
        {
            "name": "AF005",
            "lat": 21.103732616666665,
            "lon": 158.04699078333334
        },
        {
            "name": "AF006",
            "lat": 21.133402833333335,
            "lon": 158.09335708333333
        },
        {
            "name": "AF007",
            "lat": 21.08715995,
            "lon": 158.00438518333334
        },
        {
            "name": "AF008",
            "lat": 21.11324645,
            "lon": 158.06445118333335
        },
        {
            "name": "AF009",
            "lat": 21.153206416666666,
            "lon": 158.1150114
        },
        {
            "name": "AF010",
            "lat": 21.204204866666668,
            "lon": 158.15246995
        },
        {
            "name": "AF011",
            "lat": 21.262620416666667,
            "lon": 158.17415241666666
        },
        {
            "name": "AF012",
            "lat": 21.243835833333332,
            "lon": 158.17105828333334
        },
        {
            "name": "AF013",
            "lat": 21.188010866666666,
            "lon": 158.14491748333333
        },
        {
            "name": "AF014",
            "lat": 21.140387166666667,
            "lon": 158.1041935
        },
        {
            "name": "ALANA",
            "lat": 21.075327783333332,
            "lon": 157.93908611666666
        },
        {
            "name": "ALOCA",
            "lat": 23.133611116666668,
            "lon": 157.08333333333334
        },
        {
            "name": "APACK",
            "lat": 24.043702783333334,
            "lon": 156.31954166666668
        },
        {
            "name": "BAFRE",
            "lat": 21.459869433333335,
            "lon": 158.45004721666666
        },
        {
            "name": "BAMBO",
            "lat": 21.416547216666668,
            "lon": 157.51001111666667
        },
        {
            "name": "BANZI",
            "lat": 21.195144433333333,
            "lon": 158.03566388333334
        },
        {
            "name": "BEACH",
            "lat": 20.683058333333335,
            "lon": 156.53672221666667
        },
        {
            "name": "BECAN",
            "lat": 22.744722216666666,
            "lon": 156.67833333333334
        },
        {
            "name": "BINJO",
            "lat": 20.40467221666667,
            "lon": 160.79923611666666
        },
        {
            "name": "BISPE",
            "lat": 21.139686116666667,
            "lon": 157.84192778333335
        },
        {
            "name": "BITTA",
            "lat": 23.528030566666665,
            "lon": 155.47883611666666
        },
        {
            "name": "BLUSH",
            "lat": 21.333697216666668,
            "lon": 156.67383333333333
        },
        {
            "name": "BOOKE",
            "lat": 21.463097216666668,
            "lon": 158.44983056666666
        },
        {
            "name": "BOWSZ",
            "lat": 22.354661116666666,
            "lon": 156.61779443333333
        },
        {
            "name": "CANON",
            "lat": 22.8015,
            "lon": 162.61688888333333
        },
        {
            "name": "CAPVI",
            "lat": 21.3252,
            "lon": 158.04886111666667
        },
        {
            "name": "CARRP",
            "lat": 19.073333333333334,
            "lon": 159.58333333333334
        },
        {
            "name": "CEDRI",
            "lat": 21.308263883333332,
            "lon": 157.937575
        },
        {
            "name": "CENAS",
            "lat": 21.334480566666667,
            "lon": 158.06898888333333
        },
        {
            "name": "CFFVB",
            "lat": 21.208075,
            "lon": 158.07687778333334
        },
        {
            "name": "CHAIN",
            "lat": 20.972994433333334,
            "lon": 156.92576111666668
        },
        {
            "name": "CHOKL",
            "lat": 22.140555566666666,
            "lon": 160.45
        },
        {
            "name": "CHOKO",
            "lat": 20.377347216666667,
            "lon": 160.88309721666667
        },
        {
            "name": "CIGEP",
            "lat": 21.325066666666668,
            "lon": 158.17858611666668
        },
        {
            "name": "CIXOP",
            "lat": 21.1851,
            "lon": 157.98084721666666
        },
        {
            "name": "CKH",
            "lat": 21.265111116666667,
            "lon": 157.70298056666667
        },
        {
            "name": "CLUTS",
            "lat": 23.003258333333335,
            "lon": 154.65477221666666
        },
        {
            "name": "CODDY",
            "lat": 21.424030566666666,
            "lon": 155.13808333333333
        },
        {
            "name": "COLIS",
            "lat": 21.306722216666667,
            "lon": 158.10301111666666
        },
        {
            "name": "CONED",
            "lat": 22.369166666666665,
            "lon": 156.45805556666667
        },
        {
            "name": "COZES",
            "lat": 21.325169433333333,
            "lon": 158.094925
        },
        {
            "name": "CRISI",
            "lat": 20.462266666666668,
            "lon": 157.06573056666667
        },
        {
            "name": "CUDEK",
            "lat": 21.234694433333335,
            "lon": 157.61124443333333
        },
        {
            "name": "CUGGY",
            "lat": 20.975838883333335,
            "lon": 156.85575833333334
        },
        {
            "name": "D198N",
            "lat": 21.103447216666666,
            "lon": 158.05140556666666
        },
        {
            "name": "DAFRE",
            "lat": 19.496313883333332,
            "lon": 157.50761111666668
        },
        {
            "name": "DANIE",
            "lat": 21.243088883333332,
            "lon": 157.96897778333334
        },
        {
            "name": "DANNO",
            "lat": 23.53323333333333,
            "lon": 161.58176666666665
        },
        {
            "name": "DANYA",
            "lat": 22.040277783333334,
            "lon": 156.365
        },
        {
            "name": "DEBRY",
            "lat": 21.236277783333332,
            "lon": 158.037025
        },
        {
            "name": "DEEKE",
            "lat": 21.714166666666667,
            "lon": 159.10944443333332
        },
        {
            "name": "DENKL",
            "lat": 22.618611116666667,
            "lon": 160.18722221666667
        },
        {
            "name": "DENNS",
            "lat": 22.3634,
            "lon": 153.88058333333333
        },
        {
            "name": "DLIMA",
            "lat": 21.864105566666666,
            "lon": 156.28936943333332
        },
        {
            "name": "DOVRR",
            "lat": 18.716666666666665,
            "lon": 157.66666666666666
        },
        {
            "name": "DSHLL",
            "lat": 20.763525,
            "lon": 156.96548611666665
        },
        {
            "name": "DYDRA",
            "lat": 21.247838883333333,
            "lon": 157.86878333333334
        },
        {
            "name": "DYLLI",
            "lat": 20.931869433333333,
            "lon": 157.48846666666665
        },
        {
            "name": "DZURA",
            "lat": 21.238047216666665,
            "lon": 157.95918333333333
        },
        {
            "name": "ENSKY",
            "lat": 21.123533333333334,
            "lon": 157.87114721666666
        },
        {
            "name": "EVEVE",
            "lat": 21.3068,
            "lon": 157.97886111666668
        },
        {
            "name": "EWABE",
            "lat": 21.325213883333333,
            "lon": 158.04886111666667
        },
        {
            "name": "FALOS",
            "lat": 21.303852783333333,
            "lon": 157.94139166666668
        },
        {
            "name": "FEGTU",
            "lat": 21.325191666666665,
            "lon": 158.06848611666666
        },
        {
            "name": "FEXAN",
            "lat": 21.140725,
            "lon": 158.02637221666666
        },
        {
            "name": "FGTRE",
            "lat": 21.325188883333333,
            "lon": 158.06279166666667
        },
        {
            "name": "FIRES",
            "lat": 20.320013883333335,
            "lon": 156.92173333333332
        },
        {
            "name": "GECKO",
            "lat": 21.19225,
            "lon": 158.30978056666666
        },
        {
            "name": "GIDME",
            "lat": 21.207527783333333,
            "lon": 158.08002221666666
        },
        {
            "name": "GRAIL",
            "lat": 21.512991666666668,
            "lon": 158.85909443333333
        },
        {
            "name": "GRAMY",
            "lat": 20.818880566666667,
            "lon": 157.13711388333334
        },
        {
            "name": "GRITL",
            "lat": 21.327686116666666,
            "lon": 157.62336666666667
        },
        {
            "name": "HADIG",
            "lat": 21.30645,
            "lon": 158.29016943333335
        },
        {
            "name": "HAUNA",
            "lat": 21.094119433333333,
            "lon": 157.71251666666666
        },
        {
            "name": "HAURY",
            "lat": 21.226719433333333,
            "lon": 158.13226388333334
        },
        {
            "name": "HEFTL",
            "lat": 21.27466666666667,
            "lon": 157.85266666666666
        },
        {
            "name": "HISPO",
            "lat": 21.695119433333332,
            "lon": 157.20233056666666
        },
        {
            "name": "HNAPI",
            "lat": 21.806388883333334,
            "lon": 157.99888888333334
        },
        {
            "name": "HNL",
            "lat": 21.308322216666667,
            "lon": 157.93041111666668
        },
        {
            "name": "HOGRO",
            "lat": 21.112016666666666,
            "lon": 158.08405278333333
        },
        {
            "name": "HOKLA",
            "lat": 20.225966666666668,
            "lon": 156.82673333333332
        },
        {
            "name": "HONUU",
            "lat": 20.847222216666665,
            "lon": 157.32055556666666
        },
        {
            "name": "HUBAP",
            "lat": 21.221027783333334,
            "lon": 157.92998056666667
        },
        {
            "name": "HUXOR",
            "lat": 21.306769433333333,
            "lon": 158.04611111666668
        },
        {
            "name": "IBICU",
            "lat": 21.29155,
            "lon": 157.85684443333332
        },
        {
            "name": "IHNET",
            "lat": 21.325363883333335,
            "lon": 157.74911943333333
        },
        {
            "name": "INOYI",
            "lat": 21.283336116666668,
            "lon": 157.85846388333334
        },
        {
            "name": "JEVIT",
            "lat": 21.325111116666665,
            "lon": 158.166175
        },
        {
            "name": "JIBNI",
            "lat": 21.306411116666666,
            "lon": 158.10097221666666
        },
        {
            "name": "JIMMA",
            "lat": 21.603611116666666,
            "lon": 159.13583333333332
        },
        {
            "name": "JLAKE",
            "lat": 21.936388883333333,
            "lon": 158.945
        },
        {
            "name": "JOELE",
            "lat": 21.668458333333334,
            "lon": 157.18724443333332
        },
        {
            "name": "JOGOB",
            "lat": 21.150119433333334,
            "lon": 158.03028333333333
        },
        {
            "name": "JOLIP",
            "lat": 21.113319433333334,
            "lon": 157.68100833333332
        },
        {
            "name": "JORDA",
            "lat": 20.659627783333335,
            "lon": 157.266175
        },
        {
            "name": "JULLE",
            "lat": 20.959938883333333,
            "lon": 157.57646943333333
        },
        {
            "name": "JUNGL",
            "lat": 21.325138883333334,
            "lon": 158.11323888333334
        },
        {
            "name": "KABTE",
            "lat": 21.30680278333333,
            "lon": 157.9463
        },
        {
            "name": "KAENA",
            "lat": 21.541111116666666,
            "lon": 158.36277778333334
        },
        {
            "name": "KATHS",
            "lat": 21.077055566666665,
            "lon": 161.38633333333334
        },
        {
            "name": "KEAHI",
            "lat": 20.794616666666666,
            "lon": 157.60233611666666
        },
        {
            "name": "KEOKI",
            "lat": 21.169316666666667,
            "lon": 158.01256111666666
        },
        {
            "name": "KEOLA",
            "lat": 21.298122216666666,
            "lon": 158.490525
        },
        {
            "name": "KITKE",
            "lat": 21.306616666666667,
            "lon": 158.19735278333334
        },
        {
            "name": "KLANI",
            "lat": 21.549722216666666,
            "lon": 158.6025
        },
        {
            "name": "KOLEA",
            "lat": 22.589888883333334,
            "lon": 155.22203333333334
        },
        {
            "name": "KUHIO",
            "lat": 21.255183333333335,
            "lon": 157.83166943333333
        },
        {
            "name": "KYLIO",
            "lat": 22.235277783333334,
            "lon": 156.82972221666665
        },
        {
            "name": "LAVAS",
            "lat": 20.490569433333334,
            "lon": 156.41926388333334
        },
        {
            "name": "LAYIG",
            "lat": 21.176066666666667,
            "lon": 158.01724721666668
        },
        {
            "name": "LEANE",
            "lat": 21.269411116666667,
            "lon": 159.71467778333334
        },
        {
            "name": "LEHUA",
            "lat": 21.187313883333335,
            "lon": 157.8072
        },
        {
            "name": "LHAKE",
            "lat": 21.169069433333334,
            "lon": 158.05800556666668
        },
        {
            "name": "LIH",
            "lat": 21.965272216666666,
            "lon": 159.3381
        },
        {
            "name": "LIH50",
            "lat": 22.661275,
            "lon": 159.83462778333333
        },
        {
            "name": "LILIA",
            "lat": 22.5077,
            "lon": 161.58318333333332
        },
        {
            "name": "LNY",
            "lat": 20.764499999999998,
            "lon": 156.96888888333334
        },
        {
            "name": "LOKIE",
            "lat": 21.123961116666667,
            "lon": 157.34505
        },
        {
            "name": "LUYEV",
            "lat": 21.026125,
            "lon": 157.990525
        },
        {
            "name": "MAGGI",
            "lat": 21.840530566666665,
            "lon": 156.96561111666668
        },
        {
            "name": "MAKAH",
            "lat": 20.959997216666668,
            "lon": 157.57665556666666
        },
        {
            "name": "MAKAI",
            "lat": 21.257911116666666,
            "lon": 158.00882221666666
        },
        {
            "name": "MAKOA",
            "lat": 21.325133333333333,
            "lon": 158.11991666666665
        },
        {
            "name": "MAVGD",
            "lat": 21.299377783333334,
            "lon": 157.94102778333334
        },
        {
            "name": "MIRAA",
            "lat": 20.768888883333332,
            "lon": 157.38
        },
        {
            "name": "MKK",
            "lat": 21.138111116666668,
            "lon": 157.16741666666667
        },
        {
            "name": "MSONA",
            "lat": 22.816033333333333,
            "lon": 156.74668333333332
        },
        {
            "name": "NALII",
            "lat": 21.306794433333334,
            "lon": 157.886775
        },
        {
            "name": "NAPUA",
            "lat": 21.736369433333333,
            "lon": 159.24404443333333
        },
        {
            "name": "NBODY",
            "lat": 21.205930566666666,
            "lon": 157.912525
        },
        {
            "name": "NEEEL",
            "lat": 21.665,
            "lon": 158.28833333333333
        },
        {
            "name": "NONNI",
            "lat": 21.228416666666668,
            "lon": 161.04988333333333
        },
        {
            "name": "OBGUE",
            "lat": 21.300130566666667,
            "lon": 157.93525556666665
        },
        {
            "name": "ONODE",
            "lat": 21.259744433333335,
            "lon": 157.83675833333334
        },
        {
            "name": "OOKAH",
            "lat": 21.23806666666667,
            "lon": 157.99495278333333
        },
        {
            "name": "OPACA",
            "lat": 20.938938883333332,
            "lon": 158.23735556666668
        },
        {
            "name": "OPIHI",
            "lat": 21.09585,
            "lon": 158.003975
        },
        {
            "name": "OUCHI",
            "lat": 21.845277783333334,
            "lon": 159.03638888333333
        },
        {
            "name": "PAKOE",
            "lat": 21.238044433333332,
            "lon": 158.21964721666666
        },
        {
            "name": "PALAY",
            "lat": 21.105761116666667,
            "lon": 157.57034443333333
        },
        {
            "name": "PENRE",
            "lat": 21.130983333333333,
            "lon": 158.19735278333334
        },
        {
            "name": "PERLY",
            "lat": 21.26850556666667,
            "lon": 157.99143611666668
        },
        {
            "name": "PHNL",
            "lat": 21.317816666666666,
            "lon": 157.92022778333333
        },
        {
            "name": "PI001",
            "lat": 21.233392316666666,
            "lon": 158.04141618333333
        },
        {
            "name": "PI002",
            "lat": 21.162422766666666,
            "lon": 158.05211153333335
        },
        {
            "name": "PI003",
            "lat": 21.117916833333332,
            "lon": 158.20546908333333
        },
        {
            "name": "PI004",
            "lat": 21.3252023,
            "lon": 158.11148201666666
        },
        {
            "name": "PI005",
            "lat": 21.274517566666667,
            "lon": 158.16586396666668
        },
        {
            "name": "PI006",
            "lat": 21.32511926666667,
            "lon": 158.22777791666667
        },
        {
            "name": "PI007",
            "lat": 21.1920667,
            "lon": 157.99930956666665
        },
        {
            "name": "PI008",
            "lat": 21.123174966666667,
            "lon": 157.97813263333333
        },
        {
            "name": "PI009",
            "lat": 21.097296866666667,
            "lon": 158.0555845
        },
        {
            "name": "PI010",
            "lat": 21.213294333333334,
            "lon": 158.04322325
        },
        {
            "name": "PI011",
            "lat": 21.141725833333332,
            "lon": 158.04724466666667
        },
        {
            "name": "PI012",
            "lat": 21.140759616666667,
            "lon": 158.12951708333333
        },
        {
            "name": "PIPLN",
            "lat": 21.173530566666667,
            "lon": 157.87574166666667
        },
        {
            "name": "POHAI",
            "lat": 21.299383333333335,
            "lon": 157.96864721666665
        },
        {
            "name": "PULPS",
            "lat": 20.472161116666665,
            "lon": 155.89929443333332
        },
        {
            "name": "PUPPI",
            "lat": 21.921383333333335,
            "lon": 161.67963333333333
        },
        {
            "name": "RABBS",
            "lat": 21.336666666666666,
            "lon": 158.24
        },
        {
            "name": "RCHEW",
            "lat": 21.208072216666668,
            "lon": 158.07689721666668
        },
        {
            "name": "REXIE",
            "lat": 22.992552783333334,
            "lon": 156.91290833333332
        },
        {
            "name": "RF001",
            "lat": 21.161768783333333,
            "lon": 158.08504411666667
        },
        {
            "name": "RF002",
            "lat": 21.178525133333334,
            "lon": 158.09054228333332
        },
        {
            "name": "RF003",
            "lat": 21.195727183333332,
            "lon": 158.0869606
        },
        {
            "name": "RF004",
            "lat": 21.145409883333333,
            "lon": 158.04169603333332
        },
        {
            "name": "RF005",
            "lat": 21.144445133333335,
            "lon": 158.05649221666667
        },
        {
            "name": "RF006",
            "lat": 21.244444866666665,
            "lon": 158.08672321666666
        },
        {
            "name": "RF007",
            "lat": 21.2612611,
            "lon": 158.10385281666666
        },
        {
            "name": "RF008",
            "lat": 21.283897466666666,
            "lon": 158.10924516666665
        },
        {
            "name": "RF009",
            "lat": 21.298803616666667,
            "lon": 157.9834876
        },
        {
            "name": "RF010",
            "lat": 21.27719005,
            "lon": 158.01369693333334
        },
        {
            "name": "RF011",
            "lat": 21.245703133333333,
            "lon": 158.03126441666666
        },
        {
            "name": "RF012",
            "lat": 21.210247216666666,
            "lon": 158.03290448333334
        },
        {
            "name": "ROSHE",
            "lat": 20.926638883333332,
            "lon": 157.25380833333332
        },
        {
            "name": "SAKKI",
            "lat": 20.931752783333334,
            "lon": 157.48834166666666
        },
        {
            "name": "SEBYI",
            "lat": 21.057333333333332,
            "lon": 158.1175
        },
        {
            "name": "SECEL",
            "lat": 20.624222216666666,
            "lon": 158.44268888333335
        },
        {
            "name": "SECIL",
            "lat": 21.202075,
            "lon": 157.77538056666666
        },
        {
            "name": "SECJI",
            "lat": 20.977166666666665,
            "lon": 159.00416666666666
        },
        {
            "name": "SEDDU",
            "lat": 19.938561116666666,
            "lon": 158.95040278333335
        },
        {
            "name": "SELIC",
            "lat": 21.325022216666667,
            "lon": 158.21972778333333
        },
        {
            "name": "SELYY",
            "lat": 20.512666666666668,
            "lon": 158.20483333333334
        },
        {
            "name": "SEPGE",
            "lat": 21.585555566666667,
            "lon": 156.57528611666666
        },
        {
            "name": "SERAH",
            "lat": 20.864625,
            "lon": 157.27909166666666
        },
        {
            "name": "SERYU",
            "lat": 22.455,
            "lon": 156.78766666666667
        },
        {
            "name": "SETZO",
            "lat": 20.784833333333335,
            "lon": 157.39383333333333
        },
        {
            "name": "SHARK",
            "lat": 22.515177783333332,
            "lon": 156.08972778333333
        },
        {
            "name": "SHIGI",
            "lat": 21.304197216666665,
            "lon": 158.17150278333332
        },
        {
            "name": "SHLAE",
            "lat": 21.024416666666667,
            "lon": 157.58656111666667
        },
        {
            "name": "SHLLS",
            "lat": 21.367797216666666,
            "lon": 158.29450278333334
        },
        {
            "name": "SOBOW",
            "lat": 20.833519433333333,
            "lon": 157.18255556666668
        },
        {
            "name": "SOK",
            "lat": 21.900391666666668,
            "lon": 159.52887221666666
        },
        {
            "name": "SOLCE",
            "lat": 22.398333333333333,
            "lon": 156.24266666666668
        },
        {
            "name": "SOMOH",
            "lat": 22.3215,
            "lon": 156.3425
        },
        {
            "name": "SOPIW",
            "lat": 22.3875,
            "lon": 156.80733333333333
        },
        {
            "name": "SUCTU",
            "lat": 20.852511116666665,
            "lon": 157.40450556666667
        },
        {
            "name": "SUPPO",
            "lat": 21.151513883333333,
            "lon": 158.11593611666666
        },
        {
            "name": "SUSRY",
            "lat": 21.252333333333333,
            "lon": 157.99672221666665
        },
        {
            "name": "SYIKL",
            "lat": 21.737777783333332,
            "lon": 160.54222221666666
        },
        {
            "name": "SYMIN",
            "lat": 21.436252783333334,
            "lon": 157.42305278333333
        },
        {
            "name": "SYVAD",
            "lat": 21.924444433333335,
            "lon": 162.75799443333332
        },
        {
            "name": "THOMA",
            "lat": 23.94345,
            "lon": 160.7635
        },
        {
            "name": "TOADS",
            "lat": 22.761955566666668,
            "lon": 156.69718333333333
        },
        {
            "name": "TORKL",
            "lat": 22.951111116666667,
            "lon": 159.85527778333332
        },
        {
            "name": "ULAJY",
            "lat": 21.231738883333332,
            "lon": 158.06875556666665
        },
        {
            "name": "UPP",
            "lat": 20.200541666666666,
            "lon": 155.84326666666666
        },
        {
            "name": "WIKUR",
            "lat": 21.151441666666667,
            "lon": 158.02845833333333
        },
        {
            "name": "WORUB",
            "lat": 21.149219433333332,
            "lon": 158.07152221666666
        },
        {
            "name": "WRITS",
            "lat": 21.237980566666668,
            "lon": 158.16607221666666
        },
        {
            "name": "WUKUL",
            "lat": 21.30405,
            "lon": 158.18026111666666
        },
        {
            "name": "WYNAI",
            "lat": 20.877469433333335,
            "lon": 157.31890833333333
        },
        {
            "name": "XUMWE",
            "lat": 21.209402783333335,
            "lon": 158.07506388333334
        },
        {
            "name": "XUSLY",
            "lat": 21.238080566666667,
            "lon": 158.06275
        },
        {
            "name": "YEPGU",
            "lat": 21.169969433333332,
            "lon": 158.1307
        },
        {
            "name": "YETUC",
            "lat": 21.163213883333334,
            "lon": 158.14038888333334
        },
        {
            "name": "YUYXE",
            "lat": 21.300386116666665,
            "lon": 157.88009166666666
        },
        {
            "name": "ZEPAS",
            "lat": 21.112866666666665,
            "lon": 158.21157221666667
        },
        {
            "name": "ZIGIE",
            "lat": 24.313694433333332,
            "lon": 157.28536111666668
        },
        {
            "name": "ZILAN",
            "lat": 23.413611116666665,
            "lon": 157.64027778333335
        },
        {
            "name": "ZOBUX",
            "lat": 21.324841666666668,
            "lon": 158.30898611666666
        },
        {
            "name": "ZORTA",
            "lat": 21.730272216666666,
            "lon": 157.22492778333333
        },
        {
            "name": "ZUKEY",
            "lat": 20.782666666666668,
            "lon": 159.62207778333334
        }
    ],
    "rnws": [
        "RNW 04",
        "RNW 04L",
        "RNW 04R",
        "RNW 08",
        "RNW 08L",
        "RNW 08R",
        "RNW 22",
        "RNW 22L",
        "RNW 22R",
        "RNW 26",
        "RNW 26L",
        "RNW 26R"
    ],
    "sids": [
        {
            "name": "BANZI1",
            "rnw": "06",
            "fixes": {
                "BANZI": "BANZI AT OR BELOW 5000",
                "LHAKE": "OVERFLY LHAKE 5000 TRK 208 VECTORS"
            },
            "sub_fixes": [
                {
                    "rwy": "RNW 22L",
                    "fixes": {
                        "RNW 22L": "RNW 22L HDG 222 INTERCEPT RADIAL 208 TO",
                        "BANZI": "BANZI"
                    }
                },
                {
                    "rwy": "RNW 22R",
                    "fixes": {
                        "RNW 22R": "RNW 22R HDG 222 INTERCEPT RADIAL 208 TO",
                        "BANZI": "BANZI"
                    }
                },
                {
                    "rwy": "RNW 26L",
                    "fixes": {
                        "RNW 26L": "RNW 26L HDG 259 INTERCEPT RADIAL 199 TO",
                        "BANZI": "BANZI"
                    }
                },
                {
                    "rwy": "RNW 26R",
                    "fixes": {
                        "RNW 26R": "RNW 26R HDG 259 INTERCEPT RADIAL 197 TO",
                        "BANZI": "BANZI"
                    }
                }
            ],
            "transitions": []
        },
        {
            "name": "KEAHI3",
            "rnw": "06",
            "fixes": {},
            "sub_fixes": [
                {
                    "rwy": "RNW 22L",
                    "fixes": {
                        "RNW 22L": "RNW 22L HDG 222 VECTORS",
                        "KEAHI": "KEAHI"
                    }
                },
                {
                    "rwy": "RNW 22R",
                    "fixes": {
                        "RNW 22R": "RNW 22R HDG 222 VECTORS",
                        "KEAHI": "KEAHI"
                    }
                },
                {
                    "rwy": "RNW 26L",
                    "fixes": {
                        "RNW 26L": "RNW 26L HDG 258 VECTORS TURN LEFT DIRECT",
                        "KEAHI": "KEAHI"
                    }
                },
                {
                    "rwy": "RNW 26R",
                    "fixes": {
                        "RNW 26R": "RNW 26R HDG 258 VECTORS TURN LEFT DIRECT",
                        "KEAHI": "KEAHI"
                    }
                }
            ],
            "transitions": [
                {
                    "name": "JORDA",
                    "fixes": [
                        "SETZO",
                        "JORDA"
                    ]
                },
                {
                    "name": "LNY",
                    "fixes": [
                        "LNY"
                    ]
                },
                {
                    "name": "UPP",
                    "fixes": [
                        "SETZO",
                        "JORDA",
                        "UPP"
                    ]
                }
            ]
        },
        {
            "name": "KEOLA3",
            "rnw": "06",
            "fixes": {},
            "sub_fixes": [
                {
                    "rwy": "RNW 04L",
                    "fixes": {
                        "RNW 04L": "RNW 04L HDG 042 VECTORS TURN RIGHT DIRECT",
                        "KEOLA": "KEOLA"
                    }
                },
                {
                    "rwy": "RNW 04R",
                    "fixes": {
                        "RNW 04R": "RNW 04R HDG 042 VECTORS TURN RIGHT DIRECT",
                        "KEOLA": "KEOLA"
                    }
                },
                {
                    "rwy": "RNW 08L",
                    "fixes": {
                        "RNW 08L": "RNW 08L HDG 079 VECTORS TURN RIGHT DIRECT",
                        "KEOLA": "KEOLA"
                    }
                },
                {
                    "rwy": "RNW 08R",
                    "fixes": {
                        "RNW 08R": "RNW 08R HDG 079 VECTORS TURN RIGHT DIRECT",
                        "KEOLA": "KEOLA"
                    }
                },
                {
                    "rwy": "RNW 26L",
                    "fixes": {
                        "RNW 26L": "RNW 26L HDG 259 VECTORS",
                        "KEOLA": "KEOLA"
                    }
                },
                {
                    "rwy": "RNW 26R",
                    "fixes": {
                        "RNW 26R": "RNW 26R HDG 259 VECTORS",
                        "KEOLA": "KEOLA"
                    }
                }
            ],
            "transitions": [
                {
                    "name": "KATHS",
                    "fixes": [
                        "LEANE",
                        "NONNI",
                        "KATHS"
                    ]
                },
                {
                    "name": "LIH",
                    "fixes": [
                        "GRAIL",
                        "NAPUA",
                        "LIH"
                    ]
                },
                {
                    "name": "LILIA",
                    "fixes": [
                        "LILIA"
                    ]
                },
                {
                    "name": "NONNI",
                    "fixes": [
                        "LEANE",
                        "NONNI"
                    ]
                },
                {
                    "name": "PUPPI",
                    "fixes": [
                        "PUPPI"
                    ]
                },
                {
                    "name": "SOK",
                    "fixes": [
                        "GRAIL",
                        "NAPUA",
                        "SOK"
                    ]
                }
            ]
        },
        {
            "name": "MKK5",
            "rnw": "06",
            "fixes": {},
            "sub_fixes": [
                {
                    "rwy": "RNW 04L",
                    "fixes": {
                        "RNW 04L": "RNW 04L HDG 042 VECTORS",
                        "MKK": "MKK"
                    }
                },
                {
                    "rwy": "RNW 04R",
                    "fixes": {
                        "RNW 04R": "RNW 04R HDG 042 VECTORS",
                        "MKK": "MKK"
                    }
                },
                {
                    "rwy": "RNW 08L",
                    "fixes": {
                        "RNW 08L": "RNW 08L HDG 079 VECTORS",
                        "MKK": "MKK"
                    }
                },
                {
                    "rwy": "RNW 08R",
                    "fixes": {
                        "RNW 08R": "RNW 08R HDG 079 VECTORS",
                        "MKK": "MKK"
                    }
                },
                {
                    "rwy": "RNW 26L",
                    "fixes": {
                        "RNW 26L": "RNW 26L HDG 259 VECTORS TURN LEFT DIRECT",
                        "MKK": "MKK"
                    }
                },
                {
                    "rwy": "RNW 26R",
                    "fixes": {
                        "RNW 26R": "RNW 26R HDG 259 VECTORS TURN LEFT DIRECT",
                        "MKK": "MKK"
                    }
                }
            ],
            "transitions": [
                {
                    "name": "APACK",
                    "fixes": [
                        "MAGGI",
                        "SERYU",
                        "TOADS",
                        "APACK"
                    ]
                },
                {
                    "name": "CODDY",
                    "fixes": [
                        "BLUSH",
                        "CODDY"
                    ]
                },
                {
                    "name": "KOLEA",
                    "fixes": [
                        "SEPGE",
                        "KOLEA"
                    ]
                },
                {
                    "name": "PULPS",
                    "fixes": [
                        "CUGGY",
                        "PULPS"
                    ]
                },
                {
                    "name": "REXIE",
                    "fixes": [
                        "MAGGI",
                        "SERYU",
                        "REXIE"
                    ]
                }
            ]
        },
        {
            "name": "OPIHI3",
            "rnw": "06",
            "fixes": {},
            "sub_fixes": [
                {
                    "rwy": "RNW 04L",
                    "fixes": {
                        "RNW 04L": "RNW 04L HDG 042 UNTIL 420 HDG 042 VECTORS TURN RIGHT DIRECT",
                        "OPIHI": "OVERFLY OPIHI"
                    }
                },
                {
                    "rwy": "RNW 04R",
                    "fixes": {
                        "RNW 04R": "RNW 04R HDG 042 UNTIL 420 HDG 042 VECTORS TURN RIGHT DIRECT",
                        "OPIHI": "OVERFLY OPIHI"
                    }
                },
                {
                    "rwy": "RNW 08L",
                    "fixes": {
                        "RNW 08L": "RNW 08L HDG 079 UNTIL 420 HDG 079 VECTORS TURN RIGHT DIRECT",
                        "OPIHI": "OVERFLY OPIHI"
                    }
                },
                {
                    "rwy": "RNW 08R",
                    "fixes": {
                        "RNW 08R": "RNW 08R HDG 079 UNTIL 420 HDG 079 VECTORS TURN RIGHT DIRECT",
                        "OPIHI": "OVERFLY OPIHI"
                    }
                },
                {
                    "rwy": "RNW 26L",
                    "fixes": {
                        "RNW 26L": "RNW 26L HDG 259 UNTIL 420 HDG 259 VECTORS TURN LEFT DIRECT",
                        "OPIHI": "OVERFLY OPIHI"
                    }
                },
                {
                    "rwy": "RNW 26R",
                    "fixes": {
                        "RNW 26R": "RNW 26R HDG 259 UNTIL 420 HDG 259 VECTORS TURN LEFT DIRECT",
                        "OPIHI": "OVERFLY OPIHI"
                    }
                }
            ],
            "transitions": [
                {
                    "name": "CARRP",
                    "fixes": [
                        "SEBYI",
                        "SECEL",
                        "SEDDU",
                        "CARRP"
                    ]
                },
                {
                    "name": "CHOKO",
                    "fixes": [
                        "SEBYI",
                        "SECJI",
                        "ZUKEY",
                        "BINJO",
                        "CHOKO"
                    ]
                },
                {
                    "name": "DOVRR",
                    "fixes": [
                        "SELYY",
                        "DOVRR"
                    ]
                }
            ]
        },
        {
            "name": "PALAY3",
            "rnw": "06",
            "fixes": {},
            "sub_fixes": [
                {
                    "rwy": "RNW 04L",
                    "fixes": {
                        "RNW 04L": "RNW 04L HDG 042 VECTORS",
                        "PALAY": "PALAY"
                    }
                },
                {
                    "rwy": "RNW 04R",
                    "fixes": {
                        "RNW 04R": "RNW 04R HDG 042 VECTORS",
                        "PALAY": "PALAY"
                    }
                },
                {
                    "rwy": "RNW 08L",
                    "fixes": {
                        "RNW 08L": "RNW 08L HDG 079 VECTORS",
                        "PALAY": "PALAY"
                    }
                },
                {
                    "rwy": "RNW 08R",
                    "fixes": {
                        "RNW 08R": "RNW 08R HDG 079 VECTORS",
                        "PALAY": "PALAY"
                    }
                },
                {
                    "rwy": "RNW 26L",
                    "fixes": {
                        "RNW 26L": "RNW 26L HDG 259 VECTORS TURN LEFT DIRECT",
                        "PALAY": "PALAY"
                    }
                },
                {
                    "rwy": "RNW 26R",
                    "fixes": {
                        "RNW 26R": "RNW 26R HDG 259 VECTORS TURN LEFT DIRECT",
                        "PALAY": "PALAY"
                    }
                }
            ],
            "transitions": [
                {
                    "name": "LNY",
                    "fixes": [
                        "ROSHE",
                        "LNY"
                    ]
                },
                {
                    "name": "MKK",
                    "fixes": [
                        "LOKIE",
                        "MKK"
                    ]
                }
            ]
        },
        {
            "name": "PIPLN1",
            "rnw": "06",
            "fixes": {
                "PIPLN": "PIPLN AT OR BELOW 5000 AT OR ABOVE 3000 SPEED 210",
                "ENSKY": "OVERFLY ENSKY 5000 TRK 164 VECTORS"
            },
            "sub_fixes": [
                {
                    "rwy": "RNW 08L",
                    "fixes": {
                        "RNW 08L": "RNW 08L HDG 079 UNTIL 513"
                    }
                },
                {
                    "rwy": "RNW 08R",
                    "fixes": {
                        "RNW 08R": "RNW 08R HDG 079 UNTIL 513"
                    }
                }
            ],
            "transitions": []
        }
    ],
    "stars": [
        {
            "name": "BOOKE8",
            "runway": "RNW 04 RNW 04L RNW 04R RNW 08 RNW 08L RNW 08R RNW 22 RNW 22L RNW 22R RNW 26 RNW 26L RNW 26R",
            "fixes": {
                "BOOKE": "BOOKE",
                "SHIGI": "SHIGI",
                "HNL": "HNL"
            }
        },
        {
            "name": "INOYI1.04B",
            "runway": "RNW 04R RNW 04L",
            "fixes": {
                "BAMBO": "BAMBO AT OR BELOW 15000 AT OR ABOVE 10000 SPEED 250",
                "IHNET": "IHNET AT OR ABOVE 8000",
                "INOYI": "INOYI AT OR ABOVE 8000 SPEED 230",
                "HUBAP": "HUBAP 7000 SPEED 220 TRK 216 VECTORS"
            }
        },
        {
            "name": "INOYI1.08B",
            "runway": "RNW 08R RNW 08L",
            "fixes": {
                "BAMBO": "BAMBO AT OR BELOW 15000 AT OR ABOVE 10000 SPEED 250",
                "IHNET": "IHNET AT OR ABOVE 8000",
                "INOYI": "INOYI AT OR ABOVE 8000 SPEED 230",
                "DZURA": "DZURA",
                "OOKAH": "OVERFLY OOKAH 6000 SPEED 210 HDG 259 VECTORS"
            }
        },
        {
            "name": "JULLE5",
            "runway": "RNW 04 RNW 04L RNW 04R RNW 08 RNW 08L RNW 08R RNW 22 RNW 22L RNW 22R RNW 26 RNW 26L RNW 26R",
            "fixes": {
                "JULLE": "JULLE",
                "ALANA": "ALANA"
            }
        },
        {
            "name": "KAENA2",
            "runway": "RNW 04 RNW 04L RNW 04R RNW 08 RNW 08L RNW 08R RNW 22 RNW 22L RNW 22R RNW 26 RNW 26L RNW 26R",
            "fixes": {
                "KAENA": "KAENA AT OR ABOVE 7000",
                "RABBS": "RABBS AT OR ABOVE 4000",
                "MAKOA": "MAKOA AT OR BELOW 3700 AT OR ABOVE 3400 SPEED 210"
            }
        },
        {
            "name": "KLANI3.04B",
            "runway": "RNW 04R RNW 04L",
            "fixes": {
                "KLANI": "KLANI AT OR ABOVE 9000",
                "BAFRE": "BAFRE AT OR ABOVE 8000",
                "SHLLS": "SHLLS",
                "HAURY": "HAURY 4000 SPEED 210"
            }
        },
        {
            "name": "KLANI3.08B",
            "runway": "RNW 08R RNW 08L",
            "fixes": {
                "KLANI": "KLANI AT OR ABOVE 9000",
                "BAFRE": "BAFRE AT OR ABOVE 8000",
                "SHLLS": "SHLLS",
                "SELIC": "SELIC AT OR ABOVE 5000 SPEED 210"
            }
        },
        {
            "name": "KLANI3.26B",
            "runway": "RNW 26R RNW 26L",
            "fixes": {
                "KLANI": "KLANI AT OR ABOVE 9000",
                "BAFRE": "BAFRE AT OR ABOVE 8000",
                "SHLLS": "SHLLS",
                "CENAS": "CENAS",
                "POHAI": "POHAI AT OR ABOVE 6000 SPEED 230",
                "NBODY": "OVERFLY NBODY 6000 SPEED 210 HDG 140 VECTORS"
            }
        },
        {
            "name": "MAGGI3",
            "runway": "RNW 04 RNW 04L RNW 04R RNW 08 RNW 08L RNW 08R RNW 22 RNW 22L RNW 22R RNW 26 RNW 26L RNW 26R",
            "fixes": {
                "MAGGI": "MAGGI",
                "BAMBO": "BAMBO",
                "GRITL": "GRITL",
                "CKH": "CKH"
            }
        },
        {
            "name": "MAKAH1",
            "runway": "RNW 04 RNW 04L RNW 04R RNW 08 RNW 08L RNW 08R RNW 22 RNW 22L RNW 22R RNW 26 RNW 26L RNW 26R",
            "fixes": {
                "MAKAH": "MAKAH AT OR BELOW 14000 AT OR ABOVE 10000 SPEED 250",
                "ALANA": "OVERFLY ALANA 6000 SPEED 210 HDG 278 VECTORS"
            }
        },
        {
            "name": "OPACA4",
            "runway": "RNW 04 RNW 04L RNW 04R RNW 08 RNW 08L RNW 08R RNW 22 RNW 22L RNW 22R RNW 26 RNW 26L RNW 26R",
            "fixes": {
                "OPACA": "OPACA",
                "HNL": "HNL"
            }
        },
        {
            "name": "SAKKI5",
            "runway": "RNW 04 RNW 04L RNW 04R RNW 08 RNW 08L RNW 08R RNW 22 RNW 22L RNW 22R RNW 26 RNW 26L RNW 26R",
            "fixes": {
                "SAKKI": "SAKKI",
                "SECIL": "SECIL"
            }
        },
        {
            "name": "SHLAE1",
            "runway": "RNW 04 RNW 04L RNW 04R RNW 08 RNW 08L RNW 08R RNW 22 RNW 22L RNW 22R RNW 26 RNW 26L RNW 26R",
            "fixes": {
                "DYLLI": "DYLLI AT OR ABOVE 4000",
                "SHLAE": "OVERFLY SHLAE 4000 SPEED 210 HDG 304 VECTORS"
            }
        },
        {
            "name": "SYMIN1",
            "runway": "RNW 04 RNW 04L RNW 04R RNW 08 RNW 08L RNW 08R RNW 22 RNW 22L RNW 22R RNW 26 RNW 26L RNW 26R",
            "fixes": {
                "SYMIN": "SYMIN AT OR ABOVE 9000 SPEED 250",
                "CUDEK": "OVERFLY CUDEK 6000 SPEED 210 HDG 210 VECTORS"
            }
        }
    ],
    "approaches": [
        {
            "name": "ILS04RY",
            "fixes": {
                "DEBRY": "DEBRY AT OR ABOVE 2000",
                "PERLY": "PERLY 1500 RNW 04R TRK 042 UNTIL 540 TURN RIGHT HDG 220 INTERCEPT RADIAL 171 TO",
                "ALANA": "ALANA ALANA AT OR ABOVE 3000 HOLD AT ALANA RIGHT TURN INBOUNDCOURSE 351 LEGTIME 1 FAF PERLY MAP RNW 04R"
            },
            "transitions": [
                {
                    "name": "ALANA",
                    "fixes": {
                        "ALANA": "ALANA",
                        "AF004": "AF004",
                        "AF005": "AF005",
                        "AF006": "AF006",
                        "YEPGU": "YEPGU AT OR ABOVE 3000"
                    }
                },
                {
                    "name": "HUBAP",
                    "fixes": {
                        "HUBAP": "HUBAP 7000 SPEED 210",
                        "HOGRO": "HOGRO AT OR ABOVE 4200",
                        "YEPGU": "YEPGU AT OR ABOVE 3000"
                    }
                }
            ]
        },
        {
            "name": "ILS04RZ",
            "fixes": {
                "DEBRY": "DEBRY AT OR ABOVE 2000",
                "PERLY": "PERLY 1500 RNW 04R TRK 042 UNTIL 540 TURN RIGHT HDG 220 INTERCEPT RADIAL 171 TO",
                "ALANA": "ALANA ALANA AT OR ABOVE 3000 HOLD AT ALANA RIGHT TURN INBOUNDCOURSE 351 LEGTIME 1 FAF PERLY MAP RNW 04R"
            },
            "transitions": [
                {
                    "name": "ALANA",
                    "fixes": {
                        "ALANA": "ALANA",
                        "AF004": "AF004",
                        "AF005": "AF005",
                        "AF006": "AF006",
                        "YEPGU": "YEPGU AT OR ABOVE 3000"
                    }
                },
                {
                    "name": "HAURY",
                    "fixes": {
                        "HAURY": "HAURY 4000 SPEED 210"
                    }
                }
            ]
        },
        {
            "name": "ILS08L",
            "fixes": {
                "COZES": "COZES AT OR ABOVE 2700",
                "FGTRE": "FGTRE 2200 RNW 08L TRK 079 UNTIL 500 TURN RIGHT DIRECT",
                "ALANA": "ALANA AT OR ABOVE 5000 HOLD AT ALANA RIGHT TURN INBOUNDCOURSE 351 ALT 5000 LEGTIME 1 FAF FGTRE MAP RNW 08L"
            },
            "transitions": [
                {
                    "name": "BOOKE",
                    "fixes": {
                        "BOOKE": "BOOKE",
                        "SELIC": "SELIC AT OR ABOVE 5000",
                        "JEVIT": "JEVIT AT OR ABOVE 3500"
                    }
                },
                {
                    "name": "OOKAH",
                    "fixes": {
                        "OOKAH": "OOKAH 6000 SPEED 210",
                        "WRITS": "WRITS AT OR ABOVE 4400",
                        "JEVIT": "JEVIT AT OR ABOVE 3500"
                    }
                }
            ]
        },
        {
            "name": "LOC04R",
            "fixes": {
                "CFFVB": "CFFVB AT OR ABOVE 1900",
                "PERLY": "PERLY 1500",
                "FALOS": "FALOS 385 RNW 04R TRK 042 UNTIL 520 TURN RIGHT HDG 220 INTERCEPT RADIAL 171 TO",
                "ALANA": "ALANA ALANA AT OR ABOVE 3000 HOLD AT ALANA RIGHT TURN INBOUNDCOURSE 351 LEGTIME 1 FAF PERLY MAP FALOS"
            },
            "transitions": [
                {
                    "name": "HNL",
                    "fixes": {
                        "HNL": "HNL",
                        "PERLY": "PERLY AT OR ABOVE 3000",
                        "PI001": "PI001 AT OR ABOVE 1900 SPEED 210",
                        "PI002": "OVERFLY PI002 AT OR ABOVE 1900 SPEED 210",
                        "PI003": "PI003 AT OR ABOVE 1900 SPEED 210"
                    }
                }
            ]
        },
        {
            "name": "LOC08L",
            "fixes": {
                "FEGTU": "FEGTU AT OR ABOVE 2300",
                "EWABE": "EWABE 2000 RNW 08L TRK 079 UNTIL 520 TURN RIGHT HDG 200 INTERCEPT RADIAL 171 TO",
                "ALANA": "ALANA ALANA AT OR ABOVE 5000 HOLD AT ALANA RIGHT TURN INBOUNDCOURSE 351 ALT 5000 LEGTIME 1 FAF EWABE MAP RNW 08L"
            },
            "transitions": [
                {
                    "name": "ALANA",
                    "fixes": {
                        "ALANA": "ALANA",
                        "AF007": "AF007",
                        "AF008": "AF008",
                        "AF009": "AF009",
                        "AF010": "AF010",
                        "AF011": "AF011",
                        "CIGEP": "CIGEP AT OR ABOVE 4200"
                    }
                },
                {
                    "name": "HNL",
                    "fixes": {
                        "HNL": "HNL",
                        "EWABE": "EWABE AT OR BELOW 6000 AT OR ABOVE 4000",
                        "PI004": "PI004 AT OR ABOVE 3900 SPEED 210",
                        "PI005": "OVERFLY PI005 AT OR ABOVE 3900 SPEED 210",
                        "PI006": "PI006 AT OR ABOVE 3900 SPEED 210"
                    }
                },
                {
                    "name": "SELIC",
                    "fixes": {
                        "SELIC": "SELIC",
                        "CIGEP": "CIGEP AT OR ABOVE 4200"
                    }
                }
            ]
        },
        {
            "name": "RNAV04L",
            "fixes": {
                "GIDME": "GIDME AT OR ABOVE 2000",
                "MAKAI": "MAKAI 2000",
                "CEDRI": "OVERFLY CEDRI 383 RNW 04L TRK 042 UNTIL 500 TURN RIGHT DIRECT",
                "ALANA": "OVERFLY ALANA AT OR ABOVE 3000 HOLD AT ALANA RIGHT TURN INBOUNDCOURSE 351 LEGDIST 4 FAF MAKAI MAP CEDRI"
            },
            "transitions": [
                {
                    "name": "ALANA",
                    "fixes": {
                        "ALANA": "ALANA",
                        "FEXAN": "FEXAN AT OR ABOVE 3000"
                    }
                },
                {
                    "name": "BOOKE",
                    "fixes": {
                        "BOOKE": "BOOKE",
                        "GECKO": "GECKO AT OR ABOVE 2000"
                    }
                },
                {
                    "name": "GIDME",
                    "fixes": {
                        "GIDME": "GIDME RIGHT TURN INBOUNDCOURSE 042 ALT 2000 LEGDIST 6"
                    }
                }
            ]
        },
        {
            "name": "RNAV04RY",
            "fixes": {
                "RCHEW": "RCHEW AT OR ABOVE 2500",
                "PERLY": "PERLY 1500",
                "FALOS": "OVERFLY FALOS 382 RNW 04R TRK 042 UNTIL 413 TURN RIGHT DIRECT",
                "ALANA": "OVERFLY ALANA AT OR ABOVE 3000 HOLD AT ALANA RIGHT TURN INBOUNDCOURSE 351 LEGDIST 4 FAF PERLY MAP FALOS"
            },
            "transitions": [
                {
                    "name": "HAURY",
                    "fixes": {
                        "HAURY": "HAURY 4000 SPEED 210"
                    }
                },
                {
                    "name": "HUBAP",
                    "fixes": {
                        "HUBAP": "HUBAP 7000 SPEED 220",
                        "JOGOB": "JOGOB AT OR ABOVE 4200 SPEED 210"
                    }
                },
                {
                    "name": "JULLE",
                    "fixes": {
                        "JULLE": "JULLE",
                        "LUYEV": "LUYEV AT OR ABOVE 5000"
                    }
                },
                {
                    "name": "KEOLA",
                    "fixes": {
                        "KEOLA": "KEOLA",
                        "GECKO": "GECKO AT OR ABOVE 5000"
                    }
                }
            ]
        },
        {
            "name": "RNAV04RZ",
            "fixes": {
                "DEBRY": "DEBRY AT OR ABOVE 2500",
                "PERLY": "PERLY 1500 RNW 04R TRK 042 UNTIL 580 TURN RIGHT DIRECT",
                "ALANA": "OVERFLY ALANA AT OR ABOVE 3000 HOLD AT ALANA RIGHT TURN INBOUNDCOURSE 351 LEGDIST 4 FAF PERLY MAP RNW 04R"
            },
            "transitions": [
                {
                    "name": "ALANA",
                    "fixes": {
                        "ALANA": "ALANA 6000 SPEED 210",
                        "WORUB": "WORUB AT OR ABOVE 4500",
                        "RF001": "RF001",
                        "RF002": "RF002",
                        "RF003": "RF003",
                        "XUMWE": "XUMWE AT OR ABOVE 3200"
                    }
                },
                {
                    "name": "HAURY",
                    "fixes": {
                        "HAURY": "HAURY 4000 SPEED 210",
                        "ULAJY": "ULAJY AT OR ABOVE 3000"
                    }
                },
                {
                    "name": "HUBAP",
                    "fixes": {
                        "HUBAP": "HUBAP 7000 SPEED 220",
                        "CIXOP": "CIXOP AT OR ABOVE 6300 SPEED 210",
                        "WIKUR": "WIKUR AT OR ABOVE 5300",
                        "RF004": "RF004",
                        "RF005": "RF005",
                        "WORUB": "WORUB AT OR ABOVE 4500",
                        "RF001": "RF001",
                        "RF002": "RF002",
                        "RF003": "RF003",
                        "XUMWE": "XUMWE AT OR ABOVE 3200"
                    }
                },
                {
                    "name": "ZEPAS",
                    "fixes": {
                        "ZEPAS": "ZEPAS SPEED 210",
                        "YETUC": "YETUC AT OR ABOVE 4800",
                        "XUMWE": "XUMWE AT OR ABOVE 3200"
                    }
                }
            ]
        },
        {
            "name": "RNAV08LY",
            "fixes": {
                "SELIC": "SELIC AT OR ABOVE 3600",
                "JUNGL": "JUNGL 3100",
                "CAPVI": "CAPVI AT OR ABOVE 1940 RNW 08L TRK 079 UNTIL 413 TURN RIGHT DIRECT",
                "ALANA": "OVERFLY ALANA AT OR ABOVE 3600 HOLD AT ALANA RIGHT TURN INBOUNDCOURSE 351 ALT 3600 LEGDIST 4 FAF JUNGL MAP RNW 08L"
            },
            "transitions": [
                {
                    "name": "BOOKE",
                    "fixes": {
                        "BOOKE": "BOOKE"
                    }
                },
                {
                    "name": "GECKO",
                    "fixes": {
                        "GECKO": "GECKO"
                    }
                },
                {
                    "name": "OOKAH",
                    "fixes": {
                        "OOKAH": "OOKAH 6000 SPEED 210",
                        "PAKOE": "PAKOE AT OR ABOVE 4200"
                    }
                },
                {
                    "name": "SELIC",
                    "fixes": {
                        "SELIC": "SELIC RIGHT TURN INBOUNDCOURSE 079 ALT 3600 LEGDIST 4"
                    }
                }
            ]
        },
        {
            "name": "RNAV08LZ",
            "fixes": {
                "FGTRE": "FGTRE 2200 RNW 08L TRK 079 UNTIL 420 TURN RIGHT DIRECT",
                "ALANA": "OVERFLY ALANA AT OR ABOVE 3000 HOLD AT ALANA RIGHT TURN INBOUNDCOURSE 351 LEGDIST 4 FAF FGTRE MAP RNW 08L"
            },
            "transitions": [
                {
                    "name": "OOKAH",
                    "fixes": {
                        "OOKAH": "OOKAH 6000 SPEED 210",
                        "XUSLY": "XUSLY AT OR ABOVE 4800",
                        "RF006": "RF006",
                        "RF007": "RF007",
                        "RF008": "RF008",
                        "JIBNI": "JIBNI AT OR ABOVE 3000"
                    }
                },
                {
                    "name": "ZOBUX",
                    "fixes": {
                        "ZOBUX": "ZOBUX",
                        "SELIC": "SELIC AT OR ABOVE 5000 SPEED 210",
                        "MAKOA": "MAKOA AT OR ABOVE 3100"
                    }
                }
            ]
        },
        {
            "name": "RNAV08R",
            "fixes": {
                "KITKE": "KITKE AT OR ABOVE 3100",
                "COLIS": "COLIS 3100",
                "HUXOR": "HUXOR AT OR ABOVE 2000",
                "EVEVE": "EVEVE AT OR ABOVE 700 RNW 08R TRK 079 UNTIL 500 TURN RIGHT DIRECT",
                "ALANA": "OVERFLY ALANA AT OR ABOVE 3100 HOLD AT ALANA RIGHT TURN INBOUNDCOURSE 351 ALT 3100 LEGDIST 4 FAF COLIS MAP RNW 08R"
            },
            "transitions": [
                {
                    "name": "ALANA",
                    "fixes": {
                        "ALANA": "ALANA",
                        "PENRE": "PENRE AT OR ABOVE 3100"
                    }
                },
                {
                    "name": "BOOKE",
                    "fixes": {
                        "BOOKE": "BOOKE",
                        "HADIG": "HADIG AT OR ABOVE 3100"
                    }
                },
                {
                    "name": "GECKO",
                    "fixes": {
                        "GECKO": "GECKO"
                    }
                }
            ]
        },
        {
            "name": "RNAV26L",
            "fixes": {
                "SECIL": "SECIL AT OR ABOVE 3000",
                "KUHIO": "KUHIO 2000",
                "IBICU": "IBICU",
                "NALII": "NALII RNW 26L",
                "KABTE": "KABTE",
                "RF009": "RF009",
                "RF010": "RF010",
                "RF011": "RF011",
                "RF012": "RF012",
                "LAYIG": "LAYIG",
                "ALANA": "OVERFLY ALANA AT OR ABOVE 3000 HOLD AT ALANA RIGHT TURN INBOUNDCOURSE 351 LEGDIST 4 FAF KUHIO MAP RNW 26L"
            },
            "transitions": [
                {
                    "name": "SAKKI",
                    "fixes": {
                        "SAKKI": "SAKKI AT OR BELOW 10000"
                    }
                }
            ]
        },
        {
            "name": "VOR04R",
            "fixes": {
                "KEOKI": "KEOKI AT OR ABOVE 3000",
                "DANIE": "DANIE 1500",
                "OBGUE": "OBGUE 363 RNW 04R TRK 018 UNTIL 520 TURN RIGHT HDG 201 INTERCEPT RADIAL 171 TO",
                "ALANA": "ALANA ALANA AT OR ABOVE 3000 HOLD AT ALANA RIGHT TURN INBOUNDCOURSE 351 LEGTIME 1 FAF DANIE MAP OBGUE"
            },
            "transitions": [
                {
                    "name": "ALANA",
                    "fixes": {
                        "ALANA": "ALANA AT OR ABOVE 3000 TRK 283 UNTIL 6.4 FROM ALANA"
                    }
                },
                {
                    "name": "HNL",
                    "fixes": {
                        "HNL": "HNL",
                        "DANIE": "DANIE AT OR ABOVE 4000",
                        "PI007": "PI007 AT OR ABOVE 3000 SPEED 210",
                        "PI008": "OVERFLY PI008 AT OR ABOVE 3000 SPEED 210",
                        "PI009": "PI009 AT OR ABOVE 3000 SPEED 210"
                    }
                },
                {
                    "name": "WUKUL",
                    "fixes": {
                        "WUKUL": "WUKUL",
                        "AF012": "AF012",
                        "AF013": "AF013",
                        "AF014": "AF014",
                        "D198N": "D198N AT OR ABOVE 3000"
                    }
                }
            ]
        },
        {
            "name": "VOR04R",
            "fixes": {
                "KEOKI": "KEOKI AT OR ABOVE 3000",
                "DANIE": "DANIE 1500",
                "OBGUE": "OBGUE 363 RNW 04R TRK 018 UNTIL 520 TURN RIGHT HDG 201 INTERCEPT RADIAL 171 TO",
                "ALANA": "ALANA ALANA AT OR ABOVE 3000 HOLD AT ALANA RIGHT TURN INBOUNDCOURSE 351 LEGTIME 1 FAF DANIE MAP OBGUE"
            },
            "transitions": [
                {
                    "name": "ALANA",
                    "fixes": {
                        "ALANA": "ALANA AT OR ABOVE 3000 TRK 283 UNTIL 6.4 FROM ALANA"
                    }
                },
                {
                    "name": "HNL",
                    "fixes": {
                        "HNL": "HNL",
                        "DANIE": "DANIE AT OR ABOVE 4000",
                        "PI007": "PI007 AT OR ABOVE 3000 SPEED 210",
                        "PI008": "OVERFLY PI008 AT OR ABOVE 3000 SPEED 210",
                        "PI009": "PI009 AT OR ABOVE 3000 SPEED 210"
                    }
                },
                {
                    "name": "WUKUL",
                    "fixes": {
                        "WUKUL": "WUKUL",
                        "AF012": "AF012",
                        "AF013": "AF013",
                        "AF014": "AF014",
                        "D198N": "D198N AT OR ABOVE 3000"
                    }
                }
            ]
        },
        {
            "name": "VORA04",
            "fixes": {
                "LEHUA": "LEHUA AT OR ABOVE 3000",
                "DYDRA": "DYDRA 1500",
                "HNL": "HNL 1400 RNW 04 TRK 305 UNTIL 1400 TURN LEFT DIRECT",
                "ALANA": "ALANA AT OR ABOVE 3000 HOLD AT ALANA RIGHT TURN INBOUNDCOURSE 351 LEGTIME 1 FAF DYDRA MAP HNL"
            },
            "transitions": [
                {
                    "name": "CKH",
                    "fixes": {
                        "CKH": "CKH"
                    }
                },
                {
                    "name": "HAUNA",
                    "fixes": {
                        "HAUNA": "HAUNA"
                    }
                },
                {
                    "name": "LEHUA",
                    "fixes": {
                        "LEHUA": "LEHUA RIGHT TURN INBOUNDCOURSE 305 ALT 3000 LEGTIME 1"
                    }
                }
            ]
        },
        {
            "name": "VORB04",
            "fixes": {
                "SUPPO": "SUPPO AT OR ABOVE 3000",
                "SUSRY": "SUSRY 1500",
                "MAVGD": "MAVGD 1400 RNW 04 TRK 037 UNTIL 1400 TURN RIGHT DIRECT",
                "ALANA": "ALANA AT OR ABOVE 3000 HOLD AT ALANA RIGHT TURN INBOUNDCOURSE 351 LEGTIME 1 FAF SUSRY MAP MAVGD"
            },
            "transitions": [
                {
                    "name": "ALANA",
                    "fixes": {
                        "ALANA": "ALANA"
                    }
                },
                {
                    "name": "HNL",
                    "fixes": {
                        "HNL": "HNL",
                        "SUSRY": "SUSRY AT OR ABOVE 4000",
                        "PI010": "PI010 AT OR ABOVE 3000 SPEED 210",
                        "PI011": "OVERFLY PI011 AT OR ABOVE 3000 SPEED 210",
                        "PI012": "PI012 AT OR ABOVE 3000 SPEED 210"
                    }
                }
            ]
        },
        {
            "name": "VOR04LA",
            "fixes": {
                "LEHUA": "LEHUA AT OR ABOVE 3000",
                "DYDRA": "DYDRA 1500",
                "HNL": "HNL 1400 RNW 04L TRK 305 UNTIL 1400 TURN LEFT DIRECT",
                "ALANA": "ALANA AT OR ABOVE 3000 HOLD AT ALANA RIGHT TURN INBOUNDCOURSE 351 LEGTIME 1 FAF DYDRA MAP HNL"
            },
            "transitions": [
                {
                    "name": "CKH",
                    "fixes": {
                        "CKH": "CKH"
                    }
                },
                {
                    "name": "HAUNA",
                    "fixes": {
                        "HAUNA": "HAUNA"
                    }
                },
                {
                    "name": "LEHUA",
                    "fixes": {
                        "LEHUA": "LEHUA RIGHT TURN INBOUNDCOURSE 305 ALT 3000 LEGTIME 1"
                    }
                }
            ]
        },
        {
            "name": "VOR04LB",
            "fixes": {
                "SUPPO": "SUPPO AT OR ABOVE 3000",
                "SUSRY": "SUSRY 1500",
                "MAVGD": "MAVGD 1400 RNW 04L TRK 037 UNTIL 1400 TURN RIGHT DIRECT",
                "ALANA": "ALANA AT OR ABOVE 3000 HOLD AT ALANA RIGHT TURN INBOUNDCOURSE 351 LEGTIME 1 FAF SUSRY MAP MAVGD"
            },
            "transitions": [
                {
                    "name": "ALANA",
                    "fixes": {
                        "ALANA": "ALANA"
                    }
                },
                {
                    "name": "HNL",
                    "fixes": {
                        "HNL": "HNL",
                        "SUSRY": "SUSRY AT OR ABOVE 4000",
                        "PI010": "PI010 AT OR ABOVE 3000 SPEED 210",
                        "PI011": "OVERFLY PI011 AT OR ABOVE 3000 SPEED 210",
                        "PI012": "PI012 AT OR ABOVE 3000 SPEED 210"
                    }
                }
            ]
        },
        {
            "name": "VOR04RA",
            "fixes": {
                "LEHUA": "LEHUA AT OR ABOVE 3000",
                "DYDRA": "DYDRA 1500",
                "HNL": "HNL 1400 RNW 04R TRK 305 UNTIL 1400 TURN LEFT DIRECT",
                "ALANA": "ALANA AT OR ABOVE 3000 HOLD AT ALANA RIGHT TURN INBOUNDCOURSE 351 LEGTIME 1 FAF DYDRA MAP HNL"
            },
            "transitions": [
                {
                    "name": "CKH",
                    "fixes": {
                        "CKH": "CKH"
                    }
                },
                {
                    "name": "HAUNA",
                    "fixes": {
                        "HAUNA": "HAUNA"
                    }
                },
                {
                    "name": "LEHUA",
                    "fixes": {
                        "LEHUA": "LEHUA RIGHT TURN INBOUNDCOURSE 305 ALT 3000 LEGTIME 1"
                    }
                }
            ]
        },
        {
            "name": "VOR04RB",
            "fixes": {
                "SUPPO": "SUPPO AT OR ABOVE 3000",
                "SUSRY": "SUSRY 1500",
                "MAVGD": "MAVGD 1400 RNW 04R TRK 037 UNTIL 1400 TURN RIGHT DIRECT",
                "ALANA": "ALANA AT OR ABOVE 3000 HOLD AT ALANA RIGHT TURN INBOUNDCOURSE 351 LEGTIME 1 FAF SUSRY MAP MAVGD"
            },
            "transitions": [
                {
                    "name": "ALANA",
                    "fixes": {
                        "ALANA": "ALANA"
                    }
                },
                {
                    "name": "HNL",
                    "fixes": {
                        "HNL": "HNL",
                        "SUSRY": "SUSRY AT OR ABOVE 4000",
                        "PI010": "PI010 AT OR ABOVE 3000 SPEED 210",
                        "PI011": "OVERFLY PI011 AT OR ABOVE 3000 SPEED 210",
                        "PI012": "PI012 AT OR ABOVE 3000 SPEED 210"
                    }
                }
            ]
        },
        {
            "name": "VORA08",
            "fixes": {
                "LEHUA": "LEHUA AT OR ABOVE 3000",
                "DYDRA": "DYDRA 1500",
                "HNL": "HNL 1400 RNW 08 TRK 305 UNTIL 1400 TURN LEFT DIRECT",
                "ALANA": "ALANA AT OR ABOVE 3000 HOLD AT ALANA RIGHT TURN INBOUNDCOURSE 351 LEGTIME 1 FAF DYDRA MAP HNL"
            },
            "transitions": [
                {
                    "name": "CKH",
                    "fixes": {
                        "CKH": "CKH"
                    }
                },
                {
                    "name": "HAUNA",
                    "fixes": {
                        "HAUNA": "HAUNA"
                    }
                },
                {
                    "name": "LEHUA",
                    "fixes": {
                        "LEHUA": "LEHUA RIGHT TURN INBOUNDCOURSE 305 ALT 3000 LEGTIME 1"
                    }
                }
            ]
        },
        {
            "name": "VORB08",
            "fixes": {
                "SUPPO": "SUPPO AT OR ABOVE 3000",
                "SUSRY": "SUSRY 1500",
                "MAVGD": "MAVGD 1400 RNW 08 TRK 037 UNTIL 1400 TURN RIGHT DIRECT",
                "ALANA": "ALANA AT OR ABOVE 3000 HOLD AT ALANA RIGHT TURN INBOUNDCOURSE 351 LEGTIME 1 FAF SUSRY MAP MAVGD"
            },
            "transitions": [
                {
                    "name": "ALANA",
                    "fixes": {
                        "ALANA": "ALANA"
                    }
                },
                {
                    "name": "HNL",
                    "fixes": {
                        "HNL": "HNL",
                        "SUSRY": "SUSRY AT OR ABOVE 4000",
                        "PI010": "PI010 AT OR ABOVE 3000 SPEED 210",
                        "PI011": "OVERFLY PI011 AT OR ABOVE 3000 SPEED 210",
                        "PI012": "PI012 AT OR ABOVE 3000 SPEED 210"
                    }
                }
            ]
        },
        {
            "name": "VOR08LA",
            "fixes": {
                "LEHUA": "LEHUA AT OR ABOVE 3000",
                "DYDRA": "DYDRA 1500",
                "HNL": "HNL 1400 RNW 08L TRK 305 UNTIL 1400 TURN LEFT DIRECT",
                "ALANA": "ALANA AT OR ABOVE 3000 HOLD AT ALANA RIGHT TURN INBOUNDCOURSE 351 LEGTIME 1 FAF DYDRA MAP HNL"
            },
            "transitions": [
                {
                    "name": "CKH",
                    "fixes": {
                        "CKH": "CKH"
                    }
                },
                {
                    "name": "HAUNA",
                    "fixes": {
                        "HAUNA": "HAUNA"
                    }
                },
                {
                    "name": "LEHUA",
                    "fixes": {
                        "LEHUA": "LEHUA RIGHT TURN INBOUNDCOURSE 305 ALT 3000 LEGTIME 1"
                    }
                }
            ]
        },
        {
            "name": "VOR08LB",
            "fixes": {
                "SUPPO": "SUPPO AT OR ABOVE 3000",
                "SUSRY": "SUSRY 1500",
                "MAVGD": "MAVGD 1400 RNW 08L TRK 037 UNTIL 1400 TURN RIGHT DIRECT",
                "ALANA": "ALANA AT OR ABOVE 3000 HOLD AT ALANA RIGHT TURN INBOUNDCOURSE 351 LEGTIME 1 FAF SUSRY MAP MAVGD"
            },
            "transitions": [
                {
                    "name": "ALANA",
                    "fixes": {
                        "ALANA": "ALANA"
                    }
                },
                {
                    "name": "HNL",
                    "fixes": {
                        "HNL": "HNL",
                        "SUSRY": "SUSRY AT OR ABOVE 4000",
                        "PI010": "PI010 AT OR ABOVE 3000 SPEED 210",
                        "PI011": "OVERFLY PI011 AT OR ABOVE 3000 SPEED 210",
                        "PI012": "PI012 AT OR ABOVE 3000 SPEED 210"
                    }
                }
            ]
        },
        {
            "name": "VOR08RA",
            "fixes": {
                "LEHUA": "LEHUA AT OR ABOVE 3000",
                "DYDRA": "DYDRA 1500",
                "HNL": "HNL 1400 RNW 08R TRK 305 UNTIL 1400 TURN LEFT DIRECT",
                "ALANA": "ALANA AT OR ABOVE 3000 HOLD AT ALANA RIGHT TURN INBOUNDCOURSE 351 LEGTIME 1 FAF DYDRA MAP HNL"
            },
            "transitions": [
                {
                    "name": "CKH",
                    "fixes": {
                        "CKH": "CKH"
                    }
                },
                {
                    "name": "HAUNA",
                    "fixes": {
                        "HAUNA": "HAUNA"
                    }
                },
                {
                    "name": "LEHUA",
                    "fixes": {
                        "LEHUA": "LEHUA RIGHT TURN INBOUNDCOURSE 305 ALT 3000 LEGTIME 1"
                    }
                }
            ]
        },
        {
            "name": "VOR08RB",
            "fixes": {
                "SUPPO": "SUPPO AT OR ABOVE 3000",
                "SUSRY": "SUSRY 1500",
                "MAVGD": "MAVGD 1400 RNW 08R TRK 037 UNTIL 1400 TURN RIGHT DIRECT",
                "ALANA": "ALANA AT OR ABOVE 3000 HOLD AT ALANA RIGHT TURN INBOUNDCOURSE 351 LEGTIME 1 FAF SUSRY MAP MAVGD"
            },
            "transitions": [
                {
                    "name": "ALANA",
                    "fixes": {
                        "ALANA": "ALANA"
                    }
                },
                {
                    "name": "HNL",
                    "fixes": {
                        "HNL": "HNL",
                        "SUSRY": "SUSRY AT OR ABOVE 4000",
                        "PI010": "PI010 AT OR ABOVE 3000 SPEED 210",
                        "PI011": "OVERFLY PI011 AT OR ABOVE 3000 SPEED 210",
                        "PI012": "PI012 AT OR ABOVE 3000 SPEED 210"
                    }
                }
            ]
        },
        {
            "name": "VORA22",
            "fixes": {
                "LEHUA": "LEHUA AT OR ABOVE 3000",
                "DYDRA": "DYDRA 1500",
                "HNL": "HNL 1400 RNW 22 TRK 305 UNTIL 1400 TURN LEFT DIRECT",
                "ALANA": "ALANA AT OR ABOVE 3000 HOLD AT ALANA RIGHT TURN INBOUNDCOURSE 351 LEGTIME 1 FAF DYDRA MAP HNL"
            },
            "transitions": [
                {
                    "name": "CKH",
                    "fixes": {
                        "CKH": "CKH"
                    }
                },
                {
                    "name": "HAUNA",
                    "fixes": {
                        "HAUNA": "HAUNA"
                    }
                },
                {
                    "name": "LEHUA",
                    "fixes": {
                        "LEHUA": "LEHUA RIGHT TURN INBOUNDCOURSE 305 ALT 3000 LEGTIME 1"
                    }
                }
            ]
        },
        {
            "name": "VORB22",
            "fixes": {
                "SUPPO": "SUPPO AT OR ABOVE 3000",
                "SUSRY": "SUSRY 1500",
                "MAVGD": "MAVGD 1400 RNW 22 TRK 037 UNTIL 1400 TURN RIGHT DIRECT",
                "ALANA": "ALANA AT OR ABOVE 3000 HOLD AT ALANA RIGHT TURN INBOUNDCOURSE 351 LEGTIME 1 FAF SUSRY MAP MAVGD"
            },
            "transitions": [
                {
                    "name": "ALANA",
                    "fixes": {
                        "ALANA": "ALANA"
                    }
                },
                {
                    "name": "HNL",
                    "fixes": {
                        "HNL": "HNL",
                        "SUSRY": "SUSRY AT OR ABOVE 4000",
                        "PI010": "PI010 AT OR ABOVE 3000 SPEED 210",
                        "PI011": "OVERFLY PI011 AT OR ABOVE 3000 SPEED 210",
                        "PI012": "PI012 AT OR ABOVE 3000 SPEED 210"
                    }
                }
            ]
        },
        {
            "name": "VOR22LA",
            "fixes": {
                "LEHUA": "LEHUA AT OR ABOVE 3000",
                "DYDRA": "DYDRA 1500",
                "HNL": "HNL 1400 RNW 22L TRK 305 UNTIL 1400 TURN LEFT DIRECT",
                "ALANA": "ALANA AT OR ABOVE 3000 HOLD AT ALANA RIGHT TURN INBOUNDCOURSE 351 LEGTIME 1 FAF DYDRA MAP HNL"
            },
            "transitions": [
                {
                    "name": "CKH",
                    "fixes": {
                        "CKH": "CKH"
                    }
                },
                {
                    "name": "HAUNA",
                    "fixes": {
                        "HAUNA": "HAUNA"
                    }
                },
                {
                    "name": "LEHUA",
                    "fixes": {
                        "LEHUA": "LEHUA RIGHT TURN INBOUNDCOURSE 305 ALT 3000 LEGTIME 1"
                    }
                }
            ]
        },
        {
            "name": "VOR22LB",
            "fixes": {
                "SUPPO": "SUPPO AT OR ABOVE 3000",
                "SUSRY": "SUSRY 1500",
                "MAVGD": "MAVGD 1400 RNW 22L TRK 037 UNTIL 1400 TURN RIGHT DIRECT",
                "ALANA": "ALANA AT OR ABOVE 3000 HOLD AT ALANA RIGHT TURN INBOUNDCOURSE 351 LEGTIME 1 FAF SUSRY MAP MAVGD"
            },
            "transitions": [
                {
                    "name": "ALANA",
                    "fixes": {
                        "ALANA": "ALANA"
                    }
                },
                {
                    "name": "HNL",
                    "fixes": {
                        "HNL": "HNL",
                        "SUSRY": "SUSRY AT OR ABOVE 4000",
                        "PI010": "PI010 AT OR ABOVE 3000 SPEED 210",
                        "PI011": "OVERFLY PI011 AT OR ABOVE 3000 SPEED 210",
                        "PI012": "PI012 AT OR ABOVE 3000 SPEED 210"
                    }
                }
            ]
        },
        {
            "name": "VOR22RA",
            "fixes": {
                "LEHUA": "LEHUA AT OR ABOVE 3000",
                "DYDRA": "DYDRA 1500",
                "HNL": "HNL 1400 RNW 22R TRK 305 UNTIL 1400 TURN LEFT DIRECT",
                "ALANA": "ALANA AT OR ABOVE 3000 HOLD AT ALANA RIGHT TURN INBOUNDCOURSE 351 LEGTIME 1 FAF DYDRA MAP HNL"
            },
            "transitions": [
                {
                    "name": "CKH",
                    "fixes": {
                        "CKH": "CKH"
                    }
                },
                {
                    "name": "HAUNA",
                    "fixes": {
                        "HAUNA": "HAUNA"
                    }
                },
                {
                    "name": "LEHUA",
                    "fixes": {
                        "LEHUA": "LEHUA RIGHT TURN INBOUNDCOURSE 305 ALT 3000 LEGTIME 1"
                    }
                }
            ]
        },
        {
            "name": "VOR22RB",
            "fixes": {
                "SUPPO": "SUPPO AT OR ABOVE 3000",
                "SUSRY": "SUSRY 1500",
                "MAVGD": "MAVGD 1400 RNW 22R TRK 037 UNTIL 1400 TURN RIGHT DIRECT",
                "ALANA": "ALANA AT OR ABOVE 3000 HOLD AT ALANA RIGHT TURN INBOUNDCOURSE 351 LEGTIME 1 FAF SUSRY MAP MAVGD"
            },
            "transitions": [
                {
                    "name": "ALANA",
                    "fixes": {
                        "ALANA": "ALANA"
                    }
                },
                {
                    "name": "HNL",
                    "fixes": {
                        "HNL": "HNL",
                        "SUSRY": "SUSRY AT OR ABOVE 4000",
                        "PI010": "PI010 AT OR ABOVE 3000 SPEED 210",
                        "PI011": "OVERFLY PI011 AT OR ABOVE 3000 SPEED 210",
                        "PI012": "PI012 AT OR ABOVE 3000 SPEED 210"
                    }
                }
            ]
        },
        {
            "name": "VORA26",
            "fixes": {
                "LEHUA": "LEHUA AT OR ABOVE 3000",
                "DYDRA": "DYDRA 1500",
                "HNL": "HNL 1400 RNW 26 TRK 305 UNTIL 1400 TURN LEFT DIRECT",
                "ALANA": "ALANA AT OR ABOVE 3000 HOLD AT ALANA RIGHT TURN INBOUNDCOURSE 351 LEGTIME 1 FAF DYDRA MAP HNL"
            },
            "transitions": [
                {
                    "name": "CKH",
                    "fixes": {
                        "CKH": "CKH"
                    }
                },
                {
                    "name": "HAUNA",
                    "fixes": {
                        "HAUNA": "HAUNA"
                    }
                },
                {
                    "name": "LEHUA",
                    "fixes": {
                        "LEHUA": "LEHUA RIGHT TURN INBOUNDCOURSE 305 ALT 3000 LEGTIME 1"
                    }
                }
            ]
        },
        {
            "name": "VORB26",
            "fixes": {
                "SUPPO": "SUPPO AT OR ABOVE 3000",
                "SUSRY": "SUSRY 1500",
                "MAVGD": "MAVGD 1400 RNW 26 TRK 037 UNTIL 1400 TURN RIGHT DIRECT",
                "ALANA": "ALANA AT OR ABOVE 3000 HOLD AT ALANA RIGHT TURN INBOUNDCOURSE 351 LEGTIME 1 FAF SUSRY MAP MAVGD"
            },
            "transitions": [
                {
                    "name": "ALANA",
                    "fixes": {
                        "ALANA": "ALANA"
                    }
                },
                {
                    "name": "HNL",
                    "fixes": {
                        "HNL": "HNL",
                        "SUSRY": "SUSRY AT OR ABOVE 4000",
                        "PI010": "PI010 AT OR ABOVE 3000 SPEED 210",
                        "PI011": "OVERFLY PI011 AT OR ABOVE 3000 SPEED 210",
                        "PI012": "PI012 AT OR ABOVE 3000 SPEED 210"
                    }
                }
            ]
        },
        {
            "name": "VOR26LA",
            "fixes": {
                "LEHUA": "LEHUA AT OR ABOVE 3000",
                "DYDRA": "DYDRA 1500",
                "HNL": "HNL 1400 RNW 26L TRK 305 UNTIL 1400 TURN LEFT DIRECT",
                "ALANA": "ALANA AT OR ABOVE 3000 HOLD AT ALANA RIGHT TURN INBOUNDCOURSE 351 LEGTIME 1 FAF DYDRA MAP HNL"
            },
            "transitions": [
                {
                    "name": "CKH",
                    "fixes": {
                        "CKH": "CKH"
                    }
                },
                {
                    "name": "HAUNA",
                    "fixes": {
                        "HAUNA": "HAUNA"
                    }
                },
                {
                    "name": "LEHUA",
                    "fixes": {
                        "LEHUA": "LEHUA RIGHT TURN INBOUNDCOURSE 305 ALT 3000 LEGTIME 1"
                    }
                }
            ]
        },
        {
            "name": "VOR26LB",
            "fixes": {
                "SUPPO": "SUPPO AT OR ABOVE 3000",
                "SUSRY": "SUSRY 1500",
                "MAVGD": "MAVGD 1400 RNW 26L TRK 037 UNTIL 1400 TURN RIGHT DIRECT",
                "ALANA": "ALANA AT OR ABOVE 3000 HOLD AT ALANA RIGHT TURN INBOUNDCOURSE 351 LEGTIME 1 FAF SUSRY MAP MAVGD"
            },
            "transitions": [
                {
                    "name": "ALANA",
                    "fixes": {
                        "ALANA": "ALANA"
                    }
                },
                {
                    "name": "HNL",
                    "fixes": {
                        "HNL": "HNL",
                        "SUSRY": "SUSRY AT OR ABOVE 4000",
                        "PI010": "PI010 AT OR ABOVE 3000 SPEED 210",
                        "PI011": "OVERFLY PI011 AT OR ABOVE 3000 SPEED 210",
                        "PI012": "PI012 AT OR ABOVE 3000 SPEED 210"
                    }
                }
            ]
        },
        {
            "name": "VOR26RA",
            "fixes": {
                "LEHUA": "LEHUA AT OR ABOVE 3000",
                "DYDRA": "DYDRA 1500",
                "HNL": "HNL 1400 RNW 26R TRK 305 UNTIL 1400 TURN LEFT DIRECT",
                "ALANA": "ALANA AT OR ABOVE 3000 HOLD AT ALANA RIGHT TURN INBOUNDCOURSE 351 LEGTIME 1 FAF DYDRA MAP HNL"
            },
            "transitions": [
                {
                    "name": "CKH",
                    "fixes": {
                        "CKH": "CKH"
                    }
                },
                {
                    "name": "HAUNA",
                    "fixes": {
                        "HAUNA": "HAUNA"
                    }
                },
                {
                    "name": "LEHUA",
                    "fixes": {
                        "LEHUA": "LEHUA RIGHT TURN INBOUNDCOURSE 305 ALT 3000 LEGTIME 1"
                    }
                }
            ]
        },
        {
            "name": "VOR26RB",
            "fixes": {
                "SUPPO": "SUPPO AT OR ABOVE 3000",
                "SUSRY": "SUSRY 1500",
                "MAVGD": "MAVGD 1400 RNW 26R TRK 037 UNTIL 1400 TURN RIGHT DIRECT",
                "ALANA": "ALANA AT OR ABOVE 3000 HOLD AT ALANA RIGHT TURN INBOUNDCOURSE 351 LEGTIME 1 FAF SUSRY MAP MAVGD"
            },
            "transitions": [
                {
                    "name": "ALANA",
                    "fixes": {
                        "ALANA": "ALANA"
                    }
                },
                {
                    "name": "HNL",
                    "fixes": {
                        "HNL": "HNL",
                        "SUSRY": "SUSRY AT OR ABOVE 4000",
                        "PI010": "PI010 AT OR ABOVE 3000 SPEED 210",
                        "PI011": "OVERFLY PI011 AT OR ABOVE 3000 SPEED 210",
                        "PI012": "PI012 AT OR ABOVE 3000 SPEED 210"
                    }
                }
            ]
        },
        {
            "name": "LDA26L",
            "fixes": {
                "SECIL": "SECIL AT OR ABOVE 3000",
                "ONODE": "ONODE AT OR ABOVE 1800",
                "HEFTL": "HEFTL 1400",
                "YUYXE": "YUYXE 682 RNW 26L TRK 304 UNTIL 682 TURN LEFT DIRECT",
                "ALANA": "ALANA AT OR ABOVE 3000 HOLD AT ALANA RIGHT TURN INBOUNDCOURSE 351 LEGTIME 1 FAF HEFTL MAP YUYXE"
            },
            "transitions": [
                {
                    "name": "CUDEK",
                    "fixes": {
                        "CUDEK": "CUDEK 6000 SPEED 210"
                    }
                },
                {
                    "name": "NBODY",
                    "fixes": {
                        "NBODY": "NBODY 6000 SPEED 210",
                        "BISPE": "BISPE AT OR ABOVE 4500"
                    }
                },
                {
                    "name": "SAKKI",
                    "fixes": {
                        "SAKKI": "SAKKI",
                        "JOLIP": "JOLIP AT OR ABOVE 4000"
                    }
                },
                {
                    "name": "SHLAE",
                    "fixes": {
                        "SHLAE": "SHLAE 4000 SPEED 210"
                    }
                }
            ]
        }
    ]
}