{
    "fixes": [
        {
            "name": "AARES",
            "lat": 20.998611116666666,
            "lon": 157.095
        },
        {
            "name": "APACK",
            "lat": 24.043702783333334,
            "lon": 156.31954166666668
        },
        {
            "name": "BARBY",
            "lat": 20.860986116666666,
            "lon": 155.97984443333334
        },
        {
            "name": "BEACH",
            "lat": 20.683058333333335,
            "lon": 156.53672221666667
        },
        {
            "name": "BIKDE",
            "lat": 20.943297216666668,
            "lon": 156.396
        },
        {
            "name": "BIKUZ",
            "lat": 22.73,
            "lon": 155.70083333333332
        },
        {
            "name": "BITTA",
            "lat": 23.528030566666665,
            "lon": 155.47883611666666
        },
        {
            "name": "CAMPS",
            "lat": 20.665261116666667,
            "lon": 156.60260833333334
        },
        {
            "name": "CELIU",
            "lat": 21.103525,
            "lon": 156.32301943333334
        },
        {
            "name": "CNALI",
            "lat": 20.41873611666667,
            "lon": 154.87146943333335
        },
        {
            "name": "CORBU",
            "lat": 20.700747216666667,
            "lon": 156.48326666666668
        },
        {
            "name": "DEKUM",
            "lat": 21.952222216666666,
            "lon": 154.5975
        },
        {
            "name": "DENNS",
            "lat": 22.3634,
            "lon": 153.88058333333333
        },
        {
            "name": "FEKIK",
            "lat": 20.966319433333332,
            "lon": 154.35659166666667
        },
        {
            "name": "FITES",
            "lat": 20.794555566666666,
            "lon": 153.00063333333333
        },
        {
            "name": "FOGOL",
            "lat": 21.062869433333333,
            "lon": 156.27080556666667
        },
        {
            "name": "FOSLU",
            "lat": 21.101663883333334,
            "lon": 156.45168888333333
        },
        {
            "name": "FS20",
            "lat": 21.000658333333334,
            "lon": 156.374175
        },
        {
            "name": "GREHG",
            "lat": 20.607233333333333,
            "lon": 156.50795833333333
        },
        {
            "name": "HARPO",
            "lat": 20.641486116666666,
            "lon": 156.51535556666667
        },
        {
            "name": "HEDAT",
            "lat": 20.943819433333335,
            "lon": 156.33231666666666
        },
        {
            "name": "HIAKA",
            "lat": 20.935744433333333,
            "lon": 156.40162778333334
        },
        {
            "name": "HOMAI",
            "lat": 20.892313883333333,
            "lon": 156.33985278333333
        },
        {
            "name": "HUKLA",
            "lat": 20.907661116666667,
            "lon": 156.42253333333332
        },
        {
            "name": "IMEBE",
            "lat": 20.928516666666667,
            "lon": 156.36735278333333
        },
        {
            "name": "ISSNO",
            "lat": 21.06,
            "lon": 156.72833333333332
        },
        {
            "name": "JINAS",
            "lat": 20.837308333333333,
            "lon": 156.47488056666666
        },
        {
            "name": "JNKOH",
            "lat": 20.883586116666667,
            "lon": 156.19083056666668
        },
        {
            "name": "JOLIU",
            "lat": 21.161194433333332,
            "lon": 155.17283333333333
        },
        {
            "name": "JOPOB",
            "lat": 20.810205566666667,
            "lon": 156.49502778333334
        },
        {
            "name": "JUBEG",
            "lat": 20.763352783333332,
            "lon": 156.43523056666666
        },
        {
            "name": "JUDEZ",
            "lat": 20.97519721666667,
            "lon": 156.37222221666667
        },
        {
            "name": "KAGGA",
            "lat": 20.591552783333334,
            "lon": 154.87715833333334
        },
        {
            "name": "KAWLA",
            "lat": 20.855636116666666,
            "lon": 156.36789166666668
        },
        {
            "name": "KEIKI",
            "lat": 20.685869433333334,
            "lon": 156.67840556666667
        },
        {
            "name": "KIHEI",
            "lat": 20.770158333333335,
            "lon": 156.47628056666667
        },
        {
            "name": "KOA",
            "lat": 19.717238883333334,
            "lon": 156.04491943333332
        },
        {
            "name": "KRANE",
            "lat": 21.085677783333335,
            "lon": 156.28983333333332
        },
        {
            "name": "LAVAS",
            "lat": 20.490569433333334,
            "lon": 156.41926388333334
        },
        {
            "name": "LNDHY",
            "lat": 21.173611116666667,
            "lon": 156.125
        },
        {
            "name": "LNY",
            "lat": 20.764499999999998,
            "lon": 156.96888888333334
        },
        {
            "name": "MAKEN",
            "lat": 20.57895,
            "lon": 156.41962778333334
        },
        {
            "name": "MIKEY",
            "lat": 20.981663883333333,
            "lon": 156.38361666666665
        },
        {
            "name": "MOBRE",
            "lat": 20.987005566666667,
            "lon": 156.23330556666667
        },
        {
            "name": "MUNJU",
            "lat": 21.023333333333333,
            "lon": 156.24058611666666
        },
        {
            "name": "MYNAH",
            "lat": 19.81188888333333,
            "lon": 156.08585556666668
        },
        {
            "name": "NDREW",
            "lat": 20.529633333333333,
            "lon": 156.55215556666667
        },
        {
            "name": "OGG",
            "lat": 20.906472216666668,
            "lon": 156.42095
        },
        {
            "name": "ONOHI",
            "lat": 20.864108333333334,
            "lon": 156.00976388333333
        },
        {
            "name": "OPANA",
            "lat": 20.944080566666667,
            "lon": 156.19298611666667
        },
        {
            "name": "PHOG",
            "lat": 20.89865,
            "lon": 156.43045833333332
        },
        {
            "name": "PI001",
            "lat": 21.034529816666666,
            "lon": 156.35720391666666
        },
        {
            "name": "PI002",
            "lat": 21.101872433333334,
            "lon": 156.38347718333333
        },
        {
            "name": "PI003",
            "lat": 21.132698533333333,
            "lon": 156.30810183333332
        },
        {
            "name": "PI004",
            "lat": 20.714083883333334,
            "lon": 156.49347061666666
        },
        {
            "name": "PI005",
            "lat": 20.679326233333335,
            "lon": 156.56046825
        },
        {
            "name": "PI006",
            "lat": 20.609941083333332,
            "lon": 156.5253613
        },
        {
            "name": "PI007",
            "lat": 20.95933815,
            "lon": 156.39455053333333
        },
        {
            "name": "PI008",
            "lat": 21.026680783333333,
            "lon": 156.42081053333334
        },
        {
            "name": "PI009",
            "lat": 21.057506916666668,
            "lon": 156.34547338333334
        },
        {
            "name": "PLUMB",
            "lat": 21.21175,
            "lon": 156.60148611666668
        },
        {
            "name": "POCGI",
            "lat": 21.000658333333334,
            "lon": 156.19838056666666
        },
        {
            "name": "PUHEE",
            "lat": 20.793630566666668,
            "lon": 156.46845556666668
        },
        {
            "name": "PULPS",
            "lat": 20.472161116666665,
            "lon": 155.89929443333332
        },
        {
            "name": "RABAT",
            "lat": 20.813238883333334,
            "lon": 155.52824721666667
        },
        {
            "name": "RF001",
            "lat": 20.796155116666668,
            "lon": 156.41897548333333
        },
        {
            "name": "RF002",
            "lat": 20.792451233333335,
            "lon": 156.44145085
        },
        {
            "name": "ROSAH",
            "lat": 20.963155566666668,
            "lon": 156.38121111666666
        },
        {
            "name": "ROXZZ",
            "lat": 21.083333333333332,
            "lon": 156.55
        },
        {
            "name": "SABAE",
            "lat": 20.788963883333334,
            "lon": 156.51081666666667
        },
        {
            "name": "SAKKI",
            "lat": 20.931752783333334,
            "lon": 157.48834166666666
        },
        {
            "name": "SARDS",
            "lat": 20.539983333333332,
            "lon": 155.70501111666667
        },
        {
            "name": "SCOON",
            "lat": 20.256305566666665,
            "lon": 152.23661111666667
        },
        {
            "name": "SWEEP",
            "lat": 20.975072216666668,
            "lon": 156.00355833333333
        },
        {
            "name": "TAAKA",
            "lat": 20.712258333333335,
            "lon": 156.49024166666666
        },
        {
            "name": "TEBBS",
            "lat": 20.790791666666667,
            "lon": 156.50945833333333
        },
        {
            "name": "ULUAA",
            "lat": 21.096625,
            "lon": 156.53328888333334
        },
        {
            "name": "UNADY",
            "lat": 22.776111116666666,
            "lon": 156.2325
        },
        {
            "name": "UPP",
            "lat": 20.200541666666666,
            "lon": 155.84326666666666
        },
        {
            "name": "VYINB",
            "lat": 20.880861116666665,
            "lon": 156.44259721666666
        },
        {
            "name": "WASBA",
            "lat": 20.842455566666665,
            "lon": 156.47105278333333
        },
        {
            "name": "WEPTU",
            "lat": 21.01905,
            "lon": 156.33953888333335
        },
        {
            "name": "WIPRI",
            "lat": 20.611494433333334,
            "lon": 156.46946943333333
        },
        {
            "name": "WMAUI",
            "lat": 21.066666666666666,
            "lon": 156.49166666666667
        },
        {
            "name": "WOREK",
            "lat": 20.8003,
            "lon": 156.46372221666667
        },
        {
            "name": "WUNAT",
            "lat": 20.741808333333335,
            "lon": 156.54580278333333
        },
        {
            "name": "YEVLU",
            "lat": 20.657097216666667,
            "lon": 156.51421666666667
        },
        {
            "name": "ZETMA",
            "lat": 20.814325,
            "lon": 156.39826943333333
        },
        {
            "name": "ZIGIE",
            "lat": 24.313694433333332,
            "lon": 157.28536111666668
        },
        {
            "name": "ZORTI",
            "lat": 20.810025,
            "lon": 156.40147221666666
        },
        {
            "name": "ZOXUP",
            "lat": 20.698869433333332,
            "lon": 156.57774443333332
        },
        {
            "name": "ZULUD",
            "lat": 21.132213883333332,
            "lon": 156.42459443333334
        }
    ],
    "rnws": [
        "RNW 02",
        "RNW 05",
        "RNW 20",
        "RNW 23"
    ],
    "sids": [
        {
            "name": "BEACH4",
            "rnw": "26",
            "fixes": {},
            "sub_fixes": [
                {
                    "rwy": "RNW 02",
                    "fixes": {
                        "RNW 02": "RNW 02 HDG 024 UNTIL 1400 TURN RIGHT HDG 240 INTERCEPT RADIAL 195 TO",
                        "BEACH": "BEACH BEACH"
                    }
                },
                {
                    "rwy": "RNW 05",
                    "fixes": {
                        "RNW 05": "RNW 05 HDG 054 UNTIL 2500 TURN RIGHT HDG 240 INTERCEPT RADIAL 195 TO",
                        "BEACH": "BEACH BEACH"
                    }
                },
                {
                    "rwy": "RNW 20",
                    "fixes": {
                        "RNW 20": "RNW 20 TRK 204 UNTIL 460",
                        "BEACH": "BEACH"
                    }
                },
                {
                    "rwy": "RNW 23",
                    "fixes": {
                        "RNW 23": "RNW 23 TRK 234 UNTIL 460",
                        "BEACH": "BEACH"
                    }
                }
            ],
            "transitions": [
                {
                    "name": "HARPO",
                    "fixes": [
                        "HARPO"
                    ]
                },
                {
                    "name": "LNY",
                    "fixes": [
                        "LNY"
                    ]
                }
            ]
        },
        {
            "name": "HIAKA1",
            "rnw": "02",
            "fixes": {
                "HIAKA": "HIAKA",
                "ROSAH": "OVERFLY ROSAH AT OR ABOVE 1600 HDG 024 VECTORS"
            },
            "sub_fixes": [],
            "transitions": []
        },
        {
            "name": "MAUI5",
            "rnw": "02",
            "fixes": {},
            "sub_fixes": [
                {
                    "rwy": "RNW 02",
                    "fixes": {
                        "RNW 02": "RNW 02 HDG 024 UNTIL 460 HDG 000 VECTORS"
                    }
                },
                {
                    "rwy": "RNW 05",
                    "fixes": {
                        "RNW 05": "RNW 05 HDG 054 UNTIL 460 HDG 000 VECTORS"
                    }
                }
            ],
            "transitions": []
        },
        {
            "name": "NPLII2",
            "rnw": "02",
            "fixes": {
                "WMAUI": "WMAUI AT OR ABOVE 3200",
                "ROXZZ": "ROXZZ AT OR ABOVE 4000",
                "ISSNO": "ISSNO AT OR ABOVE 7000",
                "AARES": "AARES AT OR ABOVE 14000",
                "SAKKI": "SAKKI"
            },
            "sub_fixes": [],
            "transitions": []
        },
        {
            "name": "ONOHI2",
            "rnw": "02",
            "fixes": {},
            "sub_fixes": [
                {
                    "rwy": "RNW 02",
                    "fixes": {
                        "RNW 02": "RNW 02 HDG 024 UNTIL 2100 TURN RIGHT HDG 115 INTERCEPT RADIAL 085 TO",
                        "ONOHI": "ONOHI ONOHI AT OR ABOVE 7000"
                    }
                },
                {
                    "rwy": "RNW 05",
                    "fixes": {
                        "RNW 05": "RNW 05 TRK 054 UNTIL 460 HDG 024 UNTIL 2100 TURN RIGHT HDG 115 INTERCEPT RADIAL 085 TO",
                        "ONOHI": "ONOHI ONOHI AT OR ABOVE 7000"
                    }
                },
                {
                    "rwy": "RNW 20",
                    "fixes": {
                        "RNW 20": "RNW 20 HDG 204 UNTIL 2100 TURN LEFT DIRECT",
                        "OGG": "OGG",
                        "ONOHI": "ONOHI AT OR ABOVE 7000"
                    }
                }
            ],
            "transitions": [
                {
                    "name": "BARBY",
                    "fixes": [
                        "BARBY"
                    ]
                }
            ]
        },
        {
            "name": "PUHEE1",
            "rnw": "20",
            "fixes": {
                "PUHEE": "PUHEE",
                "TAAKA": "OVERFLY TAAKA AT OR ABOVE 2600 HDG 183 VECTORS"
            },
            "sub_fixes": [],
            "transitions": []
        },
        {
            "name": "STACY2",
            "rnw": "20",
            "fixes": {},
            "sub_fixes": [
                {
                    "rwy": "RNW 02",
                    "fixes": {
                        "RNW 02": "RNW 02 HDG 024 UNTIL 460 HDG 024 VECTORS"
                    }
                },
                {
                    "rwy": "RNW 05",
                    "fixes": {
                        "RNW 05": "RNW 05 HDG 054 UNTIL 460 HDG 054 VECTORS"
                    }
                },
                {
                    "rwy": "RNW 20",
                    "fixes": {
                        "RNW 20": "RNW 20 HDG 204 UNTIL 460 HDG 204 VECTORS"
                    }
                }
            ],
            "transitions": []
        },
        {
            "name": "SWEEP2",
            "rnw": "20",
            "fixes": {},
            "sub_fixes": [
                {
                    "rwy": "RNW 02",
                    "fixes": {
                        "RNW 02": "RNW 02 HDG 024 UNTIL 2100 HDG 095 INTERCEPT RADIAL 069 TO",
                        "SWEEP": "SWEEP SWEEP AT OR ABOVE 6000"
                    }
                },
                {
                    "rwy": "RNW 05",
                    "fixes": {
                        "RNW 05": "RNW 05 TRK 054 UNTIL 454 HDG 024 UNTIL 2100 HDG 095 INTERCEPT RADIAL 069 TO",
                        "SWEEP": "SWEEP SWEEP AT OR ABOVE 6000"
                    }
                },
                {
                    "rwy": "RNW 20",
                    "fixes": {
                        "RNW 20": "RNW 20 HDG 204 UNTIL 2100 TURN LEFT DIRECT",
                        "OGG": "OGG AT OR ABOVE 6000",
                        "SWEEP": "SWEEP"
                    }
                }
            ],
            "transitions": []
        }
    ],
    "stars": [
        {
            "name": "CAMPS3",
            "runway": "RNW 02 RNW 05 RNW 20 RNW 23",
            "fixes": {
                "CAMPS": "CAMPS"
            }
        },
        {
            "name": "LAVAS1",
            "runway": "RNW 02 RNW 05 RNW 20 RNW 23",
            "fixes": {
                "LAVAS": "LAVAS AT OR ABOVE 8000 SPEED 250",
                "GREHG": "OVERFLY GREHG 6000 HDG 313 VECTORS"
            }
        },
        {
            "name": "LNDHY1",
            "runway": "RNW 02 RNW 05 RNW 20 RNW 23",
            "fixes": {
                "LNDHY": "LNDHY AT OR ABOVE 9000 SPEED 250",
                "MUNJU": "MUNJU AT OR ABOVE 7000 SPEED 220",
                "HOMAI": "OVERFLY HOMAI 5000 SPEED 210 TRK 204 VECTORS"
            }
        }
    ],
    "approaches": [
        {
            "name": "VORDZ20",
            "fixes": {
                "CELIU": "CELIU AT OR ABOVE 3000",
                "MIKEY": "MIKEY 1700",
                "OGG": "OGG 123 RNW 20 TRK 194 UNTIL 560",
                "HARPO": "HARPO AT OR ABOVE 5000",
                "KEIKI": "KEIKI HOLD AT KEIKI RIGHT TURN INBOUNDCOURSE 095 LEGTIME 1 FAF MIKEY MAP OGG"
            },
            "transitions": [
                {
                    "name": "JNKOH",
                    "fixes": {
                        "JNKOH": "JNKOH",
                        "OPANA": "OPANA AT OR ABOVE 7400"
                    }
                },
                {
                    "name": "OGG",
                    "fixes": {
                        "OGG": "OGG",
                        "MIKEY": "MIKEY AT OR ABOVE 7000",
                        "PI001": "PI001 AT OR ABOVE 3000 SPEED 210",
                        "PI002": "OVERFLY PI002 AT OR ABOVE 3000 SPEED 210",
                        "PI003": "PI003 AT OR ABOVE 3000 SPEED 210"
                    }
                },
                {
                    "name": "PLUMB",
                    "fixes": {
                        "PLUMB": "PLUMB",
                        "ULUAA": "ULUAA AT OR ABOVE 3000"
                    }
                },
                {
                    "name": "ULUAA",
                    "fixes": {
                        "ULUAA": "ULUAA"
                    }
                }
            ]
        },
        {
            "name": "ILSY02",
            "fixes": {
                "CAMPS": "CAMPS AT OR ABOVE 3000",
                "TEBBS": "TEBBS 2400 RNW 02 TRK 024 UNTIL 560",
                "KRANE": "KRANE AT OR ABOVE 3000 HOLD AT KRANE RIGHT TURN INBOUNDCOURSE 203 LEGTIME 1 FAF TEBBS MAP RNW 02"
            },
            "transitions": [
                {
                    "name": "OGG",
                    "fixes": {
                        "OGG": "OGG",
                        "CAMPS": "CAMPS AT OR ABOVE 6600 HOLD AT CAMPS RIGHT TURN INBOUNDCOURSE 024 ALT 3000 LEGTIME 1"
                    }
                }
            ]
        },
        {
            "name": "ILSZ02",
            "fixes": {
                "ZOXUP": "ZOXUP AT OR ABOVE 4000",
                "TEBBS": "TEBBS 2400 RNW 02 TRK 024 UNTIL 560",
                "KRANE": "KRANE AT OR ABOVE 3000 HOLD AT KRANE RIGHT TURN INBOUNDCOURSE 203 LEGTIME 1 FAF TEBBS MAP RNW 02"
            },
            "transitions": [
                {
                    "name": "GREHG",
                    "fixes": {
                        "GREHG": "GREHG SPEED 280"
                    }
                },
                {
                    "name": "HOMAI",
                    "fixes": {
                        "HOMAI": "HOMAI 5000 SPEED 210",
                        "JUBEG": "JUBEG AT OR ABOVE 4600",
                        "YEVLU": "YEVLU AT OR ABOVE 4200 SPEED 210"
                    }
                },
                {
                    "name": "KEIKI",
                    "fixes": {
                        "KEIKI": "KEIKI SPEED 280"
                    }
                },
                {
                    "name": "OGG",
                    "fixes": {
                        "OGG": "OGG",
                        "ZOXUP": "ZOXUP AT OR ABOVE 6600 HOLD AT ZOXUP LEFT TURN INBOUNDCOURSE 024 ALT 4000 LEGTIME 1"
                    }
                }
            ]
        },
        {
            "name": "NDB02",
            "fixes": {
                "HARPO": "HARPO AT OR ABOVE 5000",
                "KIHEI": "KIHEI 2800",
                "VYINB": "VYINB 328 RNW 02 TRK 005 UNTIL 2200 HDG 300 INTERCEPT RADIAL 320 TO",
                "PLUMB": "PLUMB PLUMB AT OR ABOVE 5000 HOLD AT PLUMB LEFT TURN INBOUNDCOURSE 140 LEGTIME 1 FAF KIHEI MAP VYI"
            },
            "transitions": [
                {
                    "name": "CAMPS",
                    "fixes": {
                        "CAMPS": "CAMPS"
                    }
                },
                {
                    "name": "MAKEN",
                    "fixes": {
                        "MAKEN": "MAKEN",
                        "WIPRI": "WIPRI AT OR ABOVE 5500"
                    }
                },
                {
                    "name": "OGG",
                    "fixes": {
                        "OGG": "OGG",
                        "VYINB": "VYINB AT OR ABOVE 7100",
                        "KIHEI": "KIHEI AT OR ABOVE 7100",
                        "PI004": "PI004 AT OR ABOVE 4800 SPEED 210",
                        "PI005": "OVERFLY PI005 AT OR ABOVE 4800 SPEED 210",
                        "PI006": "PI006 AT OR ABOVE 4800 SPEED 210"
                    }
                }
            ]
        },
        {
            "name": "RNAVY02",
            "fixes": {
                "WUNAT": "WUNAT AT OR ABOVE 3200",
                "SABAE": "SABAE 2600",
                "JINAS": "JINAS AT OR ABOVE 1400 RNW 02 TRK 024 UNTIL 455",
                "KRANE": "OVERFLY KRANE AT OR ABOVE 3000 HOLD AT KRANE RIGHT TURN INBOUNDCOURSE 204 LEGDIST 4 FAF SABAE MAP RNW 02"
            },
            "transitions": [
                {
                    "name": "GREHG",
                    "fixes": {
                        "GREHG": "GREHG 6000 SPEED 210"
                    }
                },
                {
                    "name": "HOMAI",
                    "fixes": {
                        "HOMAI": "HOMAI 5000 SPEED 210",
                        "ZETMA": "ZETMA AT OR ABOVE 4500",
                        "CORBU": "CORBU AT OR ABOVE 3500"
                    }
                },
                {
                    "name": "KEIKI",
                    "fixes": {
                        "KEIKI": "KEIKI"
                    }
                }
            ]
        },
        {
            "name": "RNAVZ02",
            "fixes": {
                "WASBA": "WASBA 1200 RNW 02 TRK 024 UNTIL 349",
                "KRANE": "OVERFLY KRANE AT OR ABOVE 3000 HOLD AT KRANE RIGHT TURN INBOUNDCOURSE 204 LEGDIST 4 FAF WASBA MAP RNW 02"
            },
            "transitions": [
                {
                    "name": "GREHG",
                    "fixes": {
                        "GREHG": "GREHG 6000",
                        "ZOXUP": "ZOXUP AT OR ABOVE 4500",
                        "JOPOB": "JOPOB AT OR ABOVE 1600"
                    }
                },
                {
                    "name": "HOMAI",
                    "fixes": {
                        "HOMAI": "HOMAI 5000 SPEED 210",
                        "KAWLA": "KAWLA AT OR ABOVE 4100 SPEED 200",
                        "ZORTI": "ZORTI AT OR ABOVE 3200",
                        "RF001": "RF001",
                        "RF002": "RF002",
                        "WOREK": "WOREK AT OR ABOVE 1800"
                    }
                },
                {
                    "name": "KEIKI",
                    "fixes": {
                        "KEIKI": "KEIKI AT OR ABOVE 5000",
                        "ZOXUP": "ZOXUP AT OR ABOVE 4500",
                        "JOPOB": "JOPOB AT OR ABOVE 1600"
                    }
                }
            ]
        },
        {
            "name": "RNAV20",
            "fixes": {
                "WEPTU": "WEPTU AT OR ABOVE 2000",
                "JUDEZ": "JUDEZ 1700",
                "BIKDE": "BIKDE AT OR ABOVE 940",
                "HUKLA": "OVERFLY HUKLA 133 RNW 20 TRK 204 UNTIL 500",
                "NDREW": "OVERFLY NDREW AT OR ABOVE 4300 HOLD AT NDREW RIGHT TURN INBOUNDCOURSE 006 LEGDIST 5 FAF JUDEZ MAP HUKLA"
            },
            "transitions": [
                {
                    "name": "PLUMB",
                    "fixes": {
                        "PLUMB": "PLUMB",
                        "FOSLU": "FOSLU AT OR ABOVE 3000"
                    }
                },
                {
                    "name": "SWEEP",
                    "fixes": {
                        "SWEEP": "SWEEP",
                        "POCGI": "POCGI AT OR ABOVE 3000"
                    }
                }
            ]
        },
        {
            "name": "RNAV23",
            "fixes": {
                "MOBRE": "MOBRE AT OR ABOVE 2700",
                "HEDAT": "HEDAT 1900",
                "IMEBE": "IMEBE AT OR ABOVE 1200 RNW 23 TRK 234 UNTIL 560 TURN RIGHT DIRECT",
                "ZULUD": "OVERFLY ZULUD AT OR ABOVE 4000 HOLD AT ZULUD RIGHT TURN INBOUNDCOURSE 105 LEGDIST 6 FAF HEDAT MAP RNW 23"
            },
            "transitions": [
                {
                    "name": "PLUMB",
                    "fixes": {
                        "PLUMB": "PLUMB",
                        "ZULUD": "ZULUD AT OR ABOVE 4000",
                        "FOGOL": "FOGOL AT OR ABOVE 4000"
                    }
                },
                {
                    "name": "RABAT",
                    "fixes": {
                        "RABAT": "RABAT",
                        "BARBY": "BARBY AT OR ABOVE 7000"
                    }
                },
                {
                    "name": "SARDS",
                    "fixes": {
                        "SARDS": "SARDS",
                        "BARBY": "BARBY AT OR ABOVE 7000"
                    }
                }
            ]
        },
        {
            "name": "VORY20",
            "fixes": {
                "FS20": "FS20 2100",
                "OGG": "OGG 124 RNW 20 TRK 194 UNTIL 560",
                "HARPO": "HARPO AT OR ABOVE 5000",
                "KEIKI": "KEIKI HOLD AT KEIKI RIGHT TURN INBOUNDCOURSE 095 LEGTIME 1 FAF FS20 MAP OGG"
            },
            "transitions": [
                {
                    "name": "OGG",
                    "fixes": {
                        "OGG": "OGG AT OR BELOW 6000 AT OR ABOVE 5100",
                        "PI007": "PI007 AT OR ABOVE 2100 SPEED 210",
                        "PI008": "OVERFLY PI008 AT OR ABOVE 2100 SPEED 210",
                        "PI009": "PI009 AT OR ABOVE 2100 SPEED 210"
                    }
                }
            ]
        },
        {
            "name": "VOR20",
            "fixes": {
                "CELIU": "CELIU AT OR ABOVE 3000",
                "MIKEY": "MIKEY 1700",
                "OGG": "OGG 123 RNW 20 TRK 194 UNTIL 560",
                "HARPO": "HARPO AT OR ABOVE 5000",
                "KEIKI": "KEIKI HOLD AT KEIKI RIGHT TURN INBOUNDCOURSE 095 LEGTIME 1 FAF MIKEY MAP OGG"
            },
            "transitions": [
                {
                    "name": "JNKOH",
                    "fixes": {
                        "JNKOH": "JNKOH",
                        "OPANA": "OPANA AT OR ABOVE 7400"
                    }
                },
                {
                    "name": "OGG",
                    "fixes": {
                        "OGG": "OGG",
                        "MIKEY": "MIKEY AT OR ABOVE 7000",
                        "PI001": "PI001 AT OR ABOVE 3000 SPEED 210",
                        "PI002": "OVERFLY PI002 AT OR ABOVE 3000 SPEED 210",
                        "PI003": "PI003 AT OR ABOVE 3000 SPEED 210"
                    }
                },
                {
                    "name": "PLUMB",
                    "fixes": {
                        "PLUMB": "PLUMB",
                        "ULUAA": "ULUAA AT OR ABOVE 3000"
                    }
                },
                {
                    "name": "ULUAA",
                    "fixes": {
                        "ULUAA": "ULUAA"
                    }
                }
            ]
        }
    ]
}