{
    "fixes": [
        {
            "name": "ANDRE",
            "lat": 21.741111116666666,
            "lon": 119.99222221666666
        },
        {
            "name": "CF27",
            "lat": 22.571141666666666,
            "lon": 120.53796943333333
        },
        {
            "name": "D096B",
            "lat": 22.576491666666666,
            "lon": 120.36664721666666
        },
        {
            "name": "DOSER",
            "lat": 22.717277783333333,
            "lon": 120.19832778333334
        },
        {
            "name": "FF09",
            "lat": 22.580255566666665,
            "lon": 120.24606943333333
        },
        {
            "name": "FF27",
            "lat": 22.57400833333333,
            "lon": 120.44798056666667
        },
        {
            "name": "FORKY",
            "lat": 22.431622216666668,
            "lon": 120.44478888333333
        },
        {
            "name": "FQ09",
            "lat": 22.580447216666666,
            "lon": 120.24421666666667
        },
        {
            "name": "GATON",
            "lat": 22.470208333333332,
            "lon": 120.55555278333334
        },
        {
            "name": "GLIGA",
            "lat": 22.627497216666665,
            "lon": 119.92392221666667
        },
        {
            "name": "HCN",
            "lat": 21.927777783333333,
            "lon": 120.84358333333333
        },
        {
            "name": "KAPOK",
            "lat": 22.417652783333335,
            "lon": 120.08683611666666
        },
        {
            "name": "KH091",
            "lat": 22.576722216666667,
            "lon": 120.36666666666666
        },
        {
            "name": "KIZIN",
            "lat": 22.584722216666666,
            "lon": 120.0925
        },
        {
            "name": "LAGER",
            "lat": 22.387180566666668,
            "lon": 120.22190833333333
        },
        {
            "name": "LIUCU",
            "lat": 22.582702783333332,
            "lon": 120.16408611666667
        },
        {
            "name": "LUGIA",
            "lat": 22.883475,
            "lon": 120.05240833333333
        },
        {
            "name": "NEIPU",
            "lat": 22.570502783333332,
            "lon": 120.55913333333334
        },
        {
            "name": "NUMEL",
            "lat": 22.724675,
            "lon": 120.12131111666666
        },
        {
            "name": "OASIS",
            "lat": 22.281163883333335,
            "lon": 120.23398888333334
        },
        {
            "name": "OPTIC",
            "lat": 22.130275,
            "lon": 120.41585
        },
        {
            "name": "ORION",
            "lat": 22.386047216666668,
            "lon": 120.05170278333334
        },
        {
            "name": "PARAS",
            "lat": 22.2089,
            "lon": 119.74196666666667
        },
        {
            "name": "PARPA",
            "lat": 22.032222216666668,
            "lon": 120.03638888333333
        },
        {
            "name": "PORCH",
            "lat": 22.039166666666667,
            "lon": 119.98083333333334
        },
        {
            "name": "POTIB",
            "lat": 21.0,
            "lon": 120.75833333333334
        },
        {
            "name": "ROTOM",
            "lat": 22.338802783333332,
            "lon": 120.52233888333333
        },
        {
            "name": "SK",
            "lat": 22.577805566666665,
            "lon": 120.32636111666666
        },
        {
            "name": "SOSAN",
            "lat": 22.580255566666665,
            "lon": 120.24642221666667
        },
        {
            "name": "TAFAH",
            "lat": 22.573927783333332,
            "lon": 120.45115
        },
        {
            "name": "TNN",
            "lat": 23.135305566666666,
            "lon": 120.20619443333334
        },
        {
            "name": "WP140",
            "lat": 22.582594433333334,
            "lon": 120.13683611666667
        },
        {
            "name": "WP163",
            "lat": 22.474208333333333,
            "lon": 120.43692221666667
        },
        {
            "name": "WP164",
            "lat": 22.445913883333333,
            "lon": 120.33068888333334
        },
        {
            "name": "WP171",
            "lat": 22.524852783333333,
            "lon": 120.15969721666667
        },
        {
            "name": "WP177",
            "lat": 22.574494433333335,
            "lon": 120.43315556666667
        },
        {
            "name": "WP345",
            "lat": 22.700919433333333,
            "lon": 120.07683888333334
        },
        {
            "name": "WP381",
            "lat": 22.056391666666666,
            "lon": 120.4726
        },
        {
            "name": "WP382",
            "lat": 22.223644433333334,
            "lon": 120.31844443333334
        },
        {
            "name": "WP383",
            "lat": 22.361555566666667,
            "lon": 120.1876
        },
        {
            "name": "WP406",
            "lat": 21.900438883333333,
            "lon": 120.61478888333333
        },
        {
            "name": "WP407",
            "lat": 22.086194433333333,
            "lon": 120.88858888333333
        },
        {
            "name": "WP430",
            "lat": 22.44748888333333,
            "lon": 120.31169166666666
        },
        {
            "name": "WP526",
            "lat": 21.968575,
            "lon": 120.41663056666667
        },
        {
            "name": "WP552",
            "lat": 22.295311116666667,
            "lon": 120.14596388333334
        },
        {
            "name": "WP553",
            "lat": 22.266872216666666,
            "lon": 120.01243056666667
        },
        {
            "name": "WP561",
            "lat": 22.211752783333335,
            "lon": 120.14949443333333
        },
        {
            "name": "WP571",
            "lat": 22.391669433333334,
            "lon": 120.35689166666667
        },
        {
            "name": "WP605",
            "lat": 22.579830566666665,
            "lon": 120.24640833333333
        },
        {
            "name": "WP608",
            "lat": 22.42083888333333,
            "lon": 120.06575
        },
        {
            "name": "WP609",
            "lat": 22.524366666666666,
            "lon": 120.18331388333333
        },
        {
            "name": "WP620",
            "lat": 22.467913883333335,
            "lon": 120.08644721666667
        },
        {
            "name": "WP728",
            "lat": 22.579830566666665,
            "lon": 120.24640833333333
        },
        {
            "name": "WP738",
            "lat": 22.522005566666667,
            "lon": 120.21333056666667
        },
        {
            "name": "WP777",
            "lat": 21.982519433333334,
            "lon": 120.255675
        },
        {
            "name": "WP946",
            "lat": 21.357783333333334,
            "lon": 120.79107778333334
        },
        {
            "name": "YANMA",
            "lat": 22.713611116666666,
            "lon": 121.37666666666667
        }
    ],
    "rnws": [
        "RNW 09",
        "RNW 27"
    ],
    "sids": [
        {
            "name": "ANDR1A",
            "rnw": "09",
            "fixes": {
                "WP177": "WP177 AT OR ABOVE 1000 SPEED 210",
                "WP163": "WP163 AT OR ABOVE 3000 SPEED 210",
                "WP552": "WP552 AT OR BELOW 7000",
                "WP561": "WP561",
                "ANDRE": "ANDRE"
            },
            "sub_fixes": [],
            "transitions": []
        },
        {
            "name": "ANDR1B",
            "rnw": "27",
            "fixes": {
                "WP605": "WP605",
                "WP609": "WP609 AT OR BELOW 8000",
                "WP608": "WP608",
                "WP561": "WP561 AT OR BELOW 9000",
                "ANDRE": "ANDRE"
            },
            "sub_fixes": [],
            "transitions": []
        },
        {
            "name": "GLIG1A",
            "rnw": "09",
            "fixes": {
                "WP177": "WP177 AT OR ABOVE 1000 SPEED 210",
                "WP163": "WP163 AT OR ABOVE 3000 SPEED 210",
                "WP164": "WP164 AT OR ABOVE 4000 SPEED 230",
                "WP171": "WP171 AT OR ABOVE 8000",
                "GLIGA": "GLIGA"
            },
            "sub_fixes": [],
            "transitions": []
        },
        {
            "name": "GLIG1B",
            "rnw": "27",
            "fixes": {
                "WP728": "WP728",
                "WP140": "WP140 AT OR BELOW 8000",
                "GLIGA": "GLIGA"
            },
            "sub_fixes": [],
            "transitions": []
        },
        {
            "name": "HCN1A",
            "rnw": "09",
            "fixes": {
                "WP177": "WP177 AT OR ABOVE 1000 SPEED 210",
                "WP163": "WP163 AT OR ABOVE 3000 SPEED 210",
                "WP552": "WP552 AT OR BELOW 7000",
                "WP561": "WP561",
                "WP777": "WP777",
                "WP526": "WP526",
                "HCN": "HCN"
            },
            "sub_fixes": [],
            "transitions": []
        },
        {
            "name": "HCN1B",
            "rnw": "27",
            "fixes": {
                "WP605": "WP605",
                "WP609": "WP609 AT OR BELOW 8000",
                "WP608": "WP608",
                "WP561": "WP561 AT OR BELOW 9000",
                "WP777": "WP777",
                "WP526": "WP526",
                "HCN": "HCN"
            },
            "sub_fixes": [],
            "transitions": []
        },
        {
            "name": "HCN1C",
            "rnw": "09",
            "fixes": {
                "OPTIC": "OPTIC",
                "HCN": "HCN"
            },
            "sub_fixes": [],
            "transitions": []
        },
        {
            "name": "HCN1D",
            "rnw": "27",
            "fixes": {
                "OPTIC": "OPTIC",
                "HCN": "HCN"
            },
            "sub_fixes": [],
            "transitions": []
        },
        {
            "name": "HCN1F",
            "rnw": "27",
            "fixes": {
                "SOSAN": "SOSAN TURN LEFT HDG 125 INTERCEPT RADIAL 173 TO",
                "OPTIC": "OPTIC",
                "HCN": "HCN"
            },
            "sub_fixes": [],
            "transitions": []
        },
        {
            "name": "PARA1A",
            "rnw": "09",
            "fixes": {
                "WP177": "WP177 AT OR ABOVE 1000 SPEED 210",
                "WP163": "WP163 AT OR ABOVE 3000 SPEED 210",
                "WP552": "WP552",
                "WP553": "WP553 AT OR BELOW 7000",
                "PARAS": "PARAS"
            },
            "sub_fixes": [],
            "transitions": []
        },
        {
            "name": "PARA1B",
            "rnw": "27",
            "fixes": {
                "WP605": "WP605",
                "WP609": "WP609 AT OR BELOW 8000",
                "WP608": "WP608",
                "PARAS": "PARAS"
            },
            "sub_fixes": [],
            "transitions": []
        },
        {
            "name": "PARP1B",
            "rnw": "27",
            "fixes": {
                "SOSAN": "SOSAN HDG 235 INTERCEPT RADIAL 192 TO",
                "PARPA": "PARPA"
            },
            "sub_fixes": [],
            "transitions": []
        },
        {
            "name": "SPRA1L",
            "rnw": "09",
            "fixes": {},
            "sub_fixes": [],
            "transitions": []
        },
        {
            "name": "TNN1C",
            "rnw": "09",
            "fixes": {
                "LAGER": "LAGER AT OR ABOVE 5000 SPEED 210 TURN RIGHT HDG 346 INTERCEPT RADIAL 016 TO",
                "TNN": "TNN"
            },
            "sub_fixes": [],
            "transitions": []
        },
        {
            "name": "TNN1F",
            "rnw": "27",
            "fixes": {
                "SOSAN": "SOSAN HDG 310 INTERCEPT RADIAL 005 TO",
                "TNN": "TNN"
            },
            "sub_fixes": [],
            "transitions": []
        },
        {
            "name": "TNN1G",
            "rnw": "09",
            "fixes": {
                "WP177": "WP177 AT OR ABOVE 1000 SPEED 210",
                "WP163": "WP163 AT OR ABOVE 3000 SPEED 210",
                "WP164": "WP164 AT OR ABOVE 4000 SPEED 230",
                "WP171": "WP171 AT OR ABOVE 8000",
                "TNN": "TNN"
            },
            "sub_fixes": [],
            "transitions": []
        },
        {
            "name": "TNN1H",
            "rnw": "27",
            "fixes": {
                "LIUCU": "LIUCU TURN RIGHT DIRECT",
                "TNN": "TNN"
            },
            "sub_fixes": [],
            "transitions": []
        },
        {
            "name": "TNN2D",
            "rnw": "27",
            "fixes": {
                "DOSER": "DOSER",
                "TNN": "TNN"
            },
            "sub_fixes": [],
            "transitions": []
        }
    ],
    "stars": [
        {
            "name": "HCN1G",
            "runway": "RNW 09",
            "fixes": {
                "HCN": "HCN",
                "OASIS": "OASIS",
                "ORION": "ORION",
                "KIZIN": "KIZIN"
            }
        },
        {
            "name": "HCN1H",
            "runway": "RNW 27",
            "fixes": {
                "HCN": "HCN",
                "ROTOM": "ROTOM",
                "FORKY": "FORKY"
            }
        },
        {
            "name": "LUGI1A",
            "runway": "RNW 09",
            "fixes": {
                "LUGIA": "LUGIA",
                "WP345": "WP345 AT OR ABOVE 5000",
                "KIZIN": "KIZIN AT OR ABOVE 3000 SPEED 210"
            }
        },
        {
            "name": "LUGI2B",
            "runway": "RNW 27",
            "fixes": {
                "LUGIA": "LUGIA",
                "WP738": "WP738 AT OR ABOVE 9000",
                "WP430": "WP430",
                "FORKY": "FORKY AT OR ABOVE 4000 SPEED 210"
            }
        },
        {
            "name": "PARP1C",
            "runway": "RNW 09",
            "fixes": {
                "PARPA": "PARPA HDG 350 INTERCEPT RADIAL 015 TO",
                "ORION": "ORION ORION",
                "KIZIN": "KIZIN"
            }
        },
        {
            "name": "PORC1A",
            "runway": "RNW 09",
            "fixes": {
                "PORCH": "PORCH",
                "ORION": "ORION",
                "KIZIN": "KIZIN"
            }
        },
        {
            "name": "POTI1A",
            "runway": "RNW 09",
            "fixes": {
                "POTIB": "POTIB",
                "WP946": "WP946",
                "WP406": "WP406",
                "WP381": "WP381",
                "WP382": "WP382",
                "WP383": "WP383 AT OR ABOVE 8000",
                "WP620": "WP620 AT OR BELOW 7000",
                "KIZIN": "KIZIN AT OR ABOVE 3000 SPEED 210"
            }
        },
        {
            "name": "POTI2B",
            "runway": "RNW 27",
            "fixes": {
                "POTIB": "POTIB",
                "WP946": "WP946",
                "WP406": "WP406",
                "WP381": "WP381",
                "WP382": "WP382",
                "WP571": "WP571",
                "FORKY": "FORKY AT OR ABOVE 4000 SPEED 210"
            }
        },
        {
            "name": "TNN1J",
            "runway": "RNW 09",
            "fixes": {
                "TNN": "TNN",
                "NUMEL": "NUMEL",
                "KIZIN": "KIZIN"
            }
        },
        {
            "name": "TNN1M",
            "runway": "RNW 27",
            "fixes": {
                "TNN": "TNN",
                "SK": "SK",
                "FORKY": "FORKY"
            }
        },
        {
            "name": "YANM1A",
            "runway": "RNW 09",
            "fixes": {
                "YANMA": "YANMA",
                "WP407": "WP407 AT OR ABOVE 21000",
                "WP381": "WP381",
                "WP382": "WP382",
                "WP383": "WP383 AT OR ABOVE 8000",
                "WP620": "WP620 AT OR BELOW 7000",
                "KIZIN": "KIZIN AT OR ABOVE 3000 SPEED 210"
            }
        },
        {
            "name": "YANM2B",
            "runway": "RNW 27",
            "fixes": {
                "YANMA": "YANMA",
                "WP407": "WP407 AT OR ABOVE 21000",
                "WP381": "WP381",
                "WP382": "WP382",
                "WP571": "WP571",
                "FORKY": "FORKY AT OR ABOVE 4000 SPEED 210"
            }
        }
    ],
    "approaches": [
        {
            "name": "ILS09",
            "fixes": {
                "KIZIN": "KIZIN AT OR ABOVE 3000",
                "FF09": "FF09 1600 RNW 09",
                "D096B": "OVERFLY D096B AT OR ABOVE 600 TRK 096 UNTIL 600 TURN RIGHT HDG 245 INTERCEPT RADIAL 200 TO",
                "OASIS": "OASIS OASIS AT OR ABOVE 7000 SPEED 210 HOLD AT OASIS LEFT TURN INBOUNDCOURSE 306 ALT 7000 LEGTIME 1 FAF FF09 MAP RNW 09"
            },
            "transitions": [
                {
                    "name": "KIZIN",
                    "fixes": {
                        "KIZIN": "KIZIN RIGHT TURN INBOUNDCOURSE 096 ALT 3000 LEGTIME 1"
                    }
                }
            ]
        },
        {
            "name": "ILS27",
            "fixes": {
                "CF27": "CF27 AT OR ABOVE 2700",
                "FF27": "FF27 1600 RNW 27",
                "SK": "SK",
                "KIZIN": "KIZIN AT OR ABOVE 3000 HOLD AT KIZIN RIGHT TURN INBOUNDCOURSE 096 ALT 3000 LEGTIME 1 FAF FF27 MAP RNW 27"
            },
            "transitions": []
        },
        {
            "name": "LOC09",
            "fixes": {
                "KIZIN": "KIZIN AT OR ABOVE 3000",
                "FF09": "FF09 1600 RNW 09",
                "D096B": "OVERFLY D096B AT OR ABOVE 600 TRK 096 UNTIL 600 TURN RIGHT HDG 245 INTERCEPT RADIAL 200 TO",
                "OASIS": "OASIS OASIS AT OR ABOVE 7000 SPEED 230 HOLD AT OASIS LEFT TURN INBOUNDCOURSE 306 ALT 7000 LEGTIME 1 FAF FF09 MAP RNW 09"
            },
            "transitions": [
                {
                    "name": "KIZIN",
                    "fixes": {
                        "KIZIN": "KIZIN RIGHT TURN INBOUNDCOURSE 096 ALT 3000 LEGTIME 1"
                    }
                }
            ]
        },
        {
            "name": "LOC27",
            "fixes": {
                "CF27": "CF27 AT OR ABOVE 2700",
                "FF27": "FF27 1600 RNW 27",
                "SK": "SK",
                "KIZIN": "KIZIN AT OR ABOVE 3000 HOLD AT KIZIN RIGHT TURN INBOUNDCOURSE 096 ALT 3000 LEGTIME 1 FAF FF27 MAP RNW 27"
            },
            "transitions": []
        },
        {
            "name": "NDBD09",
            "fixes": {
                "KIZIN": "KIZIN AT OR ABOVE 3000",
                "FQ09": "FQ09 1700 RNW 09",
                "D096B": "OVERFLY D096B TURN RIGHT HDG 245 INTERCEPT RADIAL 200 TO",
                "OASIS": "OASIS OASIS AT OR ABOVE 7000 SPEED 230 HOLD AT OASIS LEFT TURN INBOUNDCOURSE 306 ALT 7000 LEGTIME 1 FAF FQ09 MAP RNW 09"
            },
            "transitions": [
                {
                    "name": "KIZIN",
                    "fixes": {
                        "KIZIN": "KIZIN RIGHT TURN INBOUNDCOURSE 096 ALT 3000 LEGTIME 1"
                    }
                }
            ]
        },
        {
            "name": "NDBD27",
            "fixes": {
                "CF27": "CF27 AT OR ABOVE 2700",
                "FF27": "FF27 1600 RNW 27",
                "SK": "SK",
                "KIZIN": "KIZIN AT OR ABOVE 3000 HOLD AT KIZIN RIGHT TURN INBOUNDCOURSE 096 ALT 3000 LEGTIME 1 FAF FF27 MAP RNW 27"
            },
            "transitions": []
        },
        {
            "name": "RNAV09",
            "fixes": {
                "KIZIN": "KIZIN AT OR ABOVE 3000",
                "SOSAN": "SOSAN 1700 RNW 09",
                "KH091": "OVERFLY KH091 TURN RIGHT DIRECT",
                "KAPOK": "KAPOK AT OR ABOVE 3000 HOLD AT KAPOK LEFT TURN INBOUNDCOURSE 006 ALT 3000 LEGDIST 5 FAF SOSAN MAP RNW 09"
            },
            "transitions": [
                {
                    "name": "KAPOK",
                    "fixes": {
                        "KAPOK": "KAPOK AT OR ABOVE 3000"
                    }
                },
                {
                    "name": "KIZIN",
                    "fixes": {
                        "KIZIN": "KIZIN RIGHT TURN INBOUNDCOURSE 096 ALT 3000 LEGDIST 5"
                    }
                }
            ]
        },
        {
            "name": "RNAV27",
            "fixes": {
                "NEIPU": "NEIPU AT OR ABOVE 3500",
                "TAFAH": "TAFAH 1700 RNW 27 TRK 276 UNTIL 800",
                "KAPOK": "KAPOK AT OR ABOVE 3000 HOLD AT KAPOK LEFT TURN INBOUNDCOURSE 006 ALT 3000 LEGDIST 5 FAF TAFAH MAP RNW 27"
            },
            "transitions": [
                {
                    "name": "FORKY",
                    "fixes": {
                        "FORKY": "FORKY AT OR ABOVE 4000",
                        "GATON": "GATON AT OR ABOVE 4000"
                    }
                },
                {
                    "name": "GATON",
                    "fixes": {
                        "GATON": "GATON AT OR ABOVE 4000"
                    }
                }
            ]
        }
    ]
}