{
    "fixes": [
        {
            "name": "AF001",
            "lat": 34.60199768333333,
            "lon": 135.26112406666667
        },
        {
            "name": "AF002",
            "lat": 34.58609738333333,
            "lon": 135.31132573333332
        },
        {
            "name": "AKASI",
            "lat": 34.589627783333334,
            "lon": 134.75501666666668
        },
        {
            "name": "ALISA",
            "lat": 34.51184166666667,
            "lon": 134.13447221666667
        },
        {
            "name": "ALLAN",
            "lat": 34.23448333333333,
            "lon": 134.95786111666666
        },
        {
            "name": "ALVIS",
            "lat": 34.280486116666665,
            "lon": 135.02595
        },
        {
            "name": "AMBER",
            "lat": 34.495055566666665,
            "lon": 135.34518056666667
        },
        {
            "name": "AMEZY",
            "lat": 34.47424721666667,
            "lon": 135.31409166666666
        },
        {
            "name": "ASAMI",
            "lat": 34.132747216666665,
            "lon": 134.81160278333334
        },
        {
            "name": "ATLOT",
            "lat": 34.47459443333333,
            "lon": 135.31461111666667
        },
        {
            "name": "AWAJI",
            "lat": 34.270302783333335,
            "lon": 134.71294166666667
        },
        {
            "name": "AYAYA",
            "lat": 34.75529721666667,
            "lon": 134.53824443333335
        },
        {
            "name": "B4L10",
            "lat": 34.36025,
            "lon": 135.12625
        },
        {
            "name": "B4L30",
            "lat": 34.336944433333336,
            "lon": 135.08447221666665
        },
        {
            "name": "B4L50",
            "lat": 34.44303611666667,
            "lon": 135.26751943333332
        },
        {
            "name": "B4L51",
            "lat": 34.37896943333333,
            "lon": 135.17211111666666
        },
        {
            "name": "B4R20",
            "lat": 34.415111116666665,
            "lon": 135.10172221666667
        },
        {
            "name": "B4R70",
            "lat": 34.46178333333334,
            "lon": 135.25569166666668
        },
        {
            "name": "B6L20",
            "lat": 34.51172221666667,
            "lon": 135.13705556666667
        },
        {
            "name": "B6L50",
            "lat": 34.423313883333336,
            "lon": 135.19837221666666
        },
        {
            "name": "B6L51",
            "lat": 34.44526943333334,
            "lon": 135.07128333333333
        },
        {
            "name": "B6R10",
            "lat": 34.46655556666666,
            "lon": 135.29611111666668
        },
        {
            "name": "B6R11",
            "lat": 34.528,
            "lon": 135.31252778333334
        },
        {
            "name": "B6R12",
            "lat": 34.571388883333334,
            "lon": 135.14808333333335
        },
        {
            "name": "B6R13",
            "lat": 34.56825,
            "lon": 135.16
        },
        {
            "name": "B6R14",
            "lat": 34.55558333333333,
            "lon": 135.20808333333332
        },
        {
            "name": "B6R50",
            "lat": 34.334327783333336,
            "lon": 135.10578333333333
        },
        {
            "name": "B6R51",
            "lat": 34.408275,
            "lon": 135.21572221666668
        },
        {
            "name": "B6R52",
            "lat": 34.46828888333334,
            "lon": 135.30519443333333
        },
        {
            "name": "B6R53",
            "lat": 34.606263883333334,
            "lon": 135.24014166666666
        },
        {
            "name": "BAGLE",
            "lat": 34.18094721666667,
            "lon": 134.88082221666667
        },
        {
            "name": "BB430",
            "lat": 34.41016666666667,
            "lon": 135.05258333333333
        },
        {
            "name": "BB440",
            "lat": 34.409055566666666,
            "lon": 135.04169443333333
        },
        {
            "name": "BB450",
            "lat": 34.60394443333333,
            "lon": 135.33727778333332
        },
        {
            "name": "BB451",
            "lat": 34.60311111666667,
            "lon": 135.37772221666665
        },
        {
            "name": "BB452",
            "lat": 34.562305566666666,
            "lon": 135.37647221666666
        },
        {
            "name": "BECKY",
            "lat": 33.91916943333333,
            "lon": 134.50850833333334
        },
        {
            "name": "BEIGE",
            "lat": 34.53375833333333,
            "lon": 135.36318611666667
        },
        {
            "name": "BERRY",
            "lat": 34.25054443333333,
            "lon": 134.94210833333332
        },
        {
            "name": "BERTH",
            "lat": 34.153177783333334,
            "lon": 134.31666943333335
        },
        {
            "name": "BLOND",
            "lat": 34.500875,
            "lon": 135.31403333333333
        },
        {
            "name": "BRASS",
            "lat": 34.54183333333334,
            "lon": 135.37526666666668
        },
        {
            "name": "BURTN",
            "lat": 34.29657221666667,
            "lon": 135.01018333333334
        },
        {
            "name": "CANDY",
            "lat": 33.87494721666667,
            "lon": 134.92827221666667
        },
        {
            "name": "CEYLN",
            "lat": 34.33672778333333,
            "lon": 134.97078888333334
        },
        {
            "name": "CHIZU",
            "lat": 35.029488883333336,
            "lon": 134.50704721666668
        },
        {
            "name": "CI24L",
            "lat": 34.51273333333334,
            "lon": 135.37199443333333
        },
        {
            "name": "D049F",
            "lat": 34.50228333333333,
            "lon": 135.28813056666667
        },
        {
            "name": "D049K",
            "lat": 34.56299166666667,
            "lon": 135.35204443333333
        },
        {
            "name": "D167B",
            "lat": 34.60605556666667,
            "lon": 135.24003333333334
        },
        {
            "name": "D215F",
            "lat": 34.54274721666667,
            "lon": 135.17412778333335
        },
        {
            "name": "D215W",
            "lat": 34.29417778333333,
            "lon": 135.01434166666667
        },
        {
            "name": "D221I",
            "lat": 34.51194443333333,
            "lon": 135.13508888333334
        },
        {
            "name": "D269Q",
            "lat": 34.55478333333333,
            "lon": 135.26381388333334
        },
        {
            "name": "DAISY",
            "lat": 34.500627783333336,
            "lon": 135.05294443333332
        },
        {
            "name": "DANDE",
            "lat": 34.21928056666667,
            "lon": 135.40942778333334
        },
        {
            "name": "DATIS",
            "lat": 33.9811,
            "lon": 134.93698333333333
        },
        {
            "name": "DE24L",
            "lat": 34.417377783333336,
            "lon": 135.22927778333334
        },
        {
            "name": "DIODE",
            "lat": 33.90599443333333,
            "lon": 134.49017221666668
        },
        {
            "name": "DOGGY",
            "lat": 34.391002783333334,
            "lon": 134.95266388333334
        },
        {
            "name": "EBONY",
            "lat": 34.44764721666667,
            "lon": 134.95748333333333
        },
        {
            "name": "EVIAN",
            "lat": 33.995052783333335,
            "lon": 134.61590278333333
        },
        {
            "name": "FIZZY",
            "lat": 34.28716943333333,
            "lon": 135.03585
        },
        {
            "name": "GATES",
            "lat": 34.13927221666667,
            "lon": 134.81738056666666
        },
        {
            "name": "GLORY",
            "lat": 34.460011116666664,
            "lon": 134.73349166666668
        },
        {
            "name": "GOBOH",
            "lat": 33.910097216666664,
            "lon": 135.10617778333332
        },
        {
            "name": "GOLIA",
            "lat": 34.27558056666667,
            "lon": 135.00257778333332
        },
        {
            "name": "GUJYO",
            "lat": 35.36403333333333,
            "lon": 136.57735556666665
        },
        {
            "name": "HABAR",
            "lat": 34.319372216666665,
            "lon": 133.58878333333334
        },
        {
            "name": "HAMAR",
            "lat": 34.40965,
            "lon": 135.051125
        },
        {
            "name": "HARKY",
            "lat": 34.48951666666667,
            "lon": 135.29658611666667
        },
        {
            "name": "HATCH",
            "lat": 34.345247216666664,
            "lon": 135.04667778333334
        },
        {
            "name": "HELEN",
            "lat": 34.58025,
            "lon": 135.114375
        },
        {
            "name": "HIBIS",
            "lat": 34.248561116666664,
            "lon": 134.12500556666666
        },
        {
            "name": "HOSTA",
            "lat": 34.388388883333334,
            "lon": 135.13290833333335
        },
        {
            "name": "IKJ22",
            "lat": 34.20065278333333,
            "lon": 134.86841943333334
        },
        {
            "name": "ISAAC",
            "lat": 34.44748611666667,
            "lon": 135.04468056666667
        },
        {
            "name": "ISPUM",
            "lat": 34.430086116666665,
            "lon": 135.25178333333332
        },
        {
            "name": "JANDY",
            "lat": 34.29130833333333,
            "lon": 135.04198611666666
        },
        {
            "name": "JENNY",
            "lat": 34.30278056666667,
            "lon": 135.01937778333334
        },
        {
            "name": "JILKY",
            "lat": 34.502327783333335,
            "lon": 135.05132778333333
        },
        {
            "name": "JOLLY",
            "lat": 34.15015556666667,
            "lon": 135.04044721666668
        },
        {
            "name": "JULIA",
            "lat": 34.502261116666666,
            "lon": 134.97120556666667
        },
        {
            "name": "KADAR",
            "lat": 34.298658333333336,
            "lon": 135.01327221666668
        },
        {
            "name": "KALOO",
            "lat": 34.54978056666667,
            "lon": 135.08771111666667
        },
        {
            "name": "KAWAT",
            "lat": 34.57204721666667,
            "lon": 134.55897221666666
        },
        {
            "name": "KCC",
            "lat": 35.26526666666667,
            "lon": 136.914925
        },
        {
            "name": "KEC",
            "lat": 33.447741666666666,
            "lon": 135.79449443333334
        },
        {
            "name": "KIE",
            "lat": 34.42573888333333,
            "lon": 135.20773056666667
        },
        {
            "name": "KRE",
            "lat": 33.541783333333335,
            "lon": 133.68015833333334
        },
        {
            "name": "KTE",
            "lat": 34.21249721666667,
            "lon": 134.02259166666667
        },
        {
            "name": "KYOTO",
            "lat": 34.830466666666666,
            "lon": 135.74688888333333
        },
        {
            "name": "LILAC",
            "lat": 34.45298056666667,
            "lon": 134.97833611666667
        },
        {
            "name": "LINDA",
            "lat": 34.50437778333333,
            "lon": 134.86114443333332
        },
        {
            "name": "LOOFA",
            "lat": 34.58569443333333,
            "lon": 135.13996666666668
        },
        {
            "name": "LUIGE",
            "lat": 34.36581111666667,
            "lon": 135.11286666666666
        },
        {
            "name": "MAIKO",
            "lat": 34.61103611666667,
            "lon": 134.99696111666665
        },
        {
            "name": "MAJOH",
            "lat": 34.501502783333336,
            "lon": 135.314975
        },
        {
            "name": "MAYAH",
            "lat": 34.606594433333335,
            "lon": 135.20305556666668
        },
        {
            "name": "MD06L",
            "lat": 34.415405566666664,
            "lon": 135.18701666666666
        },
        {
            "name": "NALTO",
            "lat": 34.15015556666667,
            "lon": 134.72035833333334
        },
        {
            "name": "NANKO",
            "lat": 34.610761116666666,
            "lon": 135.35581943333332
        },
        {
            "name": "NARAH",
            "lat": 34.49966666666667,
            "lon": 135.684125
        },
        {
            "name": "ODORI",
            "lat": 34.00365278333334,
            "lon": 134.50328888333334
        },
        {
            "name": "OGURA",
            "lat": 34.79963611666667,
            "lon": 135.57357221666666
        },
        {
            "name": "OYE",
            "lat": 34.75038333333333,
            "lon": 133.83505556666665
        },
        {
            "name": "QUARZ",
            "lat": 34.52516943333333,
            "lon": 135.39021111666668
        },
        {
            "name": "SHION",
            "lat": 34.42836666666667,
            "lon": 134.28260556666666
        },
        {
            "name": "SHTLE",
            "lat": 34.83081943333333,
            "lon": 136.94828888333333
        },
        {
            "name": "SIGAK",
            "lat": 34.885466666666666,
            "lon": 136.047975
        },
        {
            "name": "SOOMY",
            "lat": 34.54415,
            "lon": 135.37288611666668
        },
        {
            "name": "SOUJA",
            "lat": 34.6274,
            "lon": 133.73957778333335
        },
        {
            "name": "TANTA",
            "lat": 34.26801666666667,
            "lon": 134.45809721666666
        },
        {
            "name": "TOMOH",
            "lat": 34.280436116666664,
            "lon": 135.00564721666666
        },
        {
            "name": "TONDA",
            "lat": 33.728844433333336,
            "lon": 135.37757221666666
        },
        {
            "name": "TSC",
            "lat": 34.129722216666664,
            "lon": 134.60861111666668
        },
        {
            "name": "UENOH",
            "lat": 34.83575556666667,
            "lon": 136.22601666666668
        },
        {
            "name": "WASYU",
            "lat": 34.471527783333336,
            "lon": 133.38365
        },
        {
            "name": "WENDY",
            "lat": 34.53596111666667,
            "lon": 134.84189166666667
        },
        {
            "name": "YAGYU",
            "lat": 34.544252783333334,
            "lon": 135.96057221666666
        },
        {
            "name": "YME",
            "lat": 35.480691666666665,
            "lon": 135.13702221666668
        },
        {
            "name": "YOE27",
            "lat": 34.609952783333334,
            "lon": 135.05437221666668
        },
        {
            "name": "YOSAK",
            "lat": 33.784641666666666,
            "lon": 134.11066388333333
        },
        {
            "name": "ZOHRA",
            "lat": 34.322572216666664,
            "lon": 135.08833611666665
        }
    ],
    "rnws": [
        "RNW 06L",
        "RNW 06R",
        "RNW 24L",
        "RNW 24R"
    ],
    "sids": [
        {
            "name": "DAISY2",
            "rnw": "07",
            "fixes": {},
            "sub_fixes": [
                {
                    "rwy": "RNW 06L",
                    "fixes": {
                        "RNW 06L": "RNW 06L HDG 059 UNTIL 500 TURN LEFT DIRECT",
                        "DAISY": "DAISY",
                        "JULIA": "JULIA AT OR ABOVE 8000",
                        "LINDA": "LINDA",
                        "GLORY": "GLORY"
                    }
                },
                {
                    "rwy": "RNW 06R",
                    "fixes": {
                        "RNW 06R": "RNW 06R HDG 059 UNTIL 500",
                        "B6R10": "OVERFLY B6R10",
                        "B6R11": "B6R11 AT OR ABOVE 2500",
                        "B6R12": "B6R12",
                        "DAISY": "DAISY",
                        "JULIA": "JULIA AT OR ABOVE 8000",
                        "LINDA": "LINDA",
                        "GLORY": "GLORY"
                    }
                },
                {
                    "rwy": "RNW 24L",
                    "fixes": {
                        "RNW 24L": "RNW 24L HDG 239 UNTIL 500",
                        "B4L10": "OVERFLY B4L10 TURN RIGHT DIRECT",
                        "BB430": "BB430 SPEED 210",
                        "DAISY": "DAISY AT OR ABOVE 6000",
                        "JULIA": "JULIA AT OR ABOVE 8000",
                        "LINDA": "LINDA",
                        "GLORY": "GLORY"
                    }
                },
                {
                    "rwy": "RNW 24R",
                    "fixes": {
                        "RNW 24R": "RNW 24R HDG 239 UNTIL 500",
                        "DAISY": "DAISY AT OR ABOVE 6000",
                        "JULIA": "JULIA AT OR ABOVE 8000",
                        "LINDA": "LINDA",
                        "GLORY": "GLORY"
                    }
                }
            ],
            "transitions": [
                {
                    "name": "HIBIS",
                    "fixes": [
                        "HIBIS"
                    ]
                }
            ]
        },
        {
            "name": "FERRY6",
            "rnw": "07",
            "fixes": {},
            "sub_fixes": [
                {
                    "rwy": "RNW 24L",
                    "fixes": {
                        "RNW 24L": "RNW 24L",
                        "DE24L": "OVERFLY DE24L TRK 238 UNTIL 500 TURN RIGHT HDG 019 INTERCEPT RADIAL 334 TO",
                        "YOE27": "YOE27 YOE27",
                        "MAIKO": "MAIKO"
                    }
                },
                {
                    "rwy": "RNW 24R",
                    "fixes": {
                        "RNW 24R": "RNW 24R TRK 238 UNTIL 520 TURN RIGHT HDG 019 INTERCEPT RADIAL 334 TO",
                        "YOE27": "YOE27 YOE27",
                        "MAIKO": "MAIKO"
                    }
                }
            ],
            "transitions": [
                {
                    "name": "HABAR",
                    "fixes": [
                        "WENDY",
                        "SHION",
                        "HABAR"
                    ]
                },
                {
                    "name": "KTE",
                    "fixes": [
                        "KAWAT",
                        "KTE"
                    ]
                },
                {
                    "name": "OYE",
                    "fixes": [
                        "KAWAT",
                        "OYE"
                    ]
                },
                {
                    "name": "SHION",
                    "fixes": [
                        "WENDY",
                        "SHION"
                    ]
                },
                {
                    "name": "SOUJA",
                    "fixes": [
                        "WENDY",
                        "SHION",
                        "SOUJA"
                    ]
                },
                {
                    "name": "WASYU",
                    "fixes": [
                        "WENDY",
                        "SHION",
                        "WASYU"
                    ]
                },
                {
                    "name": "YME",
                    "fixes": [
                        "KAWAT",
                        "AYAYA",
                        "CHIZU",
                        "YME"
                    ]
                }
            ]
        },
        {
            "name": "HELEN2",
            "rnw": "07",
            "fixes": {},
            "sub_fixes": [
                {
                    "rwy": "RNW 06L",
                    "fixes": {
                        "RNW 06L": "RNW 06L HDG 059 UNTIL 500 TURN LEFT DIRECT",
                        "HELEN": "HELEN",
                        "MAIKO": "MAIKO"
                    }
                },
                {
                    "rwy": "RNW 06R",
                    "fixes": {
                        "RNW 06R": "RNW 06R HDG 059 UNTIL 500",
                        "B6R10": "OVERFLY B6R10",
                        "B6R11": "B6R11 AT OR ABOVE 2500",
                        "HELEN": "HELEN",
                        "MAIKO": "MAIKO"
                    }
                },
                {
                    "rwy": "RNW 24L",
                    "fixes": {
                        "RNW 24L": "RNW 24L HDG 239 UNTIL 500",
                        "B4L10": "OVERFLY B4L10 TURN RIGHT DIRECT",
                        "BB430": "BB430 SPEED 210",
                        "HELEN": "HELEN AT OR ABOVE 8000",
                        "MAIKO": "MAIKO"
                    }
                },
                {
                    "rwy": "RNW 24R",
                    "fixes": {
                        "RNW 24R": "RNW 24R HDG 239 UNTIL 500",
                        "BB430": "BB430 SPEED 210 TURN RIGHT DIRECT",
                        "HELEN": "HELEN AT OR ABOVE 8000",
                        "MAIKO": "MAIKO"
                    }
                }
            ],
            "transitions": [
                {
                    "name": "CHIZU",
                    "fixes": [
                        "KAWAT",
                        "AYAYA",
                        "CHIZU",
                        "YME"
                    ]
                },
                {
                    "name": "HABAR",
                    "fixes": [
                        "WENDY",
                        "SHION",
                        "HABAR"
                    ]
                },
                {
                    "name": "KTE",
                    "fixes": [
                        "KAWAT",
                        "KTE"
                    ]
                },
                {
                    "name": "OYE",
                    "fixes": [
                        "KAWAT",
                        "OYE"
                    ]
                },
                {
                    "name": "SHION",
                    "fixes": [
                        "WENDY",
                        "SHION"
                    ]
                },
                {
                    "name": "SOUJA",
                    "fixes": [
                        "WENDY",
                        "SHION",
                        "SOUJA"
                    ]
                },
                {
                    "name": "WASYU",
                    "fixes": [
                        "WENDY",
                        "SHION",
                        "WASYU"
                    ]
                }
            ]
        },
        {
            "name": "ISPUM1",
            "rnw": "07",
            "fixes": {},
            "sub_fixes": [
                {
                    "rwy": "RNW 06L",
                    "fixes": {
                        "RNW 06L": "RNW 06L HDG 059 UNTIL 500 TURN LEFT DIRECT",
                        "B6L20": "OVERFLY B6L20 TURN LEFT DIRECT",
                        "ISPUM": "ISPUM AT OR ABOVE 8000"
                    }
                },
                {
                    "rwy": "RNW 06R",
                    "fixes": {
                        "RNW 06R": "RNW 06R HDG 059 UNTIL 500",
                        "B6R10": "OVERFLY B6R10",
                        "B6R11": "B6R11 AT OR ABOVE 2500",
                        "B6R13": "OVERFLY B6R13 TURN LEFT DIRECT",
                        "ISPUM": "ISPUM AT OR ABOVE 8000"
                    }
                },
                {
                    "rwy": "RNW 24L",
                    "fixes": {
                        "RNW 24L": "RNW 24L HDG 239 UNTIL 500",
                        "B4L10": "OVERFLY B4L10 TURN RIGHT DIRECT",
                        "ISPUM": "ISPUM AT OR ABOVE 8000"
                    }
                },
                {
                    "rwy": "RNW 24R",
                    "fixes": {
                        "RNW 24R": "RNW 24R HDG 239 UNTIL 500",
                        "B4R20": "OVERFLY B4R20 TURN RIGHT DIRECT",
                        "ISPUM": "ISPUM AT OR ABOVE 8000"
                    }
                }
            ],
            "transitions": [
                {
                    "name": "BAMBI",
                    "fixes": [
                        "NARAH"
                    ]
                },
                {
                    "name": "SHTLE",
                    "fixes": [
                        "NARAH",
                        "YAGYU",
                        "SHTLE"
                    ]
                },
                {
                    "name": "UENOH",
                    "fixes": [
                        "NARAH",
                        "UENOH",
                        "GUJYO"
                    ]
                }
            ]
        },
        {
            "name": "IWAYA2",
            "rnw": "07",
            "fixes": {},
            "sub_fixes": [
                {
                    "rwy": "RNW 24L",
                    "fixes": {
                        "RNW 24L": "RNW 24L",
                        "DE24L": "OVERFLY DE24L HDG 239 UNTIL 500",
                        "BB430": "BB430 TURN RIGHT DIRECT",
                        "HELEN": "HELEN AT OR ABOVE 8000",
                        "MAIKO": "MAIKO"
                    }
                },
                {
                    "rwy": "RNW 24R",
                    "fixes": {
                        "RNW 24R": "RNW 24R HDG 239 UNTIL 500",
                        "BB430": "BB430 TURN RIGHT DIRECT",
                        "HELEN": "HELEN AT OR ABOVE 8000",
                        "MAIKO": "MAIKO"
                    }
                }
            ],
            "transitions": [
                {
                    "name": "CHIZU",
                    "fixes": [
                        "KAWAT",
                        "AYAYA",
                        "CHIZU",
                        "YME"
                    ]
                },
                {
                    "name": "HABAR",
                    "fixes": [
                        "WENDY",
                        "SHION",
                        "HABAR"
                    ]
                },
                {
                    "name": "KTE",
                    "fixes": [
                        "KAWAT",
                        "KTE"
                    ]
                },
                {
                    "name": "OYE",
                    "fixes": [
                        "KAWAT",
                        "OYE"
                    ]
                },
                {
                    "name": "SHION",
                    "fixes": [
                        "WENDY",
                        "SHION"
                    ]
                },
                {
                    "name": "SOUJA",
                    "fixes": [
                        "WENDY",
                        "SHION",
                        "SOUJA"
                    ]
                },
                {
                    "name": "WASYU",
                    "fixes": [
                        "WENDY",
                        "SHION",
                        "WASYU"
                    ]
                }
            ]
        },
        {
            "name": "KITAN2",
            "rnw": "07",
            "fixes": {},
            "sub_fixes": [
                {
                    "rwy": "RNW 24L",
                    "fixes": {
                        "RNW 24L": "RNW 24L",
                        "DE24L": "OVERFLY DE24L HDG 239 UNTIL 500",
                        "BB440": "OVERFLY BB440 HDG 220 INTERCEPT RADIAL 175 TO",
                        "TOMOH": "TOMOH TOMOH"
                    }
                },
                {
                    "rwy": "RNW 24R",
                    "fixes": {
                        "RNW 24R": "RNW 24R HDG 239 UNTIL 500",
                        "BB440": "OVERFLY BB440 HDG 220 INTERCEPT RADIAL 175 TO",
                        "TOMOH": "TOMOH TOMOH"
                    }
                }
            ],
            "transitions": [
                {
                    "name": "TONDA",
                    "fixes": [
                        "GOBOH",
                        "TONDA",
                        "KEC"
                    ]
                },
                {
                    "name": "YOSAK",
                    "fixes": [
                        "ODORI",
                        "YOSAK",
                        "KRE"
                    ]
                }
            ]
        },
        {
            "name": "MAIKO9",
            "rnw": "07",
            "fixes": {},
            "sub_fixes": [
                {
                    "rwy": "RNW 06L",
                    "fixes": {
                        "RNW 06L": "RNW 06L TRK 058 UNTIL 520 TURN LEFT HDG 289 INTERCEPT RADIAL 334 TO",
                        "YOE27": "YOE27 YOE27",
                        "MAIKO": "MAIKO AT OR ABOVE 5000"
                    }
                },
                {
                    "rwy": "RNW 06R",
                    "fixes": {
                        "RNW 06R": "RNW 06R TRK 058 UNTIL 520 HDG 054 UNTIL 5.4 FROM",
                        "KIE": "KIE",
                        "D049F": "D049F AT OR ABOVE 2500 TRK 347 INTERCEPT RADIAL 279 TO",
                        "MAIKO": "MAIKO MAIKO AT OR ABOVE 5000"
                    }
                },
                {
                    "rwy": "RNW 24L",
                    "fixes": {
                        "RNW 24L": "RNW 24L TRK 238 UNTIL 520 HDG 244 UNTIL 5.6 FROM",
                        "KIE": "KIE TURN RIGHT DIRECT",
                        "D221I": "D221I",
                        "YOE27": "YOE27",
                        "MAIKO": "MAIKO AT OR ABOVE 5000"
                    }
                },
                {
                    "rwy": "RNW 24R",
                    "fixes": {
                        "RNW 24R": "RNW 24R TRK 238 UNTIL 520 TURN RIGHT HDG 019 INTERCEPT RADIAL 334 TO",
                        "YOE27": "YOE27 YOE27",
                        "MAIKO": "MAIKO AT OR ABOVE 5000"
                    }
                }
            ],
            "transitions": [
                {
                    "name": "HABAR",
                    "fixes": [
                        "WENDY",
                        "SHION",
                        "HABAR"
                    ]
                },
                {
                    "name": "KTE",
                    "fixes": [
                        "KAWAT",
                        "KTE"
                    ]
                },
                {
                    "name": "OYE",
                    "fixes": [
                        "KAWAT",
                        "OYE"
                    ]
                },
                {
                    "name": "SHION",
                    "fixes": [
                        "WENDY",
                        "SHION"
                    ]
                },
                {
                    "name": "SOUJA",
                    "fixes": [
                        "WENDY",
                        "SHION",
                        "SOUJA"
                    ]
                },
                {
                    "name": "WASYU",
                    "fixes": [
                        "WENDY",
                        "SHION",
                        "WASYU"
                    ]
                },
                {
                    "name": "YME",
                    "fixes": [
                        "KAWAT",
                        "AYAYA",
                        "CHIZU",
                        "YME"
                    ]
                }
            ]
        },
        {
            "name": "NANKO2",
            "rnw": "07",
            "fixes": {},
            "sub_fixes": [
                {
                    "rwy": "RNW 06L",
                    "fixes": {
                        "RNW 06L": "RNW 06L HDG 059 UNTIL 500 TURN LEFT DIRECT",
                        "B6L20": "OVERFLY B6L20 SPEED 230 TURN LEFT DIRECT",
                        "NANKO": "NANKO AT OR ABOVE 8000"
                    }
                },
                {
                    "rwy": "RNW 06R",
                    "fixes": {
                        "RNW 06R": "RNW 06R HDG 059 UNTIL 500",
                        "B6R10": "OVERFLY B6R10",
                        "B6R11": "B6R11 AT OR ABOVE 2500",
                        "B6R13": "OVERFLY B6R13 SPEED 230 TURN LEFT DIRECT",
                        "NANKO": "NANKO AT OR ABOVE 8000"
                    }
                },
                {
                    "rwy": "RNW 24L",
                    "fixes": {
                        "RNW 24L": "RNW 24L HDG 239 UNTIL 500",
                        "B4L10": "OVERFLY B4L10 TURN RIGHT DIRECT",
                        "NANKO": "NANKO AT OR ABOVE 8000"
                    }
                },
                {
                    "rwy": "RNW 24R",
                    "fixes": {
                        "RNW 24R": "RNW 24R HDG 239 UNTIL 500",
                        "B4R20": "OVERFLY B4R20 TURN RIGHT DIRECT",
                        "NANKO": "NANKO AT OR ABOVE 8000"
                    }
                }
            ],
            "transitions": [
                {
                    "name": "KCC",
                    "fixes": [
                        "OGURA",
                        "KYOTO",
                        "SIGAK",
                        "KCC"
                    ]
                },
                {
                    "name": "SIGAK",
                    "fixes": [
                        "OGURA",
                        "KYOTO",
                        "SIGAK",
                        "GUJYO"
                    ]
                }
            ]
        },
        {
            "name": "SUSAN2",
            "rnw": "07",
            "fixes": {},
            "sub_fixes": [
                {
                    "rwy": "RNW 06L",
                    "fixes": {
                        "RNW 06L": "RNW 06L HDG 059 UNTIL 500 TURN LEFT DIRECT",
                        "BB430": "BB430",
                        "TOMOH": "TOMOH"
                    }
                },
                {
                    "rwy": "RNW 06R",
                    "fixes": {
                        "RNW 06R": "RNW 06R HDG 059 UNTIL 500",
                        "B6R10": "OVERFLY B6R10",
                        "B6R11": "B6R11 AT OR ABOVE 2500",
                        "B6R14": "OVERFLY B6R14",
                        "BB430": "BB430",
                        "TOMOH": "TOMOH"
                    }
                },
                {
                    "rwy": "RNW 24L",
                    "fixes": {
                        "RNW 24L": "RNW 24L HDG 239 UNTIL 500",
                        "B4L30": "B4L30",
                        "TOMOH": "TOMOH"
                    }
                },
                {
                    "rwy": "RNW 24R",
                    "fixes": {
                        "RNW 24R": "RNW 24R HDG 239 UNTIL 500",
                        "BB430": "BB430",
                        "TOMOH": "TOMOH"
                    }
                }
            ],
            "transitions": [
                {
                    "name": "TONDA",
                    "fixes": [
                        "GOBOH",
                        "TONDA",
                        "KEC"
                    ]
                },
                {
                    "name": "YOSAK",
                    "fixes": [
                        "ODORI",
                        "YOSAK",
                        "KRE"
                    ]
                }
            ]
        },
        {
            "name": "TOMO1W",
            "rnw": "24R",
            "fixes": {
                "TOMOH": "TOMOH"
            },
            "sub_fixes": [],
            "transitions": [
                {
                    "name": "KEC",
                    "fixes": [
                        "GOBOH",
                        "GOBOH",
                        "KEC"
                    ]
                },
                {
                    "name": "KRE",
                    "fixes": [
                        "DIODE",
                        "KRE"
                    ]
                }
            ]
        },
        {
            "name": "TOMOH3",
            "rnw": "24R",
            "fixes": {},
            "sub_fixes": [
                {
                    "rwy": "RNW 06L",
                    "fixes": {
                        "RNW 06L": "RNW 06L TRK 058 UNTIL 520 TURN LEFT HDG 270 INTERCEPT RADIAL 215 TO",
                        "TOMOH": "TOMOH TOMOH AT OR ABOVE 4000"
                    }
                },
                {
                    "rwy": "RNW 06R",
                    "fixes": {
                        "RNW 06R": "RNW 06R TRK 058 UNTIL 520 HDG 054 UNTIL 5.4 FROM",
                        "KIE": "KIE",
                        "D049F": "D049F AT OR ABOVE 2500",
                        "D269Q": "D269Q",
                        "D215F": "D215F",
                        "TOMOH": "TOMOH AT OR ABOVE 4000"
                    }
                },
                {
                    "rwy": "RNW 24L",
                    "fixes": {
                        "RNW 24L": "RNW 24L TRK 238 UNTIL 520 HDG 244 UNTIL 5.6 FROM",
                        "KIE": "KIE HDG 270 INTERCEPT RADIAL 215 TO",
                        "TOMOH": "TOMOH TOMOH AT OR ABOVE 4000"
                    }
                },
                {
                    "rwy": "RNW 24R",
                    "fixes": {
                        "RNW 24R": "RNW 24R TRK 238 UNTIL 520 HDG 270 INTERCEPT RADIAL 215 TO",
                        "TOMOH": "TOMOH TOMOH AT OR ABOVE 4000"
                    }
                }
            ],
            "transitions": [
                {
                    "name": "KEC",
                    "fixes": [
                        "GOBOH",
                        "GOBOH",
                        "KEC"
                    ]
                },
                {
                    "name": "KRE",
                    "fixes": [
                        "DIODE",
                        "KRE"
                    ]
                }
            ]
        }
    ],
    "stars": [
        {
            "name": "AKASI",
            "runway": "RNW 06L RNW 06R RNW 24L RNW 24R",
            "fixes": {
                "TSC": "TSC",
                "AKASI": "AKASI",
                "MAIKO": "MAIKO",
                "MAYAH": "MAYAH 4000"
            }
        },
        {
            "name": "ALISAA",
            "runway": "RNW 06R",
            "fixes": {
                "ALISA": "ALISA",
                "TANTA": "TANTA AT OR ABOVE 6000",
                "NALTO": "NALTO",
                "ASAMI": "ASAMI",
                "BAGLE": "BAGLE",
                "ALLAN": "ALLAN AT OR ABOVE 4000"
            }
        },
        {
            "name": "ALISAB",
            "runway": "RNW 06L",
            "fixes": {
                "ALISA": "ALISA",
                "TANTA": "TANTA AT OR ABOVE 6000",
                "NALTO": "NALTO",
                "ASAMI": "ASAMI",
                "BAGLE": "BAGLE",
                "BERRY": "BERRY AT OR ABOVE 4000"
            }
        },
        {
            "name": "ALISAC",
            "runway": "RNW 24R RNW 24L",
            "fixes": {
                "ALISA": "ALISA",
                "TANTA": "TANTA",
                "AWAJI": "AWAJI AT OR ABOVE 7000",
                "LILAC": "LILAC",
                "MAYAH": "MAYAH 4000"
            }
        },
        {
            "name": "ALISAD",
            "runway": "RNW 24R RNW 24L",
            "fixes": {
                "ALISA": "ALISA",
                "TANTA": "TANTA",
                "NALTO": "NALTO AT OR ABOVE 6000",
                "ASAMI": "ASAMI",
                "BAGLE": "BAGLE",
                "TOMOH": "TOMOH",
                "HAMAR": "HAMAR",
                "MAYAH": "MAYAH 4000"
            }
        },
        {
            "name": "ALISAE",
            "runway": "RNW 24R RNW 24L",
            "fixes": {
                "ALISA": "ALISA",
                "TANTA": "TANTA AT OR ABOVE 7000 TURN LEFT DIRECT",
                "AKASI": "AKASI",
                "MAIKO": "MAIKO",
                "MAYAH": "MAYAH 4000"
            }
        },
        {
            "name": "ALVIS",
            "runway": "RNW 06R",
            "fixes": {
                "ISPUM": "ISPUM AT OR ABOVE 8000",
                "EBONY": "EBONY SPEED 210",
                "DOGGY": "DOGGY",
                "CEYLN": "CEYLN",
                "ALVIS": "ALVIS AT OR ABOVE 3000"
            }
        },
        {
            "name": "BECKYA",
            "runway": "RNW 06R",
            "fixes": {
                "BECKY": "BECKY",
                "EVIAN": "EVIAN AT OR ABOVE 6000",
                "ASAMI": "ASAMI",
                "BAGLE": "BAGLE",
                "ALLAN": "ALLAN AT OR ABOVE 4000"
            }
        },
        {
            "name": "BECKYB",
            "runway": "RNW 06L",
            "fixes": {
                "BECKY": "BECKY",
                "EVIAN": "EVIAN AT OR ABOVE 6000",
                "ASAMI": "ASAMI",
                "BAGLE": "BAGLE",
                "BERRY": "BERRY AT OR ABOVE 4000"
            }
        },
        {
            "name": "BECKYC",
            "runway": "RNW 24R RNW 24L",
            "fixes": {
                "BECKY": "BECKY",
                "NALTO": "NALTO",
                "AWAJI": "AWAJI AT OR ABOVE 7000",
                "LILAC": "LILAC",
                "MAYAH": "MAYAH 4000"
            }
        },
        {
            "name": "BECKYD",
            "runway": "RNW 24R RNW 24L",
            "fixes": {
                "BECKY": "BECKY",
                "EVIAN": "EVIAN AT OR ABOVE 6000",
                "ASAMI": "ASAMI",
                "BAGLE": "BAGLE",
                "TOMOH": "TOMOH",
                "HAMAR": "HAMAR",
                "MAYAH": "MAYAH 4000"
            }
        },
        {
            "name": "BECKYE",
            "runway": "RNW 24R RNW 24L",
            "fixes": {
                "BECKY": "BECKY",
                "TANTA": "TANTA AT OR ABOVE 7000",
                "AKASI": "AKASI",
                "MAIKO": "MAIKO",
                "MAYAH": "MAYAH 4000"
            }
        },
        {
            "name": "BERTHA",
            "runway": "RNW 06R",
            "fixes": {
                "BERTH": "BERTH",
                "NALTO": "NALTO AT OR ABOVE 6000",
                "ASAMI": "ASAMI",
                "BAGLE": "BAGLE",
                "ALLAN": "ALLAN AT OR ABOVE 4000"
            }
        },
        {
            "name": "BERTHB",
            "runway": "RNW 06L",
            "fixes": {
                "BERTH": "BERTH",
                "NALTO": "NALTO AT OR ABOVE 6000",
                "ASAMI": "ASAMI",
                "BAGLE": "BAGLE",
                "BERRY": "BERRY AT OR ABOVE 4000"
            }
        },
        {
            "name": "BERTHC",
            "runway": "RNW 24R RNW 24L",
            "fixes": {
                "BERTH": "BERTH",
                "AWAJI": "AWAJI AT OR ABOVE 7000",
                "LILAC": "LILAC",
                "MAYAH": "MAYAH 4000"
            }
        },
        {
            "name": "BERTHD",
            "runway": "RNW 24R RNW 24L",
            "fixes": {
                "BERTH": "BERTH",
                "NALTO": "NALTO AT OR ABOVE 6000",
                "ASAMI": "ASAMI",
                "BAGLE": "BAGLE",
                "TOMOH": "TOMOH",
                "HAMAR": "HAMAR",
                "MAYAH": "MAYAH 4000"
            }
        },
        {
            "name": "BERTHE",
            "runway": "RNW 24R RNW 24L",
            "fixes": {
                "BERTH": "BERTH",
                "TANTA": "TANTA AT OR ABOVE 7000",
                "AKASI": "AKASI",
                "MAIKO": "MAIKO",
                "MAYAH": "MAYAH 4000"
            }
        },
        {
            "name": "BURTN",
            "runway": "RNW 06L",
            "fixes": {
                "ISPUM": "ISPUM AT OR ABOVE 8000",
                "EBONY": "EBONY SPEED 210",
                "DOGGY": "DOGGY",
                "CEYLN": "CEYLN",
                "BURTN": "BURTN AT OR ABOVE 2000"
            }
        },
        {
            "name": "CANDYA",
            "runway": "RNW 06R",
            "fixes": {
                "CANDY": "CANDY",
                "DATIS": "DATIS AT OR ABOVE 6000",
                "ALLAN": "ALLAN AT OR ABOVE 4000"
            }
        },
        {
            "name": "CANDYB",
            "runway": "RNW 06L",
            "fixes": {
                "CANDY": "CANDY",
                "DATIS": "DATIS AT OR ABOVE 6000",
                "BERRY": "BERRY AT OR ABOVE 4000"
            }
        },
        {
            "name": "CANDYC",
            "runway": "RNW 24R RNW 24L",
            "fixes": {
                "CANDY": "CANDY",
                "NALTO": "NALTO",
                "AWAJI": "AWAJI AT OR ABOVE 7000",
                "LILAC": "LILAC",
                "MAYAH": "MAYAH 4000"
            }
        },
        {
            "name": "CANDYD",
            "runway": "RNW 24R RNW 24L",
            "fixes": {
                "CANDY": "CANDY",
                "DATIS": "DATIS AT OR ABOVE 6000",
                "TOMOH": "TOMOH",
                "HAMAR": "HAMAR",
                "MAYAH": "MAYAH 4000"
            }
        },
        {
            "name": "CANDYE",
            "runway": "RNW 24R RNW 24L",
            "fixes": {
                "CANDY": "CANDY",
                "TANTA": "TANTA AT OR ABOVE 7000",
                "AKASI": "AKASI",
                "MAIKO": "MAIKO",
                "MAYAH": "MAYAH 4000"
            }
        },
        {
            "name": "DANDEA",
            "runway": "RNW 06R",
            "fixes": {
                "DANDE": "DANDE",
                "JOLLY": "JOLLY AT OR ABOVE 6000",
                "ALLAN": "ALLAN AT OR ABOVE 4000"
            }
        },
        {
            "name": "DANDEB",
            "runway": "RNW 06L",
            "fixes": {
                "DANDE": "DANDE",
                "JOLLY": "JOLLY AT OR ABOVE 6000",
                "BERRY": "BERRY AT OR ABOVE 4000"
            }
        },
        {
            "name": "DANDEC",
            "runway": "RNW 24R RNW 24L",
            "fixes": {
                "DANDE": "DANDE",
                "JOLLY": "JOLLY AT OR ABOVE 8000",
                "GATES": "GATES",
                "AWAJI": "AWAJI AT OR ABOVE 7000",
                "LILAC": "LILAC",
                "MAYAH": "MAYAH 4000"
            }
        },
        {
            "name": "DATISA",
            "runway": "RNW 06R",
            "fixes": {
                "DATIS": "DATIS AT OR ABOVE 6000",
                "ALLAN": "ALLAN AT OR ABOVE 4000"
            }
        },
        {
            "name": "DATISB",
            "runway": "RNW 06L",
            "fixes": {
                "DATIS": "DATIS AT OR ABOVE 6000",
                "BERRY": "BERRY AT OR ABOVE 4000"
            }
        },
        {
            "name": "DATISC",
            "runway": "RNW 24R RNW 24L",
            "fixes": {
                "DATIS": "DATIS",
                "NALTO": "NALTO",
                "AWAJI": "AWAJI AT OR ABOVE 7000",
                "LILAC": "LILAC",
                "MAYAH": "MAYAH 4000"
            }
        },
        {
            "name": "GATES",
            "runway": "RNW 06L RNW 06R RNW 24L RNW 24R",
            "fixes": {
                "TSC": "TSC",
                "GATES": "GATES AT OR ABOVE 4000"
            }
        },
        {
            "name": "MAYAH",
            "runway": "RNW 24R RNW 24L",
            "fixes": {
                "ISPUM": "ISPUM AT OR ABOVE 8000",
                "ISAAC": "ISAAC SPEED 210",
                "JILKY": "JILKY",
                "KALOO": "KALOO",
                "LOOFA": "LOOFA",
                "MAYAH": "MAYAH 4000"
            }
        }
    ],
    "approaches": [
        {
            "name": "VORD06L",
            "fixes": {
                "HATCH": "HATCH AT OR ABOVE 1700",
                "HOSTA": "HOSTA 1456",
                "MD06L": "MD06L 461 RNW 06L TRK 067 UNTIL 520 TURN LEFT HDG 241 INTERCEPT RADIAL 286 TO",
                "LILAC": "LILAC LILAC 3000 HOLD AT LILAC RIGHT TURN INBOUNDCOURSE 057 ALT 3000 SPEED 230 LEGDIST 5 FAF HOSTA MAP MD06L"
            },
            "transitions": [
                {
                    "name": "GATES",
                    "fixes": {
                        "GATES": "GATES AT OR ABOVE 4000",
                        "GOLIA": "GOLIA",
                        "D215W": "D215W AT OR ABOVE 4000"
                    }
                }
            ]
        },
        {
            "name": "VORD24R",
            "fixes": {
                "SOOMY": "SOOMY AT OR ABOVE 1700",
                "HARKY": "HARKY 1225 RNW 24R",
                "KIE": "KIE",
                "LILAC": "LILAC AT OR ABOVE 3000 HOLD AT LILAC RIGHT TURN INBOUNDCOURSE 057 ALT 3000 SPEED 230 LEGDIST 5 FAF HARKY MAP RNW 24R"
            },
            "transitions": [
                {
                    "name": "MAYAH",
                    "fixes": {
                        "MAYAH": "MAYAH 4000",
                        "AF001": "AF001",
                        "AF002": "AF002",
                        "D049K": "D049K 2600"
                    }
                }
            ]
        },
        {
            "name": "ILS06LY",
            "fixes": {
                "BERRY": "BERRY AT OR ABOVE 4000",
                "JENNY": "JENNY 4000 RNW 06L HDG 059 UNTIL 500 TURN LEFT HDG 241 INTERCEPT RADIAL 286 TO",
                "LILAC": "LILAC LILAC 3000 HOLD AT LILAC RIGHT TURN INBOUNDCOURSE 057 ALT 3000 SPEED 230 LEGDIST 5 FAF JENNY MAP RNW 06L"
            },
            "transitions": [
                {
                    "name": "GATES",
                    "fixes": {
                        "GATES": "GATES AT OR ABOVE 4000",
                        "IKJ22": "IKJ22"
                    }
                }
            ]
        },
        {
            "name": "ILS06LZ",
            "fixes": {
                "BURTN": "BURTN AT OR ABOVE 2000",
                "LUIGE": "LUIGE 2000 RNW 06L HDG 059 UNTIL 500 TURN LEFT HDG 241 INTERCEPT RADIAL 286 TO",
                "LILAC": "LILAC LILAC 3000 HOLD AT LILAC RIGHT TURN INBOUNDCOURSE 057 ALT 3000 SPEED 230 LEGDIST 5 FAF LUIGE MAP RNW 06L"
            },
            "transitions": []
        },
        {
            "name": "ILS06RY",
            "fixes": {
                "ALLAN": "ALLAN AT OR ABOVE 4000",
                "JANDY": "JANDY 4000 RNW 06R HDG 059 UNTIL 5.4 FROM",
                "KIE": "KIE",
                "D167B": "D167B",
                "MAIKO": "MAIKO",
                "AKASI": "AKASI AT OR ABOVE 4000 HOLD AT AKASI RIGHT TURN INBOUNDCOURSE 092 ALT 4000 SPEED 230 LEGDIST 5 FAF JANDY MAP RNW 06R"
            },
            "transitions": [
                {
                    "name": "GATES",
                    "fixes": {
                        "GATES": "GATES AT OR ABOVE 4000"
                    }
                }
            ]
        },
        {
            "name": "ILS06RZ",
            "fixes": {
                "ALVIS": "ALVIS AT OR ABOVE 3000",
                "ZOHRA": "ZOHRA 3000 RNW 06R HDG 059 UNTIL 5.4 FROM",
                "KIE": "KIE",
                "D167B": "D167B",
                "MAIKO": "MAIKO",
                "AKASI": "AKASI AT OR ABOVE 4000 HOLD AT AKASI RIGHT TURN INBOUNDCOURSE 092 ALT 4000 SPEED 230 LEGDIST 5 FAF ZOHRA MAP RNW 06R"
            },
            "transitions": []
        },
        {
            "name": "ILS24LY",
            "fixes": {
                "CI24L": "CI24L AT OR ABOVE 1500",
                "AMEZY": "AMEZY 1200 RNW 24L HDG 238 UNTIL 3.3 FROM",
                "KIE": "KIE",
                "TOMOH": "TOMOH",
                "GATES": "GATES 4000 HOLD AT GATES RIGHT TURN INBOUNDCOURSE 056 ALT 4000 SPEED 230 LEGDIST 5 FAF AMEZY MAP RNW 24L"
            },
            "transitions": [
                {
                    "name": "MAYAH",
                    "fixes": {
                        "MAYAH": "MAYAH 4000",
                        "AF001": "AF001",
                        "AF002": "AF002",
                        "D049K": "D049K 2600",
                        "QUARZ": "QUARZ AT OR ABOVE 1700 SPEED 185"
                    }
                }
            ]
        },
        {
            "name": "ILS24LZ",
            "fixes": {
                "AMBER": "AMBER AT OR ABOVE 1200",
                "AMEZY": "AMEZY 1200 RNW 24L HDG 238 UNTIL 3.3 FROM",
                "KIE": "KIE",
                "TOMOH": "TOMOH",
                "GATES": "GATES 4000 HOLD AT GATES RIGHT TURN INBOUNDCOURSE 056 ALT 4000 SPEED 230 LEGDIST 5 FAF AMEZY MAP RNW 24L"
            },
            "transitions": [
                {
                    "name": "MAYAH",
                    "fixes": {
                        "MAYAH": "MAYAH 4000",
                        "BB450": "BB450 2600 SPEED 185",
                        "BB451": "BB451",
                        "BB452": "BB452 AT OR ABOVE 2000",
                        "BEIGE": "BEIGE AT OR ABOVE 1600"
                    }
                }
            ]
        },
        {
            "name": "ILS24RY",
            "fixes": {
                "BRASS": "BRASS AT OR ABOVE 1700 SPEED 185",
                "BLOND": "BLOND 1600 RNW 24R TRK 238 INTERCEPT RADIAL 286 TO",
                "LILAC": "LILAC LILAC AT OR ABOVE 3000 HOLD AT LILAC RIGHT TURN INBOUNDCOURSE 057 ALT 3000 SPEED 230 LEGDIST 5 FAF BLOND MAP RNW 24R"
            },
            "transitions": [
                {
                    "name": "MAYAH",
                    "fixes": {
                        "MAYAH": "MAYAH 4000",
                        "AF001": "AF001",
                        "AF002": "AF002",
                        "D049K": "D049K 2600"
                    }
                }
            ]
        },
        {
            "name": "ILS24RZ",
            "fixes": {
                "BEIGE": "BEIGE AT OR ABOVE 1600",
                "BLOND": "BLOND 1600 RNW 24R TRK 238 INTERCEPT RADIAL 286 TO",
                "LILAC": "LILAC LILAC AT OR ABOVE 3000 HOLD AT LILAC RIGHT TURN INBOUNDCOURSE 057 ALT 3000 SPEED 230 LEGDIST 5 FAF BLOND MAP RNW 24R"
            },
            "transitions": [
                {
                    "name": "MAYAH",
                    "fixes": {
                        "MAYAH": "MAYAH 4000",
                        "BB450": "BB450 2600 SPEED 185",
                        "BB451": "BB451",
                        "BB452": "BB452 AT OR ABOVE 2000"
                    }
                }
            ]
        },
        {
            "name": "RNAV06L",
            "fixes": {
                "BERRY": "BERRY AT OR ABOVE 4000 SPEED 230",
                "KADAR": "KADAR 4000",
                "B6L50": "OVERFLY B6L50 228 RNW 06L TRK 059 UNTIL 520 TURN LEFT DIRECT",
                "B6L51": "B6L51",
                "LILAC": "LILAC 3000 HOLD AT LILAC RIGHT TURN INBOUNDCOURSE 057 ALT 3000 SPEED 230 LEGTIME 1 FAF KADAR MAP B6L50"
            },
            "transitions": [
                {
                    "name": "JOLLY",
                    "fixes": {
                        "JOLLY": "JOLLY AT OR ABOVE 6000"
                    }
                }
            ]
        },
        {
            "name": "RNAV06R",
            "fixes": {
                "ALLAN": "ALLAN AT OR ABOVE 4000",
                "FIZZY": "FIZZY 4000",
                "B6R50": "B6R50 2573",
                "B6R51": "OVERFLY B6R51 337 RNW 06R",
                "B6R52": "B6R52",
                "B6R53": "B6R53",
                "MAIKO": "MAIKO",
                "AKASI": "AKASI 4000 HOLD AT AKASI RIGHT TURN INBOUNDCOURSE 092 ALT 4000 SPEED 230 LEGTIME 1 FAF FIZZY MAP B6R51"
            },
            "transitions": [
                {
                    "name": "JOLLY",
                    "fixes": {
                        "JOLLY": "JOLLY AT OR ABOVE 6000"
                    }
                }
            ]
        },
        {
            "name": "RNAV24L",
            "fixes": {
                "AMBER": "AMBER AT OR ABOVE 1200",
                "ATLOT": "ATLOT 1200",
                "B4L50": "OVERFLY B4L50 243 RNW 24L",
                "B4L51": "B4L51",
                "TOMOH": "TOMOH",
                "GATES": "GATES 4000 HOLD AT GATES RIGHT TURN INBOUNDCOURSE 056 ALT 4000 SPEED 210 LEGTIME 1 FAF ATLOT MAP B4L50"
            },
            "transitions": [
                {
                    "name": "MAYAH",
                    "fixes": {
                        "MAYAH": "MAYAH 4000",
                        "BB450": "BB450 2600 SPEED 185",
                        "BB451": "BB451",
                        "BB452": "BB452 AT OR ABOVE 2000",
                        "BEIGE": "BEIGE AT OR ABOVE 1600"
                    }
                }
            ]
        },
        {
            "name": "RNAV24R",
            "fixes": {
                "BEIGE": "BEIGE AT OR ABOVE 1600",
                "MAJOH": "MAJOH 1600",
                "B4R70": "OVERFLY B4R70 396 RNW 24R TRK 239 UNTIL 520",
                "LILAC": "LILAC 3000 HOLD AT LILAC RIGHT TURN INBOUNDCOURSE 057 ALT 3000 SPEED 230 LEGTIME 1 FAF MAJOH MAP B4R70"
            },
            "transitions": [
                {
                    "name": "MAYAH",
                    "fixes": {
                        "MAYAH": "MAYAH 4000",
                        "BB450": "BB450 2600 SPEED 185",
                        "BB451": "BB451",
                        "BB452": "BB452 AT OR ABOVE 2000"
                    }
                }
            ]
        }
    ]
}