{
    "fixes": [
        {
            "name": "AKNAG",
            "lat": 33.338047216666666,
            "lon": 129.84578333333334
        },
        {
            "name": "ARUTU",
            "lat": 33.679316666666665,
            "lon": 129.70106943333334
        },
        {
            "name": "ASESU",
            "lat": 33.88441388333333,
            "lon": 129.812475
        },
        {
            "name": "CF02",
            "lat": 33.618805566666666,
            "lon": 129.78281943333334
        },
        {
            "name": "CF20",
            "lat": 33.86038611666667,
            "lon": 129.835575
        },
        {
            "name": "DB050",
            "lat": 33.77414721666667,
            "lon": 129.79065556666666
        },
        {
            "name": "DB051",
            "lat": 33.649883333333335,
            "lon": 129.76613333333333
        },
        {
            "name": "DB200",
            "lat": 33.70322221666667,
            "lon": 129.85122221666666
        },
        {
            "name": "DB250",
            "lat": 33.72776388333333,
            "lon": 129.78149443333334
        },
        {
            "name": "DB251",
            "lat": 33.86178888333333,
            "lon": 129.80799443333333
        },
        {
            "name": "DGC",
            "lat": 33.676208333333335,
            "lon": 130.38962778333334
        },
        {
            "name": "EMREK",
            "lat": 33.844483333333336,
            "lon": 129.73356111666666
        },
        {
            "name": "GAMJA",
            "lat": 33.417963883333336,
            "lon": 129.82045
        },
        {
            "name": "GOHNO",
            "lat": 33.668869433333334,
            "lon": 129.78253611666668
        },
        {
            "name": "IKE",
            "lat": 33.747511116666665,
            "lon": 129.77685278333334
        },
        {
            "name": "ISE",
            "lat": 33.752383333333334,
            "lon": 129.78205833333334
        },
        {
            "name": "ISMOK",
            "lat": 33.89392778333333,
            "lon": 129.74331388333334
        },
        {
            "name": "KATMO",
            "lat": 33.80259721666667,
            "lon": 129.80692221666666
        },
        {
            "name": "MA02",
            "lat": 33.730675,
            "lon": 129.78218056666665
        },
        {
            "name": "MA20",
            "lat": 33.75701111666667,
            "lon": 129.78434721666667
        },
        {
            "name": "MAPNI",
            "lat": 33.61214721666666,
            "lon": 129.75870278333332
        },
        {
            "name": "OLGAM",
            "lat": 33.66980278333333,
            "lon": 129.77006111666665
        },
        {
            "name": "OMGAX",
            "lat": 33.62162778333333,
            "lon": 129.68975278333335
        },
        {
            "name": "OSTUK",
            "lat": 33.82676111666667,
            "lon": 129.80105833333334
        }
    ],
    "rnws": [
        "RNW 02",
        "RNW 20"
    ],
    "sids": [
        {
            "name": "AKNAG1",
            "rnw": "29",
            "fixes": {},
            "sub_fixes": [
                {
                    "rwy": "RNW 02",
                    "fixes": {
                        "RNW 02": "RNW 02 HDG 017 UNTIL 600 TURN RIGHT DIRECT",
                        "DB200": "DB200",
                        "AKNAG": "AKNAG AT OR ABOVE 7000"
                    }
                },
                {
                    "rwy": "RNW 20",
                    "fixes": {
                        "RNW 20": "RNW 20 HDG 197 UNTIL 600",
                        "AKNAG": "AKNAG AT OR ABOVE 7000"
                    }
                }
            ],
            "transitions": []
        },
        {
            "name": "DGC4",
            "rnw": "29",
            "fixes": {},
            "sub_fixes": [
                {
                    "rwy": "RNW 02",
                    "fixes": {
                        "RNW 02": "RNW 02 TRK 016 UNTIL 600 TURN RIGHT HDG 150 INTERCEPT RADIAL 105 TO",
                        "DGC": "DGC DGC"
                    }
                },
                {
                    "rwy": "RNW 20",
                    "fixes": {
                        "RNW 20": "RNW 20 TRK 196 UNTIL 550 TURN LEFT HDG 060 INTERCEPT RADIAL 105 TO",
                        "DGC": "DGC DGC"
                    }
                }
            ],
            "transitions": []
        },
        {
            "name": "IKI3R",
            "rnw": "29",
            "fixes": {},
            "sub_fixes": [
                {
                    "rwy": "RNW 02",
                    "fixes": {
                        "RNW 02": "RNW 02 TRK 016 UNTIL 1600 TURN RIGHT DIRECT",
                        "ISE": "ISE AT OR ABOVE 4000"
                    }
                },
                {
                    "rwy": "RNW 20",
                    "fixes": {
                        "RNW 20": "RNW 20 TRK 196 UNTIL 1500 TURN RIGHT DIRECT",
                        "ISE": "ISE AT OR ABOVE 4000"
                    }
                }
            ],
            "transitions": []
        }
    ],
    "stars": [
        {
            "name": "AKNAG",
            "runway": "RNW 02",
            "fixes": {
                "AKNAG": "AKNAG AT OR ABOVE 7000",
                "GAMJA": "GAMJA AT OR ABOVE 3000",
                "MAPNI": "MAPNI AT OR ABOVE 1900"
            }
        }
    ],
    "approaches": [
        {
            "name": "VORD02",
            "fixes": {
                "CF02": "CF02 AT OR ABOVE 1700",
                "GOHNO": "GOHNO 1502",
                "MA02": "MA02 323 RNW 02",
                "ISE": "ISE TRK 008 UNTIL 1500 TURN RIGHT DIRECT ISE 3000 HOLD AT ISE LEFT TURN INBOUNDCOURSE 176 ALT 3000 SPEED 170 LEGTIME 1 FAF GOHNO MAP MA02"
            },
            "transitions": [
                {
                    "name": "ISE",
                    "fixes": {
                        "ISE": "ISE AT OR ABOVE 3000 TRK 176 UNTIL 8.0 FROM ISE SPEED 140"
                    }
                }
            ]
        },
        {
            "name": "VORD20",
            "fixes": {
                "CF20": "CF20 AT OR ABOVE 1400",
                "KATMO": "KATMO 1080",
                "MA20": "MA20 137 RNW 20",
                "ISE": "ISE TRK 210 UNTIL 1500 TURN LEFT DIRECT ISE 3000 HOLD AT ISE RIGHT TURN INBOUNDCOURSE 017 ALT 3000 SPEED 170 LEGTIME 1 FAF KATMO MAP MA20"
            },
            "transitions": [
                {
                    "name": "ISE",
                    "fixes": {
                        "ISE": "ISE AT OR ABOVE 3000 TRK 017 UNTIL 7.0 FROM ISE SPEED 140"
                    }
                }
            ]
        },
        {
            "name": "RNAV02",
            "fixes": {
                "MAPNI": "MAPNI AT OR ABOVE 1900",
                "OLGAM": "OLGAM 1500",
                "DB250": "OVERFLY DB250 381 RNW 02",
                "DB251": "OVERFLY DB251 TURN LEFT DIRECT",
                "IKE": "IKE 3000 HOLD AT IKE RIGHT TURN INBOUNDCOURSE 231 ALT 3000 SPEED 170 LEGTIME 1 FAF OLGAM MAP DB250"
            },
            "transitions": [
                {
                    "name": "IKE",
                    "fixes": {
                        "IKE": "IKE AT OR ABOVE 3000",
                        "ARUTU": "ARUTU",
                        "OMGAX": "OMGAX"
                    }
                }
            ]
        },
        {
            "name": "RNAV20",
            "fixes": {
                "ASESU": "ASESU",
                "OSTUK": "OSTUK 1500",
                "DB050": "OVERFLY DB050 485 RNW 20",
                "DB051": "OVERFLY DB051 TURN RIGHT DIRECT",
                "IKE": "IKE 3000 HOLD AT IKE LEFT TURN INBOUNDCOURSE 348 ALT 3000 SPEED 170 LEGTIME 1 FAF OSTUK MAP DB050"
            },
            "transitions": [
                {
                    "name": "IKE",
                    "fixes": {
                        "IKE": "IKE AT OR ABOVE 3000",
                        "EMREK": "EMREK",
                        "ISMOK": "ISMOK AT OR ABOVE 1700"
                    }
                }
            ]
        }
    ]
}