{
    "fixes": [
        {
            "name": "29VOR",
            "lat": 34.31615,
            "lon": 129.29625278333333
        },
        {
            "name": "AGATA",
            "lat": 34.17317778333334,
            "lon": 129.46328333333332
        },
        {
            "name": "BAIRI",
            "lat": 34.00622778333334,
            "lon": 129.5646
        },
        {
            "name": "CL32",
            "lat": 34.211875,
            "lon": 129.41808611666667
        },
        {
            "name": "D148H",
            "lat": 34.177616666666665,
            "lon": 129.438075
        },
        {
            "name": "D152T",
            "lat": 34.008197216666666,
            "lon": 129.56775278333333
        },
        {
            "name": "D323H",
            "lat": 34.37704166666666,
            "lon": 129.22449721666666
        },
        {
            "name": "DT200",
            "lat": 34.354083333333335,
            "lon": 129.42252778333332
        },
        {
            "name": "DT250",
            "lat": 34.20606111666667,
            "lon": 129.42204443333333
        },
        {
            "name": "DT251",
            "lat": 34.31480833333333,
            "lon": 129.29576111666665
        },
        {
            "name": "DT450",
            "lat": 34.31076388333334,
            "lon": 129.30046666666667
        },
        {
            "name": "DT451",
            "lat": 34.32211111666667,
            "lon": 129.13324443333335
        },
        {
            "name": "DT452",
            "lat": 34.26810556666667,
            "lon": 129.196225
        },
        {
            "name": "DT453",
            "lat": 34.249266666666664,
            "lon": 129.371925
        },
        {
            "name": "HAZEL",
            "lat": 34.23511666666667,
            "lon": 129.38941666666668
        },
        {
            "name": "IKE",
            "lat": 33.747511116666665,
            "lon": 129.77685278333334
        },
        {
            "name": "ISE",
            "lat": 33.752383333333334,
            "lon": 129.78205833333334
        },
        {
            "name": "ITTOK",
            "lat": 34.33050278333333,
            "lon": 129.27749443333335
        },
        {
            "name": "KOUJI",
            "lat": 34.34125278333333,
            "lon": 129.26669443333333
        },
        {
            "name": "LAGER",
            "lat": 33.877313883333336,
            "lon": 130.25129443333333
        },
        {
            "name": "ML32",
            "lat": 34.270938883333336,
            "lon": 129.34705
        },
        {
            "name": "MOROM",
            "lat": 34.21656111666667,
            "lon": 129.40023056666666
        },
        {
            "name": "OMDUK",
            "lat": 34.10206111666667,
            "lon": 129.51593056666667
        },
        {
            "name": "OMLAK",
            "lat": 34.242158333333336,
            "lon": 129.380175
        },
        {
            "name": "SARUI",
            "lat": 34.38599166666667,
            "lon": 129.21283888333335
        },
        {
            "name": "SIYAT",
            "lat": 34.166488883333336,
            "lon": 129.59963611666666
        },
        {
            "name": "VCE",
            "lat": 34.281508333333335,
            "lon": 129.33701111666667
        }
    ],
    "rnws": [
        "RNW 14",
        "RNW 32"
    ],
    "sids": [
        {
            "name": "BAIRI1",
            "rnw": "12",
            "fixes": {},
            "sub_fixes": [
                {
                    "rwy": "RNW 14",
                    "fixes": {
                        "RNW 14": "RNW 14 HDG 144 UNTIL 600",
                        "BAIRI": "BAIRI AT OR ABOVE 4000",
                        "IKE": "IKE"
                    }
                },
                {
                    "rwy": "RNW 32",
                    "fixes": {
                        "RNW 32": "RNW 32 HDG 324 UNTIL 900 TURN RIGHT DIRECT",
                        "DT200": "DT200",
                        "BAIRI": "BAIRI AT OR ABOVE 4000",
                        "IKE": "IKE"
                    }
                }
            ],
            "transitions": []
        },
        {
            "name": "IKISH5",
            "rnw": "12",
            "fixes": {},
            "sub_fixes": [
                {
                    "rwy": "RNW 14",
                    "fixes": {
                        "RNW 14": "RNW 14 TRK 143 UNTIL 900",
                        "D152T": "D152T AT OR ABOVE 4000",
                        "ISE": "ISE"
                    }
                },
                {
                    "rwy": "RNW 32",
                    "fixes": {
                        "RNW 32": "RNW 32 TRK 323 UNTIL 710 TRK 338 UNTIL 900 TURN RIGHT HDG 197 INTERCEPT RADIAL 152 TO",
                        "D152T": "D152T D152T AT OR ABOVE 4000",
                        "ISE": "ISE"
                    }
                }
            ],
            "transitions": []
        },
        {
            "name": "LAGER2",
            "rnw": "12",
            "fixes": {},
            "sub_fixes": [
                {
                    "rwy": "RNW 14",
                    "fixes": {
                        "RNW 14": "RNW 14 TRK 143 UNTIL 900",
                        "LAGER": "LAGER"
                    }
                },
                {
                    "rwy": "RNW 32",
                    "fixes": {
                        "RNW 32": "RNW 32 TRK 323 UNTIL 710 TRK 338 UNTIL 900 TURN RIGHT HDG 170 INTERCEPT RADIAL 125 TO",
                        "LAGER": "LAGER LAGER"
                    }
                }
            ],
            "transitions": []
        },
        {
            "name": "SIYAT1",
            "rnw": "12",
            "fixes": {},
            "sub_fixes": [
                {
                    "rwy": "RNW 14",
                    "fixes": {
                        "RNW 14": "RNW 14 HDG 144 UNTIL 900",
                        "SIYAT": "SIYAT",
                        "LAGER": "LAGER"
                    }
                },
                {
                    "rwy": "RNW 32",
                    "fixes": {
                        "RNW 32": "RNW 32 HDG 324 UNTIL 900 TURN RIGHT DIRECT",
                        "DT200": "DT200",
                        "SIYAT": "SIYAT",
                        "LAGER": "LAGER"
                    }
                }
            ],
            "transitions": []
        }
    ],
    "stars": [
        {
            "name": "OMDUK",
            "runway": "RNW 14 RNW 32",
            "fixes": {
                "OMDUK": "OMDUK AT OR ABOVE 4000",
                "AGATA": "AGATA AT OR ABOVE 3000"
            }
        }
    ],
    "approaches": [
        {
            "name": "VORD14",
            "fixes": {
                "KOUJI": "KOUJI 1653",
                "29VOR": "29VOR AT OR ABOVE 940 RNW 14",
                "VCE": "VCE TRK 143 UNTIL 3000 TURN LEFT DIRECT VCE HOLD AT VCE RIGHT TURN INBOUNDCOURSE 323 SPEED 250 LEGTIME 1 FAF KOUJI MAP RNW 14"
            },
            "transitions": [
                {
                    "name": "VCE",
                    "fixes": {
                        "VCE": "VCE AT OR ABOVE 3000 TRK 345 UNTIL 8.0 FROM VCE SPEED 200 TURN LEFT DIRECT",
                        "D323H": "D323H AT OR ABOVE 1800"
                    }
                }
            ]
        },
        {
            "name": "VORD32",
            "fixes": {
                "MOROM": "MOROM 1727 RNW 32",
                "VCE": "VCE TRK 328 UNTIL 3000 TURN LEFT DIRECT VCE HOLD AT VCE LEFT TURN INBOUNDCOURSE 159 SPEED 250 LEGTIME 1 FAF MOROM MAP RNW 32"
            },
            "transitions": [
                {
                    "name": "VCE",
                    "fixes": {
                        "VCE": "VCE AT OR ABOVE 3000 TRK 170 UNTIL 8.0 FROM VCE SPEED 200 TURN LEFT DIRECT",
                        "D148H": "D148H AT OR ABOVE 2000"
                    }
                }
            ]
        },
        {
            "name": "LOCY32",
            "fixes": {
                "CL32": "CL32 AT OR ABOVE 1800",
                "HAZEL": "HAZEL 1348",
                "ML32": "ML32 442 RNW 32 TRK 323 UNTIL 710 TRK 330 UNTIL 3000 TURN LEFT DIRECT",
                "VCE": "VCE HOLD AT VCE LEFT TURN INBOUNDCOURSE 159 ALT 3000 SPEED 250 LEGTIME 1 FAF HAZEL MAP ML32"
            },
            "transitions": [
                {
                    "name": "VCE",
                    "fixes": {
                        "VCE": "VCE AT OR ABOVE 3000 TRK 159 UNTIL 11.0 FROM VCE SPEED 200"
                    }
                }
            ]
        },
        {
            "name": "LOCZ32",
            "fixes": {
                "AGATA": "AGATA AT OR ABOVE 3000",
                "HAZEL": "HAZEL 1348",
                "ML32": "ML32 442 RNW 32 TRK 323 UNTIL 710 TRK 330 UNTIL 3000 TURN LEFT DIRECT",
                "VCE": "VCE HOLD AT VCE LEFT TURN INBOUNDCOURSE 159 ALT 3000 SPEED 250 LEGTIME 1 FAF HAZEL MAP ML32"
            },
            "transitions": []
        },
        {
            "name": "RNAV14",
            "fixes": {
                "SARUI": "SARUI AT OR ABOVE 1600 SPEED 210",
                "ITTOK": "ITTOK 1300",
                "DT450": "DT450 AT OR ABOVE 776 RNW 14",
                "DT453": "OVERFLY DT453",
                "AGATA": "AGATA 3000 HOLD AT AGATA RIGHT TURN INBOUNDCOURSE 324 ALT 3000 SPEED 230 LEGTIME 1 FAF ITTOK MAP RNW 14"
            },
            "transitions": [
                {
                    "name": "AGATA",
                    "fixes": {
                        "AGATA": "AGATA",
                        "DT452": "DT452 AT OR ABOVE 2800",
                        "DT451": "DT451 AT OR ABOVE 1900"
                    }
                }
            ]
        },
        {
            "name": "RNAV32",
            "fixes": {
                "DT250": "DT250 AT OR ABOVE 1200 SPEED 200",
                "OMLAK": "OMLAK 1200 RNW 32",
                "DT251": "OVERFLY DT251 TURN RIGHT DIRECT",
                "AGATA": "AGATA 3000 HOLD AT AGATA RIGHT TURN INBOUNDCOURSE 324 ALT 3000 SPEED 230 LEGTIME 1 FAF OMLAK MAP RNW 32"
            },
            "transitions": [
                {
                    "name": "AGATA",
                    "fixes": {
                        "AGATA": "AGATA AT OR ABOVE 3000"
                    }
                }
            ]
        }
    ]
}