{
    "fixes": [
        {
            "name": "AF001",
            "lat": 32.320700433333336,
            "lon": 131.37224068333333
        },
        {
            "name": "AF002",
            "lat": 32.33037293333334,
            "lon": 131.44861978333333
        },
        {
            "name": "AF003",
            "lat": 32.32296493333333,
            "lon": 131.52535361666668
        },
        {
            "name": "AF004",
            "lat": 32.18017603333333,
            "lon": 131.84993861666666
        },
        {
            "name": "AF005",
            "lat": 32.09399153333333,
            "lon": 131.86657828333333
        },
        {
            "name": "AF006",
            "lat": 32.197607133333335,
            "lon": 131.84326306666668
        },
        {
            "name": "AF007",
            "lat": 32.13048058333333,
            "lon": 131.86272211666667
        },
        {
            "name": "BARBA",
            "lat": 32.88140833333333,
            "lon": 131.33365278333332
        },
        {
            "name": "CF28",
            "lat": 32.056930566666665,
            "lon": 131.60828888333333
        },
        {
            "name": "CI28",
            "lat": 32.057261116666666,
            "lon": 131.60636666666667
        },
        {
            "name": "D036O",
            "lat": 32.29943888333333,
            "lon": 131.59677778333332
        },
        {
            "name": "D094W",
            "lat": 32.09971388333334,
            "lon": 131.90444166666666
        },
        {
            "name": "D100U",
            "lat": 32.061366666666665,
            "lon": 131.865475
        },
        {
            "name": "D109U",
            "lat": 32.006777783333334,
            "lon": 131.85679166666668
        },
        {
            "name": "FF28",
            "lat": 32.063858333333336,
            "lon": 131.56791388333335
        },
        {
            "name": "FT28",
            "lat": 32.074216666666665,
            "lon": 131.5909
        },
        {
            "name": "HYUGA",
            "lat": 32.13427778333333,
            "lon": 132.04043888333334
        },
        {
            "name": "KASHI",
            "lat": 32.862966666666665,
            "lon": 131.597925
        },
        {
            "name": "MT28",
            "lat": 32.07909443333333,
            "lon": 131.48316666666668
        },
        {
            "name": "NH35A",
            "lat": 32.38009721666667,
            "lon": 132.04423333333332
        },
        {
            "name": "NH35B",
            "lat": 32.288263883333336,
            "lon": 132.09622221666666
        },
        {
            "name": "NH35C",
            "lat": 32.19015,
            "lon": 132.12856111666667
        },
        {
            "name": "NHT",
            "lat": 32.08041111666667,
            "lon": 131.45378333333332
        },
        {
            "name": "NHT30",
            "lat": 32.33745556666667,
            "lon": 131.95964443333332
        },
        {
            "name": "NHT40",
            "lat": 32.205133333333336,
            "lon": 132.224975
        },
        {
            "name": "NIPPO",
            "lat": 32.736466666666665,
            "lon": 131.88340556666665
        },
        {
            "name": "SUC",
            "lat": 32.755969433333334,
            "lon": 132.99664721666667
        },
        {
            "name": "SUC30",
            "lat": 32.74681388333333,
            "lon": 132.40387221666666
        },
        {
            "name": "SUC60",
            "lat": 32.95821111666667,
            "lon": 131.83815556666667
        },
        {
            "name": "TENSO",
            "lat": 32.296511116666665,
            "lon": 132.81025833333334
        },
        {
            "name": "TFE",
            "lat": 33.48971388333333,
            "lon": 131.72875556666668
        },
        {
            "name": "ZARON",
            "lat": 32.26158611666666,
            "lon": 131.80729166666666
        }
    ],
    "rnws": [
        "RNW 10",
        "RNW 28"
    ],
    "sids": [
        {
            "name": "NIPPO6",
            "rnw": "31",
            "fixes": {},
            "sub_fixes": [
                {
                    "rwy": "RNW 10",
                    "fixes": {
                        "RNW 10": "RNW 10 TRK 109 UNTIL 760",
                        "NIPPO": "NIPPO AT OR ABOVE 16000"
                    }
                },
                {
                    "rwy": "RNW 28",
                    "fixes": {
                        "RNW 28": "RNW 28 TRK 289 UNTIL 760 TURN LEFT TRK 006 INTERCEPT RADIAL 036 TO",
                        "NIPPO": "NIPPO NIPPO AT OR ABOVE 16000"
                    }
                }
            ],
            "transitions": [
                {
                    "name": "ASHIZ",
                    "fixes": [
                        "SUC30",
                        "SUC"
                    ]
                },
                {
                    "name": "SOBO",
                    "fixes": [
                        "KASHI",
                        "KASHI",
                        "BARBA"
                    ]
                },
                {
                    "name": "TFE",
                    "fixes": [
                        "SUC60",
                        "TFE"
                    ]
                }
            ]
        },
        {
            "name": "TENSO3",
            "rnw": "31",
            "fixes": {
                "NHT30": "NHT30",
                "NH35A": "NH35A",
                "NH35B": "NH35B",
                "NH35C": "NH35C",
                "TENSO": "TENSO"
            },
            "sub_fixes": [
                {
                    "rwy": "RNW 10",
                    "fixes": {
                        "RNW 10": "RNW 10 TRK 109 UNTIL 760"
                    }
                },
                {
                    "rwy": "RNW 28",
                    "fixes": {
                        "RNW 28": "RNW 28 TRK 289 UNTIL 760 TURN LEFT TRK 021 INTERCEPT RADIAL 066 TO",
                        "NHT30": "NHT30"
                    }
                }
            ],
            "transitions": []
        },
        {
            "name": "YATOG2",
            "rnw": "28",
            "fixes": {
                "NHT": "NHT",
                "AF001": "AF001",
                "AF002": "AF002",
                "AF003": "AF003",
                "D036O": "D036O",
                "NIPPO": "NIPPO AT OR ABOVE 16000"
            },
            "sub_fixes": [],
            "transitions": [
                {
                    "name": "ASHIZ",
                    "fixes": [
                        "SUC30",
                        "SUC"
                    ]
                },
                {
                    "name": "SOBO",
                    "fixes": [
                        "KASHI",
                        "KASHI",
                        "BARBA"
                    ]
                },
                {
                    "name": "TFE",
                    "fixes": [
                        "SUC60",
                        "TFE"
                    ]
                }
            ]
        }
    ],
    "stars": [
        {
            "name": "TENSO",
            "runway": "RNW 28",
            "fixes": {
                "TENSO": "TENSO",
                "NHT40": "NHT40 HDG 241 INTERCEPT RADIAL 271 TO",
                "HYUGA": "HYUGA HYUGA"
            }
        }
    ],
    "approaches": [
        {
            "name": "ILSX28",
            "fixes": {
                "CI28": "CI28 2000",
                "FF28": "FF28 2000 RNW 28 TRK 289 UNTIL 700 TURN RIGHT DIRECT",
                "ZARON": "ZARON AT OR ABOVE 5000 HOLD AT ZARON LEFT TURN INBOUNDCOURSE 246 ALT 5000 LEGDIST 7 FAF FF28 MAP RNW 28"
            },
            "transitions": []
        },
        {
            "name": "ILSY28",
            "fixes": {
                "CF28": "CF28 2000",
                "FF28": "FF28 2000 RNW 28 TRK 289 UNTIL 700 TURN RIGHT DIRECT",
                "ZARON": "ZARON AT OR ABOVE 5000 HOLD AT ZARON LEFT TURN INBOUNDCOURSE 246 ALT 5000 LEGDIST 7 FAF FF28 MAP RNW 28"
            },
            "transitions": [
                {
                    "name": "HYUGA",
                    "fixes": {
                        "HYUGA": "HYUGA AT OR BELOW 15000 AT OR ABOVE 10000",
                        "D094W": "D094W AT OR BELOW 10000 HDG 260 UNTIL 15.0 FROM",
                        "NHT": "NHT"
                    }
                }
            ]
        },
        {
            "name": "ILSZ28",
            "fixes": {
                "CF28": "CF28 2000",
                "FF28": "FF28 2000 RNW 28 TRK 289 UNTIL 700 TURN RIGHT DIRECT",
                "ZARON": "ZARON AT OR ABOVE 5000 HOLD AT ZARON LEFT TURN INBOUNDCOURSE 246 ALT 5000 LEGDIST 7 FAF FF28 MAP RNW 28"
            },
            "transitions": [
                {
                    "name": "ZARON",
                    "fixes": {
                        "ZARON": "ZARON AT OR BELOW 6000 AT OR ABOVE 5000",
                        "AF004": "AF004",
                        "AF005": "AF005",
                        "D109U": "D109U"
                    }
                }
            ]
        },
        {
            "name": "VORY28",
            "fixes": {
                "FT28": "FT28 2000",
                "MT28": "MT28 574 RNW 28 TRK 280 UNTIL 760 TURN RIGHT DIRECT",
                "ZARON": "ZARON AT OR ABOVE 5000 HOLD AT ZARON LEFT TURN INBOUNDCOURSE 246 ALT 5000 LEGDIST 7 FAF FT28 MAP MT28"
            },
            "transitions": [
                {
                    "name": "HYUGA",
                    "fixes": {
                        "HYUGA": "HYUGA AT OR BELOW 15000 AT OR ABOVE 10000",
                        "D094W": "D094W AT OR BELOW 10000 HDG 260 UNTIL 15.0 FROM",
                        "NHT": "NHT"
                    }
                }
            ]
        },
        {
            "name": "VORZ28",
            "fixes": {
                "FT28": "FT28 2000",
                "MT28": "MT28 574 RNW 28 TRK 280 UNTIL 760 TURN RIGHT DIRECT",
                "ZARON": "ZARON AT OR ABOVE 5000 HOLD AT ZARON LEFT TURN INBOUNDCOURSE 246 ALT 5000 LEGDIST 7 FAF FT28 MAP MT28"
            },
            "transitions": [
                {
                    "name": "ZARON",
                    "fixes": {
                        "ZARON": "ZARON AT OR BELOW 6000 AT OR ABOVE 5000",
                        "AF006": "AF006",
                        "AF007": "AF007",
                        "D100U": "D100U"
                    }
                }
            ]
        }
    ]
}