{
    "fixes": [
        {
            "name": "AF001",
            "lat": 33.56090493333333,
            "lon": 131.97422908333334
        },
        {
            "name": "AF002",
            "lat": 33.60593555,
            "lon": 131.94816093333333
        },
        {
            "name": "AF003",
            "lat": 33.64478025,
            "lon": 131.91036506666666
        },
        {
            "name": "BAIEN",
            "lat": 33.62233056666667,
            "lon": 131.84993611666667
        },
        {
            "name": "CF01Y",
            "lat": 33.322833333333335,
            "lon": 131.73574166666666
        },
        {
            "name": "D007B",
            "lat": 33.52238333333333,
            "lon": 131.73750556666667
        },
        {
            "name": "D038M",
            "lat": 33.67570833333333,
            "lon": 131.86246666666668
        },
        {
            "name": "D091M",
            "lat": 33.51213611666667,
            "lon": 131.98647221666667
        },
        {
            "name": "D132J",
            "lat": 33.393830566666665,
            "lon": 131.89181943333332
        },
        {
            "name": "DONAR",
            "lat": 33.351427783333335,
            "lon": 132.48463888333333
        },
        {
            "name": "DONKO",
            "lat": 33.79465278333333,
            "lon": 131.94425833333332
        },
        {
            "name": "FIATO",
            "lat": 34.01039721666667,
            "lon": 133.06515833333333
        },
        {
            "name": "FO151",
            "lat": 33.418444433333335,
            "lon": 131.81864443333333
        },
        {
            "name": "FO152",
            "lat": 33.439908333333335,
            "lon": 131.736775
        },
        {
            "name": "FO161",
            "lat": 33.65505556666667,
            "lon": 131.94627778333333
        },
        {
            "name": "FO162",
            "lat": 33.660055566666664,
            "lon": 131.94022221666665
        },
        {
            "name": "FO901",
            "lat": 33.380861116666665,
            "lon": 131.73625
        },
        {
            "name": "FO950",
            "lat": 33.44295278333333,
            "lon": 131.73680278333333
        },
        {
            "name": "FO951",
            "lat": 33.56574166666667,
            "lon": 131.777625
        },
        {
            "name": "FO952",
            "lat": 33.54428333333333,
            "lon": 131.75024443333334
        },
        {
            "name": "FO953",
            "lat": 33.51988333333333,
            "lon": 131.73748333333333
        },
        {
            "name": "FUSHA",
            "lat": 33.293813883333335,
            "lon": 132.13738056666668
        },
        {
            "name": "HOVER",
            "lat": 33.343375,
            "lon": 131.73593611666666
        },
        {
            "name": "JEWEL",
            "lat": 33.647816666666664,
            "lon": 131.84024721666665
        },
        {
            "name": "KABOS",
            "lat": 33.68921111666667,
            "lon": 131.837975
        },
        {
            "name": "KAREI",
            "lat": 33.63346666666666,
            "lon": 131.73849166666668
        },
        {
            "name": "KUROZ",
            "lat": 33.572408333333335,
            "lon": 131.73794721666667
        },
        {
            "name": "LUISU",
            "lat": 33.293269433333336,
            "lon": 131.73540833333334
        },
        {
            "name": "MD218",
            "lat": 33.51404443333333,
            "lon": 131.74620833333333
        },
        {
            "name": "MELDY",
            "lat": 33.575966666666666,
            "lon": 131.78951666666666
        },
        {
            "name": "METAL",
            "lat": 33.30563333333333,
            "lon": 131.76145278333334
        },
        {
            "name": "MONKY",
            "lat": 33.36660833333333,
            "lon": 131.75618611666667
        },
        {
            "name": "MS01",
            "lat": 33.448602783333335,
            "lon": 131.73740278333332
        },
        {
            "name": "MYE",
            "lat": 33.83010278333333,
            "lon": 132.69222221666666
        },
        {
            "name": "OOITA",
            "lat": 33.22034443333333,
            "lon": 131.70325
        },
        {
            "name": "RF001",
            "lat": 33.40446111666667,
            "lon": 131.79693796666666
        },
        {
            "name": "RF002",
            "lat": 33.4036544,
            "lon": 131.76925415
        },
        {
            "name": "RF003",
            "lat": 33.416581216666664,
            "lon": 131.74628408333334
        },
        {
            "name": "RW01",
            "lat": 33.465980566666666,
            "lon": 131.73700556666665
        },
        {
            "name": "RW19",
            "lat": 33.493025,
            "lon": 131.73724443333333
        },
        {
            "name": "SALTY",
            "lat": 33.85268056666666,
            "lon": 132.92522221666667
        },
        {
            "name": "SELEN",
            "lat": 33.305230566666665,
            "lon": 131.82307221666667
        },
        {
            "name": "SONIC",
            "lat": 33.376758333333335,
            "lon": 131.73621943333333
        },
        {
            "name": "SPIDE",
            "lat": 33.64450278333333,
            "lon": 132.97166666666666
        },
        {
            "name": "SUC",
            "lat": 32.755969433333334,
            "lon": 132.99664721666667
        },
        {
            "name": "TACHI",
            "lat": 33.423405566666666,
            "lon": 131.83283611666667
        },
        {
            "name": "TANSO",
            "lat": 33.468488883333336,
            "lon": 131.85937221666666
        },
        {
            "name": "TFE",
            "lat": 33.48971388333333,
            "lon": 131.72875556666668
        },
        {
            "name": "YANAI",
            "lat": 33.77303056666667,
            "lon": 131.98809166666666
        }
    ],
    "rnws": [
        "RNW 01",
        "RNW 19"
    ],
    "sids": [
        {
            "name": "EBOSH2",
            "rnw": "18R",
            "fixes": {},
            "sub_fixes": [
                {
                    "rwy": "RNW 01",
                    "fixes": {
                        "RNW 01": "RNW 01 HDG 007 UNTIL 500",
                        "YANAI": "YANAI"
                    }
                },
                {
                    "rwy": "RNW 19",
                    "fixes": {
                        "RNW 19": "RNW 19 HDG 187 UNTIL 500 TURN LEFT DIRECT",
                        "YANAI": "YANAI"
                    }
                }
            ],
            "transitions": []
        },
        {
            "name": "FUSHA1",
            "rnw": "18R",
            "fixes": {},
            "sub_fixes": [
                {
                    "rwy": "RNW 01",
                    "fixes": {
                        "RNW 01": "RNW 01 HDG 007 UNTIL 500 TURN RIGHT DIRECT",
                        "FUSHA": "FUSHA"
                    }
                },
                {
                    "rwy": "RNW 19",
                    "fixes": {
                        "RNW 19": "RNW 19 HDG 187 UNTIL 500",
                        "FUSHA": "FUSHA"
                    }
                }
            ],
            "transitions": [
                {
                    "name": "ASHIZ",
                    "fixes": [
                        "SUC"
                    ]
                },
                {
                    "name": "DONAR",
                    "fixes": [
                        "DONAR"
                    ]
                },
                {
                    "name": "DOUGO",
                    "fixes": [
                        "DONAR",
                        "MYE"
                    ]
                },
                {
                    "name": "FIATO",
                    "fixes": [
                        "DONAR",
                        "SALTY",
                        "FIATO"
                    ]
                },
                {
                    "name": "SALTY",
                    "fixes": [
                        "DONAR",
                        "SALTY"
                    ]
                },
                {
                    "name": "SPIDE",
                    "fixes": [
                        "DONAR",
                        "SPIDE"
                    ]
                }
            ]
        },
        {
            "name": "TFE2R",
            "rnw": "18R",
            "fixes": {},
            "sub_fixes": [
                {
                    "rwy": "RNW 01",
                    "fixes": {
                        "RNW 01": "RNW 01 TRK 007 UNTIL 500 TURN RIGHT HDG 177 INTERCEPT RADIAL 132 TO",
                        "D132J": "D132J OVERFLY D132J TURN RIGHT DIRECT",
                        "TFE": "TFE AT OR ABOVE 4000"
                    }
                },
                {
                    "rwy": "RNW 19",
                    "fixes": {
                        "RNW 19": "RNW 19 TRK 187 UNTIL 520",
                        "D132J": "OVERFLY D132J TURN RIGHT DIRECT",
                        "TFE": "TFE AT OR ABOVE 4000"
                    }
                }
            ],
            "transitions": []
        },
        {
            "name": "TOYO3",
            "rnw": "18R",
            "fixes": {},
            "sub_fixes": [
                {
                    "rwy": "RNW 01",
                    "fixes": {
                        "RNW 01": "RNW 01 HDG 007 UNTIL 500 TURN RIGHT DIRECT",
                        "TACHI": "TACHI",
                        "OOITA": "OOITA AT OR ABOVE 4000"
                    }
                },
                {
                    "rwy": "RNW 19",
                    "fixes": {
                        "RNW 19": "RNW 19 HDG 187 UNTIL 500",
                        "FO901": "FO901",
                        "OOITA": "OOITA AT OR ABOVE 4000"
                    }
                }
            ],
            "transitions": []
        }
    ],
    "stars": [
        {
            "name": "BAIEN",
            "runway": "RNW 19",
            "fixes": {
                "YANAI": "YANAI AT OR ABOVE 5000",
                "BAIEN": "BAIEN AT OR ABOVE 3000"
            }
        },
        {
            "name": "HOVER",
            "runway": "RNW 01",
            "fixes": {
                "YANAI": "YANAI AT OR ABOVE 5000",
                "FO161": "FO161 AT OR ABOVE 3000",
                "SELEN": "SELEN SPEED 220",
                "METAL": "METAL SPEED 220",
                "HOVER": "HOVER AT OR ABOVE 1800"
            }
        },
        {
            "name": "JEWEL",
            "runway": "RNW 01 RNW 19",
            "fixes": {
                "DONKO": "DONKO AT OR ABOVE 5000",
                "JEWEL": "JEWEL AT OR ABOVE 3000"
            }
        },
        {
            "name": "KABOS",
            "runway": "RNW 19",
            "fixes": {
                "YANAI": "YANAI AT OR ABOVE 5000",
                "KABOS": "KABOS AT OR ABOVE 3000"
            }
        },
        {
            "name": "LUISU",
            "runway": "RNW 01 RNW 19",
            "fixes": {
                "OOITA": "OOITA AT OR ABOVE 4000",
                "LUISU": "LUISU AT OR ABOVE 1800"
            }
        },
        {
            "name": "TANSO",
            "runway": "RNW 01",
            "fixes": {
                "YANAI": "YANAI AT OR ABOVE 5000",
                "FO162": "FO162 AT OR ABOVE 3000",
                "TANSO": "TANSO AT OR ABOVE 2400"
            }
        }
    ],
    "approaches": [
        {
            "name": "VORD01",
            "fixes": {
                "MONKY": "MONKY 1986",
                "MS01": "MS01 388 RNW 01 TRK 357 UNTIL 520 HDG 061 INTERCEPT RADIAL 091 TO",
                "TFE": "TFE TRK 091 UNTIL 3000 TURN LEFT DIRECT TFE HOLD AT TFE LEFT TURN INBOUNDCOURSE 225 ALT 3000 SPEED 220 LEGTIME 1 FAF MONKY MAP MS01"
            },
            "transitions": [
                {
                    "name": "TFE",
                    "fixes": {
                        "TFE": "TFE AT OR ABOVE 3000 TRK 195 UNTIL 10.0 FROM TFE SPEED 200"
                    }
                }
            ]
        },
        {
            "name": "ILSX01",
            "fixes": {
                "LUISU": "LUISU AT OR ABOVE 1800",
                "SONIC": "SONIC 1800 RNW 01",
                "D007B": "OVERFLY D007B TURN RIGHT HDG 136 INTERCEPT RADIAL 091 TO",
                "TFE": "TFE TRK 091 UNTIL 3000 TURN LEFT DIRECT TFE HOLD AT TFE LEFT TURN INBOUNDCOURSE 225 ALT 3000 SPEED 220 LEGTIME 1 FAF SONIC MAP RNW 01"
            },
            "transitions": []
        },
        {
            "name": "ILSY01",
            "fixes": {
                "CF01Y": "CF01Y AT OR ABOVE 1900",
                "SONIC": "SONIC 1800 RNW 01",
                "D007B": "OVERFLY D007B TURN RIGHT HDG 136 INTERCEPT RADIAL 091 TO",
                "TFE": "TFE TRK 091 UNTIL 3000 TURN LEFT DIRECT TFE HOLD AT TFE LEFT TURN INBOUNDCOURSE 225 ALT 3000 SPEED 220 LEGTIME 1 FAF SONIC MAP RNW 01"
            },
            "transitions": [
                {
                    "name": "TFE",
                    "fixes": {
                        "TFE": "TFE AT OR ABOVE 3000 TRK 203 UNTIL 10.0 FROM TFE SPEED 200"
                    }
                }
            ]
        },
        {
            "name": "ILSZ01",
            "fixes": {
                "HOVER": "HOVER AT OR ABOVE 1800",
                "SONIC": "SONIC 1800 RNW 01 HDG 007 UNTIL 2.0 FROM",
                "TFE": "TFE TURN RIGHT HDG 136 INTERCEPT RADIAL 091 TO TFE TRK 091 UNTIL 3000 TURN LEFT DIRECT TFE HOLD AT TFE LEFT TURN INBOUNDCOURSE 225 ALT 3000 SPEED 220 LEGTIME 1 FAF SONIC MAP RNW 01"
            },
            "transitions": []
        },
        {
            "name": "RNAV01",
            "fixes": {
                "TANSO": "TANSO AT OR ABOVE 2400 SPEED 220",
                "FO151": "FO151 2400 SPEED 165",
                "RF001": "RF001",
                "RF002": "RF002",
                "RF003": "RF003",
                "FO152": "FO152 570 RNW 01 TRK 007 UNTIL 500",
                "BAIEN": "BAIEN 3000 HOLD AT BAIEN LEFT TURN INBOUNDCOURSE 225 ALT 3000 SPEED 210 LEGDIST 5 FAF FO151 MAP RNW 01"
            },
            "transitions": []
        },
        {
            "name": "RNAVY19",
            "fixes": {
                "BAIEN": "BAIEN AT OR ABOVE 3000 SPEED 210 BAIEN 3000 HOLD AT BAIEN LEFT TURN INBOUNDCOURSE 225 ALT 3000 SPEED 210 LEGDIST 5 FAF FO951 MAP RNW 19",
                "FO951": "FO951 1700",
                "FO952": "FO952 1101 SPEED 165",
                "FO953": "FO953 578 RNW 19 TRK 187 UNTIL 500 TURN LEFT DIRECT"
            },
            "transitions": []
        },
        {
            "name": "RNAVZ19",
            "fixes": {
                "KAREI": "KAREI AT OR ABOVE 1600",
                "KUROZ": "KUROZ 1600 RNW 19",
                "FO950": "OVERFLY FO950 TURN LEFT DIRECT",
                "TFE": "TFE 3000 HOLD AT TFE LEFT TURN INBOUNDCOURSE 225 ALT 3000 SPEED 220 LEGTIME 1 FAF KUROZ MAP RNW 19"
            },
            "transitions": [
                {
                    "name": "KABOS",
                    "fixes": {
                        "KABOS": "KABOS AT OR ABOVE 3000"
                    }
                }
            ]
        },
        {
            "name": "VORA01",
            "fixes": {
                "JEWEL": "JEWEL AT OR ABOVE 3000 JEWEL HOLD AT JEWEL LEFT TURN INBOUNDCOURSE 218 ALT 3000 SPEED 200 LEGDIST 5 FAF MELDY MAP MD218",
                "MELDY": "MELDY 760",
                "MD218": "MD218 760 RNW 01",
                "TFE": "TFE TRK 218 UNTIL 1.1 FROM TFE TURN LEFT HDG 046 INTERCEPT RADIAL 091 TO",
                "D091M": "D091M D091M",
                "AF001": "AF001",
                "AF002": "AF002",
                "AF003": "AF003",
                "D038M": "D038M 3000"
            },
            "transitions": []
        },
        {
            "name": "VORA19",
            "fixes": {
                "JEWEL": "JEWEL AT OR ABOVE 3000 JEWEL HOLD AT JEWEL LEFT TURN INBOUNDCOURSE 218 ALT 3000 SPEED 200 LEGDIST 5 FAF MELDY MAP MD218",
                "MELDY": "MELDY 760",
                "MD218": "MD218 760 RNW 19",
                "TFE": "TFE TRK 218 UNTIL 1.1 FROM TFE TURN LEFT HDG 046 INTERCEPT RADIAL 091 TO",
                "D091M": "D091M D091M",
                "AF001": "AF001",
                "AF002": "AF002",
                "AF003": "AF003",
                "D038M": "D038M 3000"
            },
            "transitions": []
        }
    ]
}