{
    "fixes": [
        {
            "name": "34VOR",
            "lat": 32.8733,
            "lon": 129.97361388333334
        },
        {
            "name": "AINOH",
            "lat": 32.771425,
            "lon": 130.104675
        },
        {
            "name": "AKMEP",
            "lat": 32.859422216666665,
            "lon": 129.70272221666667
        },
        {
            "name": "AKNAG",
            "lat": 33.338047216666666,
            "lon": 129.84578333333334
        },
        {
            "name": "CARCO",
            "lat": 32.71714721666667,
            "lon": 129.04657221666668
        },
        {
            "name": "CF153",
            "lat": 33.05677778333333,
            "lon": 129.79478333333333
        },
        {
            "name": "CF312",
            "lat": 32.8018,
            "lon": 130.097825
        },
        {
            "name": "CF32Y",
            "lat": 32.77202221666667,
            "lon": 130.06785833333333
        },
        {
            "name": "CHARA",
            "lat": 32.81033888333333,
            "lon": 130.02711111666667
        },
        {
            "name": "D279M",
            "lat": 32.91255833333334,
            "lon": 129.66076111666666
        },
        {
            "name": "DGC",
            "lat": 33.676208333333335,
            "lon": 130.38962778333334
        },
        {
            "name": "FU200",
            "lat": 33.026277783333335,
            "lon": 129.79655556666665
        },
        {
            "name": "FU201",
            "lat": 32.95861111666667,
            "lon": 129.86894443333333
        },
        {
            "name": "FU202",
            "lat": 32.85516666666667,
            "lon": 129.84652778333333
        },
        {
            "name": "FU250",
            "lat": 32.87463888333333,
            "lon": 129.95861666666667
        },
        {
            "name": "FU251",
            "lat": 32.972394433333335,
            "lon": 129.85421943333333
        },
        {
            "name": "FU400",
            "lat": 32.85158333333333,
            "lon": 129.98322221666666
        },
        {
            "name": "FU401",
            "lat": 32.655194433333335,
            "lon": 130.19180556666666
        },
        {
            "name": "FU450",
            "lat": 32.93125,
            "lon": 129.8982
        },
        {
            "name": "FU451",
            "lat": 32.84175556666667,
            "lon": 129.99366111666666
        },
        {
            "name": "FUBKI",
            "lat": 32.78551388333333,
            "lon": 130.05354166666666
        },
        {
            "name": "GLOVR",
            "lat": 33.231355566666664,
            "lon": 130.03926388333332
        },
        {
            "name": "GOROH",
            "lat": 32.977075,
            "lon": 130.29847221666665
        },
        {
            "name": "HARIO",
            "lat": 33.00530833333333,
            "lon": 129.83668888333332
        },
        {
            "name": "HIZEN",
            "lat": 33.09791943333333,
            "lon": 130.08435278333334
        },
        {
            "name": "INASA",
            "lat": 32.848838883333336,
            "lon": 130.01615833333332
        },
        {
            "name": "IORIE",
            "lat": 33.109263883333334,
            "lon": 129.7076
        },
        {
            "name": "ISE",
            "lat": 33.752383333333334,
            "lon": 129.78205833333334
        },
        {
            "name": "KAZSA",
            "lat": 32.586161116666666,
            "lon": 130.236325
        },
        {
            "name": "KOHNO",
            "lat": 32.988875,
            "lon": 129.71112221666667
        },
        {
            "name": "KROKI",
            "lat": 33.03863333333334,
            "lon": 130.64464166666667
        },
        {
            "name": "MA153",
            "lat": 32.93693888333333,
            "lon": 129.89225556666668
        },
        {
            "name": "MA312",
            "lat": 32.89585278333333,
            "lon": 129.93434721666668
        },
        {
            "name": "MEKOK",
            "lat": 32.73906111666667,
            "lon": 129.9924
        },
        {
            "name": "MIGAP",
            "lat": 32.89788888333333,
            "lon": 129.84282221666666
        },
        {
            "name": "MUTUU",
            "lat": 33.024819433333334,
            "lon": 130.21402221666668
        },
        {
            "name": "NOBAK",
            "lat": 32.841316666666664,
            "lon": 130.12713056666666
        },
        {
            "name": "NODEP",
            "lat": 32.98299166666666,
            "lon": 129.84288333333333
        },
        {
            "name": "OBAMA",
            "lat": 32.801775,
            "lon": 130.14470278333334
        },
        {
            "name": "OHGIE",
            "lat": 33.33136666666667,
            "lon": 130.17825
        },
        {
            "name": "OLE",
            "lat": 32.905247216666666,
            "lon": 129.91798056666667
        },
        {
            "name": "OOITA",
            "lat": 33.22034443333333,
            "lon": 131.70325
        },
        {
            "name": "OTAXA",
            "lat": 33.164541666666665,
            "lon": 129.94671111666668
        },
        {
            "name": "PADDY",
            "lat": 33.21821666666666,
            "lon": 130.17101943333333
        },
        {
            "name": "PEARL",
            "lat": 33.249144433333335,
            "lon": 129.61885556666667
        },
        {
            "name": "SALTY",
            "lat": 33.85268056666666,
            "lon": 132.92522221666667
        },
        {
            "name": "SARUK",
            "lat": 33.09741388333333,
            "lon": 129.85396666666668
        },
        {
            "name": "SUMOU",
            "lat": 32.77696666666667,
            "lon": 129.66191666666666
        },
        {
            "name": "TAKAK",
            "lat": 32.90313333333334,
            "lon": 130.15101111666667
        },
        {
            "name": "TARAH",
            "lat": 33.036113883333336,
            "lon": 130.15943333333334
        },
        {
            "name": "TEKIK",
            "lat": 32.83550278333333,
            "lon": 130.00031943333335
        },
        {
            "name": "TENBO",
            "lat": 33.04148611666667,
            "lon": 129.78029166666667
        },
        {
            "name": "TOHKI",
            "lat": 33.160325,
            "lon": 129.97329721666668
        },
        {
            "name": "UNZEN",
            "lat": 32.77424443333334,
            "lon": 130.24751943333334
        },
        {
            "name": "WARAS",
            "lat": 32.84376111666667,
            "lon": 130.26495278333334
        }
    ],
    "rnws": [
        "RNW 14",
        "RNW 32"
    ],
    "sids": [
        {
            "name": "AKNAG1",
            "rnw": "04",
            "fixes": {},
            "sub_fixes": [
                {
                    "rwy": "RNW 14",
                    "fixes": {
                        "RNW 14": "RNW 14 HDG 146 UNTIL 500",
                        "FU400": "OVERFLY FU400 TURN RIGHT DIRECT",
                        "MIGAP": "MIGAP",
                        "AKNAG": "AKNAG AT OR ABOVE 7000"
                    }
                },
                {
                    "rwy": "RNW 32",
                    "fixes": {
                        "RNW 32": "RNW 32 HDG 326 UNTIL 500",
                        "AKNAG": "AKNAG AT OR ABOVE 7000"
                    }
                }
            ],
            "transitions": []
        },
        {
            "name": "CARCO1",
            "rnw": "04",
            "fixes": {},
            "sub_fixes": [
                {
                    "rwy": "RNW 14",
                    "fixes": {
                        "RNW 14": "RNW 14 HDG 146 UNTIL 500",
                        "FU400": "OVERFLY FU400 TURN RIGHT DIRECT",
                        "AKMEP": "AKMEP",
                        "CARCO": "CARCO"
                    }
                },
                {
                    "rwy": "RNW 32",
                    "fixes": {
                        "RNW 32": "RNW 32 HDG 326 UNTIL 1500",
                        "AKMEP": "AKMEP",
                        "CARCO": "CARCO"
                    }
                }
            ],
            "transitions": []
        },
        {
            "name": "CHIKU5",
            "rnw": "04",
            "fixes": {},
            "sub_fixes": [
                {
                    "rwy": "RNW 14",
                    "fixes": {
                        "RNW 14": "RNW 14 HDG 146 UNTIL 500",
                        "FU401": "FU401 TURN LEFT DIRECT",
                        "UNZEN": "UNZEN",
                        "WARAS": "WARAS AT OR BELOW 17000",
                        "GOROH": "GOROH AT OR ABOVE 17000"
                    }
                },
                {
                    "rwy": "RNW 32",
                    "fixes": {
                        "RNW 32": "RNW 32 HDG 326 UNTIL 500",
                        "FU200": "FU200",
                        "TOHKI": "TOHKI",
                        "HIZEN": "HIZEN AT OR ABOVE 13000",
                        "MUTUU": "MUTUU AT OR BELOW 17000",
                        "GOROH": "GOROH AT OR ABOVE 17000"
                    }
                }
            ],
            "transitions": [
                {
                    "name": "OOITA",
                    "fixes": [
                        "KROKI",
                        "OOITA"
                    ]
                },
                {
                    "name": "SALTY",
                    "fixes": [
                        "KROKI",
                        "OOITA",
                        "SALTY"
                    ]
                }
            ]
        },
        {
            "name": "KAZSA1",
            "rnw": "04",
            "fixes": {},
            "sub_fixes": [
                {
                    "rwy": "RNW 14",
                    "fixes": {
                        "RNW 14": "RNW 14 HDG 146 UNTIL 1200",
                        "KAZSA": "KAZSA"
                    }
                },
                {
                    "rwy": "RNW 32",
                    "fixes": {
                        "RNW 32": "RNW 32 HDG 326 UNTIL 500",
                        "FU201": "OVERFLY FU201 TURN LEFT DIRECT",
                        "FU202": "FU202",
                        "KAZSA": "KAZSA"
                    }
                }
            ],
            "transitions": []
        },
        {
            "name": "NORTH1",
            "rnw": "04",
            "fixes": {},
            "sub_fixes": [
                {
                    "rwy": "RNW 14",
                    "fixes": {
                        "RNW 14": "RNW 14 TRK 145 UNTIL 500 TRK 144 UNTIL 6.0 FROM",
                        "OLE": "OLE HDG 324 INTERCEPT RADIAL 258 FROM OLE HDG 016 INTERCEPT RADIAL 331 TO",
                        "PEARL": "PEARL PEARL"
                    }
                },
                {
                    "rwy": "RNW 32",
                    "fixes": {
                        "RNW 32": "RNW 32 TRK 325 UNTIL 510",
                        "PEARL": "PEARL"
                    }
                }
            ],
            "transitions": [
                {
                    "name": "DGC",
                    "fixes": [
                        "DGC"
                    ]
                },
                {
                    "name": "IKI",
                    "fixes": [
                        "ISE"
                    ]
                }
            ]
        },
        {
            "name": "OLE5R",
            "rnw": "04",
            "fixes": {},
            "sub_fixes": [
                {
                    "rwy": "RNW 14",
                    "fixes": {
                        "RNW 14": "RNW 14 TRK 145 UNTIL 500 TRK 144 UNTIL 6.0 FROM",
                        "OLE": "OLE TURN RIGHT DIRECT OLE AT OR ABOVE 5000"
                    }
                },
                {
                    "rwy": "RNW 32",
                    "fixes": {
                        "RNW 32": "RNW 32 TRK 325 UNTIL 510 TRK 331 UNTIL 6.3 FROM",
                        "OLE": "OLE TURN LEFT DIRECT OLE AT OR ABOVE 5000"
                    }
                }
            ],
            "transitions": []
        },
        {
            "name": "WEST7",
            "rnw": "04",
            "fixes": {},
            "sub_fixes": [
                {
                    "rwy": "RNW 14",
                    "fixes": {
                        "RNW 14": "RNW 14 TRK 145 UNTIL 500 TRK 144 UNTIL 1800 TURN RIGHT HDG 292 INTERCEPT RADIAL 247 TO",
                        "SUMOU": "SUMOU OVERFLY SUMOU AT OR ABOVE 4000"
                    }
                },
                {
                    "rwy": "RNW 32",
                    "fixes": {
                        "RNW 32": "RNW 32 TRK 325 UNTIL 1500 TURN LEFT HDG 202 INTERCEPT RADIAL 247 TO",
                        "SUMOU": "SUMOU OVERFLY SUMOU AT OR ABOVE 4000"
                    }
                }
            ],
            "transitions": [
                {
                    "name": "CARCO",
                    "fixes": [
                        "CARCO",
                        "CARCO"
                    ]
                },
                {
                    "name": "OMURA",
                    "fixes": [
                        "D279M",
                        "D279M",
                        "OLE"
                    ]
                }
            ]
        }
    ],
    "stars": [
        {
            "name": "FUBUKI",
            "runway": "RNW 14 RNW 32",
            "fixes": {
                "OHGIE": "OHGIE AT OR ABOVE 11000",
                "PADDY": "PADDY",
                "TARAH": "TARAH AT OR ABOVE 7000",
                "TAKAK": "TAKAK AT OR ABOVE 5000",
                "OBAMA": "OBAMA SPEED 230",
                "AINOH": "AINOH SPEED 210",
                "FUBKI": "FUBKI AT OR ABOVE 2600"
            }
        },
        {
            "name": "SARUKU",
            "runway": "RNW 14 RNW 32",
            "fixes": {
                "OHGIE": "OHGIE AT OR ABOVE 11000",
                "GLOVR": "GLOVR AT OR ABOVE 7000",
                "OTAXA": "OTAXA AT OR ABOVE 4000",
                "SARUK": "SARUK AT OR ABOVE 3700"
            }
        }
    ],
    "approaches": [
        {
            "name": "VORD14",
            "fixes": {
                "CF153": "CF153 AT OR ABOVE 2200",
                "HARIO": "HARIO 1897",
                "MA153": "MA153 316 RNW 14 TRK 153 UNTIL 10.0 FROM",
                "OLE": "OLE TURN LEFT DIRECT OLE AT OR ABOVE 4000 HOLD AT OLE LEFT TURN INBOUNDCOURSE 341 ALT 4000 SPEED 230 LEGTIME 1 FAF HARIO MAP MA153"
            },
            "transitions": [
                {
                    "name": "OLE",
                    "fixes": {
                        "OLE": "OLE AT OR ABOVE 4000 TRK 312 UNTIL 11.0 FROM OLE SPEED 230"
                    }
                }
            ]
        },
        {
            "name": "VORD32",
            "fixes": {
                "CF312": "CF312 AT OR ABOVE 2600",
                "INASA": "INASA 2098",
                "34VOR": "34VOR AT OR ABOVE 1183",
                "MA312": "MA312 352 RNW 32 TRK 312 UNTIL 6.4 FROM",
                "OLE": "OLE TURN RIGHT DIRECT OLE AT OR ABOVE 4000 HOLD AT OLE RIGHT TURN INBOUNDCOURSE 153 ALT 4000 SPEED 230 LEGTIME 1 FAF INASA MAP MA312"
            },
            "transitions": [
                {
                    "name": "OLE",
                    "fixes": {
                        "OLE": "OLE AT OR ABOVE 4000 TRK 153 UNTIL 11.0 FROM OLE SPEED 230"
                    }
                }
            ]
        },
        {
            "name": "ILSY32",
            "fixes": {
                "CF32Y": "CF32Y AT OR ABOVE 2600",
                "CHARA": "CHARA 2600 RNW 32 HDG 325 UNTIL 500 TRK 325 UNTIL 3000 TURN LEFT DIRECT",
                "OLE": "OLE 4000 HOLD AT OLE RIGHT TURN INBOUNDCOURSE 157 ALT 4000 SPEED 230 LEGTIME 1 FAF CHARA MAP RNW 32"
            },
            "transitions": [
                {
                    "name": "OLE",
                    "fixes": {
                        "OLE": "OLE AT OR ABOVE 4000 TRK 159 UNTIL 11.0 FROM OLE SPEED 230"
                    }
                }
            ]
        },
        {
            "name": "ILSZ32",
            "fixes": {
                "FUBKI": "FUBKI AT OR ABOVE 2600",
                "CHARA": "CHARA 2600 RNW 32 HDG 325 UNTIL 500 TRK 325 UNTIL 3000 TURN LEFT DIRECT",
                "OLE": "OLE 4000 HOLD AT OLE RIGHT TURN INBOUNDCOURSE 157 ALT 4000 SPEED 230 LEGTIME 1 FAF CHARA MAP RNW 32"
            },
            "transitions": []
        },
        {
            "name": "RNAV14",
            "fixes": {
                "TENBO": "TENBO AT OR ABOVE 2400",
                "NODEP": "NODEP 1500",
                "FU450": "OVERFLY FU450 173 RNW 14",
                "FU451": "OVERFLY FU451 TURN RIGHT DIRECT",
                "KOHNO": "KOHNO 3000 HOLD AT KOHNO LEFT TURN INBOUNDCOURSE 055 ALT 3000 SPEED 230 LEGTIME 1 FAF NODEP MAP FU450"
            },
            "transitions": [
                {
                    "name": "IORIE",
                    "fixes": {
                        "IORIE": "IORIE AT OR ABOVE 3000 SPEED 230"
                    }
                },
                {
                    "name": "KOHNO",
                    "fixes": {
                        "KOHNO": "KOHNO AT OR ABOVE 3000 SPEED 230"
                    }
                },
                {
                    "name": "SARUK",
                    "fixes": {
                        "SARUK": "SARUK AT OR ABOVE 3700 SPEED 230"
                    }
                }
            ]
        },
        {
            "name": "RNAV32",
            "fixes": {
                "FUBKI": "FUBKI AT OR ABOVE 2600 SPEED 190",
                "TEKIK": "TEKIK 1900",
                "FU250": "FU250 AT OR ABOVE 896 RNW 32",
                "FU251": "OVERFLY FU251 TURN LEFT DIRECT",
                "OLE": "OLE 4000 HOLD AT OLE RIGHT TURN INBOUNDCOURSE 157 ALT 4000 SPEED 230 LEGTIME 1 FAF TEKIK MAP RNW 32"
            },
            "transitions": [
                {
                    "name": "MEKOK",
                    "fixes": {
                        "MEKOK": "MEKOK AT OR ABOVE 4000 SPEED 210"
                    }
                },
                {
                    "name": "NOBAK",
                    "fixes": {
                        "NOBAK": "NOBAK AT OR ABOVE 2600"
                    }
                }
            ]
        }
    ]
}