{
    "fixes": [
        {
            "name": "ALDER",
            "lat": 27.478816666666667,
            "lon": 128.741525
        },
        {
            "name": "ASATO",
            "lat": 27.181716666666667,
            "lon": 128.50408056666666
        },
        {
            "name": "AZEFU",
            "lat": 27.675975,
            "lon": 128.643125
        },
        {
            "name": "D110F",
            "lat": 27.406886116666666,
            "lon": 128.80749721666666
        },
        {
            "name": "D205H",
            "lat": 27.307177783333334,
            "lon": 128.64791943333333
        },
        {
            "name": "DINGO",
            "lat": 27.426594433333335,
            "lon": 128.8089
        },
        {
            "name": "EMIKO",
            "lat": 27.479538883333333,
            "lon": 128.75255833333333
        },
        {
            "name": "FUCHA",
            "lat": 27.537627783333335,
            "lon": 128.81938333333332
        },
        {
            "name": "GOMES",
            "lat": 27.271166666666666,
            "lon": 128.69878056666667
        },
        {
            "name": "HACHA",
            "lat": 28.156619433333333,
            "lon": 129.01429443333333
        },
        {
            "name": "HORAI",
            "lat": 27.637869433333332,
            "lon": 128.86116111666666
        },
        {
            "name": "INOBE",
            "lat": 27.931016666666668,
            "lon": 128.75330278333334
        },
        {
            "name": "KB200",
            "lat": 27.375555566666666,
            "lon": 128.79911111666667
        },
        {
            "name": "KB250",
            "lat": 27.540652783333332,
            "lon": 128.78875278333334
        },
        {
            "name": "KB251",
            "lat": 27.395163883333332,
            "lon": 128.67773611666667
        },
        {
            "name": "KB450",
            "lat": 27.319105566666668,
            "lon": 128.61984166666667
        },
        {
            "name": "KB451",
            "lat": 27.468052783333334,
            "lon": 128.73330833333333
        },
        {
            "name": "KUNIG",
            "lat": 27.571397216666668,
            "lon": 128.76356943333334
        },
        {
            "name": "LILLY",
            "lat": 27.609730566666666,
            "lon": 128.84159166666666
        },
        {
            "name": "MA04",
            "lat": 27.412455566666665,
            "lon": 128.69066111666666
        },
        {
            "name": "MA22",
            "lat": 27.442222216666668,
            "lon": 128.70968611666666
        },
        {
            "name": "MARIX",
            "lat": 27.275691666666667,
            "lon": 128.63515278333333
        },
        {
            "name": "MEKAX",
            "lat": 28.448533333333334,
            "lon": 129.14066666666668
        },
        {
            "name": "MOURY",
            "lat": 27.35429166666667,
            "lon": 128.66703611666668
        },
        {
            "name": "NEORI",
            "lat": 27.901405566666668,
            "lon": 128.90161666666665
        },
        {
            "name": "ONC",
            "lat": 27.432883333333333,
            "lon": 128.69896388333333
        },
        {
            "name": "PAULO",
            "lat": 27.503477783333334,
            "lon": 128.95230556666667
        },
        {
            "name": "PINNE",
            "lat": 27.821933333333334,
            "lon": 129.09068333333335
        },
        {
            "name": "RAGON",
            "lat": 27.380925,
            "lon": 128.66688888333334
        },
        {
            "name": "SONNA",
            "lat": 27.808622216666667,
            "lon": 129.07642221666666
        },
        {
            "name": "UJIJI",
            "lat": 27.338266666666666,
            "lon": 128.50136111666666
        },
        {
            "name": "WANJO",
            "lat": 27.5877,
            "lon": 128.71121388333333
        },
        {
            "name": "WOODS",
            "lat": 27.584575,
            "lon": 128.98746111666668
        },
        {
            "name": "YUWAN",
            "lat": 28.186066666666665,
            "lon": 129.45925556666666
        }
    ],
    "rnws": [
        "RNW 04",
        "RNW 22"
    ],
    "sids": [
        {
            "name": "ASATO9",
            "rnw": "10",
            "fixes": {},
            "sub_fixes": [
                {
                    "rwy": "RNW 04",
                    "fixes": {
                        "RNW 04": "RNW 04 TRK 040 UNTIL 500 TURN RIGHT HDG 265 INTERCEPT RADIAL 220 TO",
                        "ASATO": "ASATO ASATO"
                    }
                },
                {
                    "rwy": "RNW 22",
                    "fixes": {
                        "RNW 22": "RNW 22 TRK 220 UNTIL 600",
                        "ASATO": "ASATO"
                    }
                }
            ],
            "transitions": []
        },
        {
            "name": "AZEFU3",
            "rnw": "10",
            "fixes": {},
            "sub_fixes": [
                {
                    "rwy": "RNW 04",
                    "fixes": {
                        "RNW 04": "RNW 04 HDG 040 UNTIL 500",
                        "AZEFU": "AZEFU AT OR BELOW 5000",
                        "INOBE": "INOBE"
                    }
                },
                {
                    "rwy": "RNW 22",
                    "fixes": {
                        "RNW 22": "RNW 22 HDG 220 UNTIL 600 TURN LEFT DIRECT",
                        "AZEFU": "AZEFU AT OR BELOW 5000",
                        "INOBE": "INOBE"
                    }
                }
            ],
            "transitions": [
                {
                    "name": "INOBE",
                    "fixes": [
                        "MEKAX"
                    ]
                }
            ]
        },
        {
            "name": "HORAI1",
            "rnw": "10",
            "fixes": {},
            "sub_fixes": [
                {
                    "rwy": "RNW 04",
                    "fixes": {
                        "RNW 04": "RNW 04 HDG 040 UNTIL 500",
                        "HORAI": "HORAI"
                    }
                },
                {
                    "rwy": "RNW 22",
                    "fixes": {
                        "RNW 22": "RNW 22 HDG 220 UNTIL 600 TURN LEFT DIRECT",
                        "KB200": "KB200",
                        "HORAI": "HORAI"
                    }
                }
            ],
            "transitions": []
        },
        {
            "name": "MEKA3N",
            "rnw": "10",
            "fixes": {},
            "sub_fixes": [
                {
                    "rwy": "RNW 04",
                    "fixes": {
                        "RNW 04": "RNW 04 TRK 040 UNTIL 500",
                        "MEKAX": "MEKAX"
                    }
                },
                {
                    "rwy": "RNW 22",
                    "fixes": {
                        "RNW 22": "RNW 22 TRK 220 UNTIL 600 TURN LEFT HDG 341 INTERCEPT RADIAL 026 TO",
                        "MEKAX": "MEKAX MEKAX"
                    }
                }
            ],
            "transitions": []
        },
        {
            "name": "NEORI2",
            "rnw": "10",
            "fixes": {},
            "sub_fixes": [
                {
                    "rwy": "RNW 04",
                    "fixes": {
                        "RNW 04": "RNW 04 HDG 040 UNTIL 500",
                        "NEORI": "NEORI"
                    }
                },
                {
                    "rwy": "RNW 22",
                    "fixes": {
                        "RNW 22": "RNW 22 HDG 220 UNTIL 600 TURN LEFT DIRECT",
                        "NEORI": "NEORI"
                    }
                }
            ],
            "transitions": [
                {
                    "name": "MEKAX",
                    "fixes": [
                        "MEKAX"
                    ]
                }
            ]
        },
        {
            "name": "ONC2R",
            "rnw": "10",
            "fixes": {},
            "sub_fixes": [
                {
                    "rwy": "RNW 04",
                    "fixes": {
                        "RNW 04": "RNW 04 TRK 040 UNTIL 500 TRK 090 UNTIL 8.0 FROM",
                        "ONC": "ONC TRK 090 UNTIL 12.0 FROM ONC TURN RIGHT DIRECT ONC",
                        "D110F": "D110F"
                    }
                },
                {
                    "rwy": "RNW 22",
                    "fixes": {
                        "RNW 22": "RNW 22 TRK 220 UNTIL 600 TURN LEFT HDG 087 INTERCEPT RADIAL 132 FROM",
                        "ONC": "ONC TRK 132 UNTIL 8.0 FROM ONC TRK 132 UNTIL 12.0 FROM ONC TURN LEFT DIRECT ONC",
                        "D110F": "D110F"
                    }
                }
            ],
            "transitions": []
        },
        {
            "name": "SONNA2",
            "rnw": "10",
            "fixes": {},
            "sub_fixes": [
                {
                    "rwy": "RNW 04",
                    "fixes": {
                        "RNW 04": "RNW 04 HDG 040 UNTIL 500",
                        "SONNA": "SONNA"
                    }
                },
                {
                    "rwy": "RNW 22",
                    "fixes": {
                        "RNW 22": "RNW 22 HDG 220 UNTIL 600 TURN LEFT DIRECT",
                        "SONNA": "SONNA"
                    }
                }
            ],
            "transitions": [
                {
                    "name": "YUWAN",
                    "fixes": [
                        "YUWAN"
                    ]
                }
            ]
        },
        {
            "name": "YUNTA2",
            "rnw": "10",
            "fixes": {},
            "sub_fixes": [
                {
                    "rwy": "RNW 04",
                    "fixes": {
                        "RNW 04": "RNW 04 HDG 040 UNTIL 500 TURN RIGHT DIRECT",
                        "ASATO": "ASATO"
                    }
                },
                {
                    "rwy": "RNW 22",
                    "fixes": {
                        "RNW 22": "RNW 22 HDG 220 UNTIL 600",
                        "ASATO": "ASATO"
                    }
                }
            ],
            "transitions": []
        },
        {
            "name": "YUWAN6",
            "rnw": "10",
            "fixes": {},
            "sub_fixes": [
                {
                    "rwy": "RNW 04",
                    "fixes": {
                        "RNW 04": "RNW 04 TRK 040 UNTIL 500",
                        "YUWAN": "YUWAN"
                    }
                },
                {
                    "rwy": "RNW 22",
                    "fixes": {
                        "RNW 22": "RNW 22 TRK 220 UNTIL 600 TURN LEFT HDG 002 INTERCEPT RADIAL 047 TO",
                        "YUWAN": "YUWAN YUWAN"
                    }
                }
            ],
            "transitions": []
        }
    ],
    "stars": [
        {
            "name": "HACHAE",
            "runway": "RNW 22",
            "fixes": {
                "HACHA": "HACHA",
                "WOODS": "WOODS AT OR ABOVE 3300",
                "PAULO": "PAULO AT OR ABOVE 2000"
            }
        },
        {
            "name": "HACHAN",
            "runway": "RNW 22",
            "fixes": {
                "HACHA": "HACHA",
                "LILLY": "LILLY AT OR ABOVE 3000"
            }
        },
        {
            "name": "HACHAS",
            "runway": "RNW 04",
            "fixes": {
                "HACHA": "HACHA",
                "DINGO": "DINGO AT OR ABOVE 3000",
                "GOMES": "GOMES AT OR ABOVE 2000"
            }
        },
        {
            "name": "PINNEE",
            "runway": "RNW 22",
            "fixes": {
                "PINNE": "PINNE",
                "WOODS": "WOODS AT OR ABOVE 3300",
                "PAULO": "PAULO AT OR ABOVE 2000"
            }
        },
        {
            "name": "PINNEN",
            "runway": "RNW 22",
            "fixes": {
                "PINNE": "PINNE",
                "LILLY": "LILLY AT OR ABOVE 3000"
            }
        },
        {
            "name": "PINNES",
            "runway": "RNW 04",
            "fixes": {
                "PINNE": "PINNE",
                "DINGO": "DINGO AT OR ABOVE 3000",
                "GOMES": "GOMES AT OR ABOVE 2000"
            }
        }
    ],
    "approaches": [
        {
            "name": "VORDY04",
            "fixes": {
                "MOURY": "MOURY 1654",
                "MA04": "MA04 480 RNW 04",
                "ONC": "ONC TRK 025 UNTIL 1.0 FROM ONC TRK 071 UNTIL 2000 TURN RIGHT DIRECT ONC HOLD AT ONC LEFT TURN INBOUNDCOURSE 228 SPEED 210 LEGTIME 1 FAF MOURY MAP MA04"
            },
            "transitions": [
                {
                    "name": "ONC",
                    "fixes": {
                        "ONC": "ONC AT OR ABOVE 2000 TRK 228 UNTIL 8.0 FROM ONC SPEED 200 TURN LEFT DIRECT",
                        "D205H": "D205H"
                    }
                }
            ]
        },
        {
            "name": "VORDZ04",
            "fixes": {
                "MOURY": "MOURY 1654",
                "MA04": "MA04 480 RNW 04",
                "ONC": "ONC TRK 025 UNTIL 1.0 FROM ONC TRK 071 UNTIL 2000 TURN RIGHT DIRECT ONC HOLD AT ONC LEFT TURN INBOUNDCOURSE 228 SPEED 210 LEGTIME 1 FAF MOURY MAP MA04"
            },
            "transitions": [
                {
                    "name": "MARIX",
                    "fixes": {
                        "MARIX": "MARIX AT OR ABOVE 3000"
                    }
                }
            ]
        },
        {
            "name": "VORD22",
            "fixes": {
                "FUCHA": "FUCHA AT OR ABOVE 2000",
                "EMIKO": "EMIKO 1233",
                "MA22": "MA22 203 RNW 22",
                "ONC": "ONC TRK 231 UNTIL 2000 TURN LEFT DIRECT ONC HOLD AT ONC LEFT TURN INBOUNDCOURSE 228 SPEED 210 LEGTIME 1 FAF EMIKO MAP MA22"
            },
            "transitions": [
                {
                    "name": "KUNIG",
                    "fixes": {
                        "KUNIG": "KUNIG AT OR ABOVE 3000"
                    }
                }
            ]
        },
        {
            "name": "RNAV04",
            "fixes": {
                "KB450": "KB450 AT OR ABOVE 1800 SPEED 210",
                "RAGON": "RAGON 1200 RNW 04",
                "KB451": "OVERFLY KB451 TURN RIGHT DIRECT",
                "GOMES": "GOMES 2000 HOLD AT GOMES RIGHT TURN INBOUNDCOURSE 006 ALT 2000 SPEED 210 LEGTIME 1 FAF RAGON MAP RNW 04"
            },
            "transitions": [
                {
                    "name": "GOMES",
                    "fixes": {
                        "GOMES": "GOMES AT OR ABOVE 2000"
                    }
                },
                {
                    "name": "UJIJI",
                    "fixes": {
                        "UJIJI": "UJIJI AT OR ABOVE 3000"
                    }
                }
            ]
        },
        {
            "name": "RNAV22",
            "fixes": {
                "KB250": "KB250 AT OR ABOVE 1200",
                "ALDER": "ALDER 1100 RNW 22",
                "KB251": "OVERFLY KB251 TURN LEFT DIRECT",
                "PAULO": "PAULO 2000 HOLD AT PAULO LEFT TURN INBOUNDCOURSE 256 ALT 2000 SPEED 210 LEGTIME 1 FAF ALDER MAP RNW 22"
            },
            "transitions": [
                {
                    "name": "LILLY",
                    "fixes": {
                        "LILLY": "LILLY"
                    }
                },
                {
                    "name": "PAULO",
                    "fixes": {
                        "PAULO": "PAULO"
                    }
                },
                {
                    "name": "WANJO",
                    "fixes": {
                        "WANJO": "WANJO"
                    }
                }
            ]
        }
    ]
}