{
    "fixes": [
        {
            "name": "24VOR",
            "lat": 36.36910556666667,
            "lon": 136.36807221666666
        },
        {
            "name": "AF001",
            "lat": 36.71015195,
            "lon": 135.91954858333332
        },
        {
            "name": "AF002",
            "lat": 36.606451766666666,
            "lon": 135.83974915
        },
        {
            "name": "AF003",
            "lat": 36.490321183333336,
            "lon": 135.79375191666668
        },
        {
            "name": "AMAGO",
            "lat": 36.33059166666666,
            "lon": 136.29539443333334
        },
        {
            "name": "AWAZU",
            "lat": 36.329619433333335,
            "lon": 136.29361943333333
        },
        {
            "name": "BURRI",
            "lat": 36.52881111666667,
            "lon": 136.27836388333333
        },
        {
            "name": "CF06",
            "lat": 36.28839166666667,
            "lon": 136.22080556666666
        },
        {
            "name": "CS06",
            "lat": 36.270969433333335,
            "lon": 136.23863611666667
        },
        {
            "name": "D016J",
            "lat": 36.561736116666665,
            "lon": 136.43304443333332
        },
        {
            "name": "D244O",
            "lat": 37.14970278333333,
            "lon": 136.70366111666667
        },
        {
            "name": "D286J",
            "lat": 36.419522216666664,
            "lon": 136.19975556666665
        },
        {
            "name": "D286X",
            "lat": 36.45061943333333,
            "lon": 135.91862778333333
        },
        {
            "name": "D331H",
            "lat": 36.503058333333335,
            "lon": 136.30472221666668
        },
        {
            "name": "D331J",
            "lat": 36.52969443333333,
            "lon": 136.27979721666668
        },
        {
            "name": "D351H",
            "lat": 36.524141666666665,
            "lon": 136.35588611666665
        },
        {
            "name": "DAIAN",
            "lat": 36.153533333333336,
            "lon": 136.26041666666666
        },
        {
            "name": "DAIJO",
            "lat": 36.281575,
            "lon": 136.20884166666667
        },
        {
            "name": "EIHEI",
            "lat": 36.16808056666667,
            "lon": 136.37568333333334
        },
        {
            "name": "GINJO",
            "lat": 37.150561116666665,
            "lon": 136.70291388333334
        },
        {
            "name": "GINRE",
            "lat": 36.644825,
            "lon": 136.93923333333333
        },
        {
            "name": "GOLDO",
            "lat": 38.06579166666667,
            "lon": 138.40985833333335
        },
        {
            "name": "GOSIK",
            "lat": 36.501016666666665,
            "lon": 136.59784443333334
        },
        {
            "name": "GOZEN",
            "lat": 36.418033333333334,
            "lon": 136.19904721666666
        },
        {
            "name": "HAKUI",
            "lat": 36.764516666666665,
            "lon": 136.64811666666668
        },
        {
            "name": "HERAI",
            "lat": 36.339441666666666,
            "lon": 136.32889166666666
        },
        {
            "name": "HESEN",
            "lat": 36.19193611666667,
            "lon": 136.56672778333333
        },
        {
            "name": "HIDAH",
            "lat": 36.50994166666667,
            "lon": 137.03878611666667
        },
        {
            "name": "HIMMY",
            "lat": 36.821097216666665,
            "lon": 136.90191388333332
        },
        {
            "name": "HIMRO",
            "lat": 36.59805,
            "lon": 136.56730278333333
        },
        {
            "name": "IMIZU",
            "lat": 36.73955278333333,
            "lon": 136.99043056666667
        },
        {
            "name": "JYOZO",
            "lat": 36.77840833333333,
            "lon": 136.81010278333332
        },
        {
            "name": "KAETU",
            "lat": 36.402166666666666,
            "lon": 136.24656943333332
        },
        {
            "name": "KANOH",
            "lat": 36.275280566666666,
            "lon": 136.12052221666667
        },
        {
            "name": "KCC",
            "lat": 35.26526666666667,
            "lon": 136.914925
        },
        {
            "name": "KINKA",
            "lat": 36.536316666666664,
            "lon": 136.71404721666667
        },
        {
            "name": "KM30A",
            "lat": 36.795741666666665,
            "lon": 136.02960278333333
        },
        {
            "name": "KM30B",
            "lat": 36.36866388333333,
            "lon": 135.78598333333332
        },
        {
            "name": "KM30C",
            "lat": 36.24986388333333,
            "lon": 135.81261388333334
        },
        {
            "name": "KMC",
            "lat": 36.39646943333333,
            "lon": 136.40425278333333
        },
        {
            "name": "KMC27",
            "lat": 36.82727778333334,
            "lon": 136.240375
        },
        {
            "name": "KMC39",
            "lat": 37.04894443333333,
            "lon": 136.51865556666667
        },
        {
            "name": "KOAJI",
            "lat": 36.20243333333333,
            "lon": 136.06955278333334
        },
        {
            "name": "KRAGE",
            "lat": 36.106330566666664,
            "lon": 135.90118888333333
        },
        {
            "name": "MANAH",
            "lat": 35.90776388333333,
            "lon": 136.53975556666666
        },
        {
            "name": "MEGIS",
            "lat": 36.34845,
            "lon": 136.11251943333335
        },
        {
            "name": "NEJYO",
            "lat": 36.449744433333336,
            "lon": 136.50673611666667
        },
        {
            "name": "NK451",
            "lat": 36.480291666666666,
            "lon": 136.56098611666667
        },
        {
            "name": "NK452",
            "lat": 36.42947778333333,
            "lon": 136.47069443333334
        },
        {
            "name": "NTE",
            "lat": 37.28996111666667,
            "lon": 136.96291111666667
        },
        {
            "name": "SAIKO",
            "lat": 36.21650556666667,
            "lon": 136.17140833333335
        },
        {
            "name": "SAKYU",
            "lat": 35.91684166666667,
            "lon": 134.51791666666668
        },
        {
            "name": "SAWRA",
            "lat": 36.45976388333333,
            "lon": 136.21475556666667
        },
        {
            "name": "SONBU",
            "lat": 36.19229443333333,
            "lon": 135.584125
        },
        {
            "name": "YAMJI",
            "lat": 36.55466943333333,
            "lon": 136.378475
        },
        {
            "name": "YARII",
            "lat": 36.270438883333334,
            "lon": 137.21458333333334
        },
        {
            "name": "YME",
            "lat": 35.480691666666665,
            "lon": 135.13702221666668
        },
        {
            "name": "YME48",
            "lat": 36.15143333333334,
            "lon": 135.67502778333332
        },
        {
            "name": "ZEBRA",
            "lat": 36.577452783333335,
            "lon": 136.46701111666667
        }
    ],
    "rnws": [
        "RNW 06",
        "RNW 24"
    ],
    "sids": [
        {
            "name": "GINJO2",
            "rnw": "29",
            "fixes": {},
            "sub_fixes": [
                {
                    "rwy": "RNW 06",
                    "fixes": {
                        "RNW 06": "RNW 06 HDG 063 UNTIL 500",
                        "HAKUI": "HAKUI",
                        "GINJO": "GINJO",
                        "NTE": "NTE"
                    }
                },
                {
                    "rwy": "RNW 24",
                    "fixes": {
                        "RNW 24": "RNW 24 HDG 243 UNTIL 500 TURN RIGHT DIRECT",
                        "HAKUI": "HAKUI",
                        "GINJO": "GINJO",
                        "NTE": "NTE"
                    }
                }
            ],
            "transitions": [
                {
                    "name": "KINZA",
                    "fixes": [
                        "GOLDO"
                    ]
                }
            ]
        },
        {
            "name": "KAGA4",
            "rnw": "29",
            "fixes": {
                "D331H": "D331H AT OR BELOW 7000",
                "KM30A": "KM30A",
                "AF001": "AF001",
                "AF002": "AF002",
                "AF003": "AF003",
                "KM30B": "KM30B",
                "KM30C": "KM30C",
                "SAKYU": "SAKYU"
            },
            "sub_fixes": [
                {
                    "rwy": "RNW 06",
                    "fixes": {
                        "RNW 06": "RNW 06 TRK 063 UNTIL 530"
                    }
                },
                {
                    "rwy": "RNW 24",
                    "fixes": {
                        "RNW 24": "RNW 24 TRK 243 UNTIL 530"
                    }
                }
            ],
            "transitions": []
        },
        {
            "name": "KMC3R",
            "rnw": "29",
            "fixes": {
                "D351H": "D351H AT OR BELOW 7000",
                "KMC27": "KMC27 TURN LEFT HDG 196 INTERCEPT RADIAL 151 TO",
                "D331J": "D331J",
                "KMC": "KMC"
            },
            "sub_fixes": [
                {
                    "rwy": "RNW 06",
                    "fixes": {
                        "RNW 06": "RNW 06 TRK 063 UNTIL 530"
                    }
                },
                {
                    "rwy": "RNW 24",
                    "fixes": {
                        "RNW 24": "RNW 24 TRK 243 UNTIL 530"
                    }
                }
            ],
            "transitions": []
        },
        {
            "name": "MANAH2",
            "rnw": "29",
            "fixes": {},
            "sub_fixes": [
                {
                    "rwy": "RNW 06",
                    "fixes": {
                        "RNW 06": "RNW 06 HDG 063 UNTIL 500 TURN LEFT DIRECT",
                        "KAETU": "KAETU",
                        "MANAH": "MANAH"
                    }
                },
                {
                    "rwy": "RNW 24",
                    "fixes": {
                        "RNW 24": "RNW 24 HDG 243 UNTIL 500",
                        "AWAZU": "OVERFLY AWAZU",
                        "MANAH": "MANAH"
                    }
                }
            ],
            "transitions": [
                {
                    "name": "KOMAK",
                    "fixes": [
                        "KCC"
                    ]
                }
            ]
        },
        {
            "name": "NTE2",
            "rnw": "29",
            "fixes": {
                "D016J": "D016J AT OR BELOW 7000",
                "KMC39": "KMC39",
                "D244O": "D244O",
                "NTE": "NTE"
            },
            "sub_fixes": [
                {
                    "rwy": "RNW 06",
                    "fixes": {
                        "RNW 06": "RNW 06 TRK 063 UNTIL 530 HDG 346 INTERCEPT RADIAL 016 TO",
                        "D016J": "D016J"
                    }
                },
                {
                    "rwy": "RNW 24",
                    "fixes": {
                        "RNW 24": "RNW 24 TRK 243 UNTIL 530 TURN RIGHT HDG 046 INTERCEPT RADIAL 016 TO",
                        "D016J": "D016J"
                    }
                }
            ],
            "transitions": []
        },
        {
            "name": "SONBU2",
            "rnw": "29",
            "fixes": {},
            "sub_fixes": [
                {
                    "rwy": "RNW 06",
                    "fixes": {
                        "RNW 06": "RNW 06 HDG 063 UNTIL 500 TURN LEFT DIRECT",
                        "SONBU": "SONBU"
                    }
                },
                {
                    "rwy": "RNW 24",
                    "fixes": {
                        "RNW 24": "RNW 24 HDG 243 UNTIL 500",
                        "SONBU": "SONBU"
                    }
                }
            ],
            "transitions": []
        },
        {
            "name": "YME4",
            "rnw": "29",
            "fixes": {
                "D286J": "D286J AT OR BELOW 7000",
                "D286X": "D286X",
                "YME48": "YME48",
                "YME": "YME"
            },
            "sub_fixes": [
                {
                    "rwy": "RNW 06",
                    "fixes": {
                        "RNW 06": "RNW 06 TRK 063 UNTIL 530"
                    }
                },
                {
                    "rwy": "RNW 24",
                    "fixes": {
                        "RNW 24": "RNW 24 TRK 243 UNTIL 530"
                    }
                }
            ],
            "transitions": []
        }
    ],
    "stars": [
        {
            "name": "HIMMYE",
            "runway": "RNW 24",
            "fixes": {
                "HIMMY": "HIMMY",
                "GINRE": "GINRE AT OR ABOVE 7000",
                "KINKA": "KINKA AT OR ABOVE 5000"
            }
        },
        {
            "name": "HIMMYW",
            "runway": "RNW 06",
            "fixes": {
                "HIMMY": "HIMMY",
                "BURRI": "BURRI AT OR ABOVE 8000",
                "MEGIS": "MEGIS AT OR ABOVE 4000",
                "KANOH": "KANOH",
                "DAIJO": "DAIJO AT OR ABOVE 2000"
            }
        },
        {
            "name": "IMIZUE",
            "runway": "RNW 24",
            "fixes": {
                "IMIZU": "IMIZU",
                "GINRE": "GINRE AT OR ABOVE 7000",
                "KINKA": "KINKA AT OR ABOVE 5000"
            }
        },
        {
            "name": "IMIZUW",
            "runway": "RNW 06",
            "fixes": {
                "IMIZU": "IMIZU",
                "JYOZO": "JYOZO",
                "BURRI": "BURRI AT OR ABOVE 8000",
                "MEGIS": "MEGIS AT OR ABOVE 4000",
                "KANOH": "KANOH",
                "DAIJO": "DAIJO AT OR ABOVE 2000"
            }
        },
        {
            "name": "KMCE",
            "runway": "RNW 24",
            "fixes": {
                "KMC": "KMC",
                "YAMJI": "YAMJI",
                "ZEBRA": "ZEBRA AT OR ABOVE 4000",
                "HIMRO": "HIMRO AT OR ABOVE 2600"
            }
        },
        {
            "name": "KMCW",
            "runway": "RNW 06",
            "fixes": {
                "KMC": "KMC",
                "SAWRA": "SAWRA",
                "MEGIS": "MEGIS AT OR ABOVE 4000",
                "KANOH": "KANOH",
                "DAIJO": "DAIJO AT OR ABOVE 2000"
            }
        },
        {
            "name": "SONBUE",
            "runway": "RNW 24",
            "fixes": {
                "SONBU": "SONBU",
                "BURRI": "BURRI AT OR ABOVE 8000",
                "ZEBRA": "ZEBRA AT OR ABOVE 4000",
                "HIMRO": "HIMRO AT OR ABOVE 2600"
            }
        },
        {
            "name": "SONBUW",
            "runway": "RNW 06",
            "fixes": {
                "SONBU": "SONBU",
                "KRAGE": "KRAGE AT OR ABOVE 5000",
                "KOAJI": "KOAJI AT OR ABOVE 3500",
                "DAIJO": "DAIJO AT OR ABOVE 2000"
            }
        },
        {
            "name": "YARIIE",
            "runway": "RNW 24",
            "fixes": {
                "YARII": "YARII",
                "HIDAH": "HIDAH AT OR ABOVE 11000",
                "GINRE": "GINRE AT OR ABOVE 7000",
                "KINKA": "KINKA AT OR ABOVE 5000"
            }
        },
        {
            "name": "YARIIW",
            "runway": "RNW 06",
            "fixes": {
                "YARII": "YARII",
                "HESEN": "HESEN AT OR ABOVE 11000",
                "EIHEI": "EIHEI AT OR ABOVE 6000",
                "DAIAN": "DAIAN AT OR ABOVE 5000",
                "SAIKO": "SAIKO AT OR ABOVE 3500",
                "DAIJO": "DAIJO AT OR ABOVE 2000"
            }
        }
    ],
    "approaches": [
        {
            "name": "VORD06",
            "fixes": {
                "CS06": "CS06 AT OR ABOVE 2000",
                "HERAI": "HERAI 1455",
                "24VOR": "24VOR AT OR ABOVE 627 RNW 06 TRK 055 UNTIL 500 TRK 035 UNTIL 7.0 FROM",
                "KMC": "KMC TURN LEFT DIRECT KMC 4000 HOLD AT KMC RIGHT TURN INBOUNDCOURSE 233 ALT 4000 SPEED 230 LEGTIME 1 FAF HERAI MAP RNW 06"
            },
            "transitions": [
                {
                    "name": "KMC",
                    "fixes": {
                        "KMC": "KMC AT OR ABOVE 4000 TRK 251 UNTIL 11.0 FROM KMC SPEED 200"
                    }
                }
            ]
        },
        {
            "name": "ILSY06",
            "fixes": {
                "CF06": "CF06 AT OR ABOVE 2000",
                "AMAGO": "AMAGO 2000 RNW 06 HDG 063 UNTIL 500 TRK 035 UNTIL 7.0 FROM",
                "KMC": "KMC TURN LEFT DIRECT KMC 4000 HOLD AT KMC RIGHT TURN INBOUNDCOURSE 233 ALT 4000 SPEED 230 LEGTIME 1 FAF AMAGO MAP RNW 06"
            },
            "transitions": [
                {
                    "name": "KMC",
                    "fixes": {
                        "KMC": "KMC AT OR ABOVE 4000 TRK 258 UNTIL 11.0 FROM KMC SPEED 200"
                    }
                }
            ]
        },
        {
            "name": "ILSZ06",
            "fixes": {
                "DAIJO": "DAIJO AT OR ABOVE 2000",
                "AMAGO": "AMAGO 2000 RNW 06 HDG 063 UNTIL 500 TRK 035 UNTIL 7.0 FROM",
                "KMC": "KMC TURN LEFT DIRECT KMC 4000 HOLD AT KMC RIGHT TURN INBOUNDCOURSE 233 ALT 4000 SPEED 230 LEGTIME 1 FAF AMAGO MAP RNW 06"
            },
            "transitions": []
        },
        {
            "name": "RNAV24",
            "fixes": {
                "GOSIK": "GOSIK AT OR ABOVE 2600",
                "NK451": "NK451 AT OR ABOVE 2100",
                "NEJYO": "NEJYO 1700",
                "NK452": "NK452 AT OR ABOVE 1023 RNW 24 TRK 243 UNTIL 530",
                "GOZEN": "GOZEN 3000 HOLD AT GOZEN RIGHT TURN INBOUNDCOURSE 106 ALT 3000 SPEED 230 LEGDIST 6 FAF NEJYO MAP RNW 24"
            },
            "transitions": [
                {
                    "name": "HIMRO",
                    "fixes": {
                        "HIMRO": "HIMRO AT OR ABOVE 2600"
                    }
                },
                {
                    "name": "KINKA",
                    "fixes": {
                        "KINKA": "KINKA AT OR ABOVE 5000"
                    }
                }
            ]
        }
    ]
}