{
    "fixes": [
        {
            "name": "56VOR",
            "lat": 37.131283333333336,
            "lon": 140.42590556666667
        },
        {
            "name": "ABKMA",
            "lat": 37.095947216666666,
            "lon": 140.42166666666665
        },
        {
            "name": "ADTRA",
            "lat": 37.007677783333335,
            "lon": 140.57246943333334
        },
        {
            "name": "CF01",
            "lat": 37.04119443333333,
            "lon": 140.41904721666666
        },
        {
            "name": "D194K",
            "lat": 37.04158056666667,
            "lon": 140.41515
        },
        {
            "name": "D313I",
            "lat": 37.310994433333335,
            "lon": 140.28363056666666
        },
        {
            "name": "D355J",
            "lat": 37.387025,
            "lon": 140.39076666666668
        },
        {
            "name": "DAIGO",
            "lat": 36.744366666666664,
            "lon": 140.34985
        },
        {
            "name": "FKE",
            "lat": 37.224305566666665,
            "lon": 140.43708611666668
        },
        {
            "name": "FKE26",
            "lat": 36.80171111666667,
            "lon": 140.40033888333335
        },
        {
            "name": "FURAH",
            "lat": 36.96623888333333,
            "lon": 140.23457778333332
        },
        {
            "name": "HATRI",
            "lat": 37.38322221666667,
            "lon": 140.15524166666665
        },
        {
            "name": "HERON",
            "lat": 37.53219443333333,
            "lon": 140.598775
        },
        {
            "name": "KAZMI",
            "lat": 37.293219433333334,
            "lon": 140.43113611666666
        },
        {
            "name": "MAHOK",
            "lat": 37.33825278333333,
            "lon": 140.40467221666665
        },
        {
            "name": "MATUN",
            "lat": 37.371619433333336,
            "lon": 140.43490833333334
        },
        {
            "name": "MD19",
            "lat": 37.251969433333336,
            "lon": 140.429225
        },
        {
            "name": "NASNO",
            "lat": 36.88503333333333,
            "lon": 140.17119166666666
        },
        {
            "name": "OKUJI",
            "lat": 36.77108333333334,
            "lon": 140.35004443333332
        },
        {
            "name": "SF100",
            "lat": 37.167777783333335,
            "lon": 140.30038888333334
        },
        {
            "name": "SF120",
            "lat": 37.43052778333333,
            "lon": 140.43775
        },
        {
            "name": "SF121",
            "lat": 37.42491666666667,
            "lon": 140.61552778333333
        },
        {
            "name": "SF122",
            "lat": 37.22477778333333,
            "lon": 140.60541666666666
        },
        {
            "name": "SF123",
            "lat": 37.2335,
            "lon": 140.32380556666666
        },
        {
            "name": "SF920",
            "lat": 37.12944443333333,
            "lon": 140.42327778333333
        },
        {
            "name": "SF921",
            "lat": 37.125388883333336,
            "lon": 140.55244443333333
        },
        {
            "name": "SF922",
            "lat": 37.217138883333334,
            "lon": 140.557
        },
        {
            "name": "SF923",
            "lat": 37.330638883333336,
            "lon": 140.28302778333332
        },
        {
            "name": "SF950",
            "lat": 37.36873611666667,
            "lon": 140.52775
        },
        {
            "name": "SF951",
            "lat": 37.24201943333333,
            "lon": 140.428675
        },
        {
            "name": "SF952",
            "lat": 37.158275,
            "lon": 140.42465556666667
        },
        {
            "name": "SOUMA",
            "lat": 37.012538883333335,
            "lon": 140.417675
        },
        {
            "name": "WAKAH",
            "lat": 37.36674721666667,
            "lon": 140.59044721666666
        },
        {
            "name": "WISHU",
            "lat": 37.13923056666667,
            "lon": 140.57905
        }
    ],
    "rnws": [
        "RNW 01",
        "RNW 19"
    ],
    "sids": [
        {
            "name": "FKE2R",
            "rnw": "27",
            "fixes": {},
            "sub_fixes": [
                {
                    "rwy": "RNW 01",
                    "fixes": {
                        "RNW 01": "RNW 01 TRK 009 UNTIL 1700 TURN LEFT HDG 178 INTERCEPT RADIAL 208 TO",
                        "FKE": "FKE TRK 208 UNTIL 4000 TURN LEFT DIRECT FKE AT OR ABOVE 7000"
                    }
                },
                {
                    "rwy": "RNW 19",
                    "fixes": {
                        "RNW 19": "RNW 19 TRK 189 UNTIL 1700 TRK 208 UNTIL 4000 TURN LEFT DIRECT",
                        "FKE": "FKE AT OR ABOVE 7000"
                    }
                }
            ],
            "transitions": [
                {
                    "name": "HATRI",
                    "fixes": [
                        "D313I",
                        "HATRI"
                    ]
                }
            ]
        },
        {
            "name": "NASNO3",
            "rnw": "27",
            "fixes": {
                "FURAH": "FURAH",
                "NASNO": "NASNO AT OR ABOVE 11000"
            },
            "sub_fixes": [
                {
                    "rwy": "RNW 01",
                    "fixes": {
                        "RNW 01": "RNW 01 TRK 009 UNTIL 1700 TURN LEFT HDG 175 INTERCEPT RADIAL 220 TO",
                        "FURAH": "FURAH"
                    }
                },
                {
                    "rwy": "RNW 19",
                    "fixes": {
                        "RNW 19": "RNW 19 TRK 189 UNTIL 1700"
                    }
                }
            ],
            "transitions": []
        },
        {
            "name": "SOUTH1",
            "rnw": "27",
            "fixes": {},
            "sub_fixes": [
                {
                    "rwy": "RNW 01",
                    "fixes": {
                        "RNW 01": "RNW 01 HDG 010 UNTIL 1700 TURN LEFT DIRECT",
                        "SF100": "SF100",
                        "NASNO": "NASNO AT OR ABOVE 11000"
                    }
                },
                {
                    "rwy": "RNW 19",
                    "fixes": {
                        "RNW 19": "RNW 19 HDG 190 UNTIL 1700",
                        "NASNO": "NASNO AT OR ABOVE 11000"
                    }
                }
            ],
            "transitions": []
        },
        {
            "name": "WEST1",
            "rnw": "27",
            "fixes": {},
            "sub_fixes": [
                {
                    "rwy": "RNW 01",
                    "fixes": {
                        "RNW 01": "RNW 01 HDG 010 UNTIL 1700",
                        "SF120": "SF120",
                        "SF121": "SF121",
                        "SF122": "SF122",
                        "SF123": "SF123 AT OR ABOVE 9000",
                        "HATRI": "HATRI"
                    }
                },
                {
                    "rwy": "RNW 19",
                    "fixes": {
                        "RNW 19": "RNW 19 HDG 190 UNTIL 1600",
                        "SF920": "SF920",
                        "SF921": "SF921",
                        "SF922": "SF922",
                        "SF923": "SF923 AT OR ABOVE 9000",
                        "HATRI": "HATRI"
                    }
                }
            ],
            "transitions": []
        }
    ],
    "stars": [
        {
            "name": "OKUJI",
            "runway": "RNW 01 RNW 19",
            "fixes": {
                "OKUJI": "OKUJI",
                "FKE26": "FKE26",
                "SOUMA": "SOUMA AT OR ABOVE 4600"
            }
        },
        {
            "name": "SOUMAN",
            "runway": "RNW 01 RNW 19",
            "fixes": {
                "HERON": "HERON AT OR ABOVE 8000",
                "ADTRA": "ADTRA",
                "SOUMA": "SOUMA AT OR ABOVE 4600"
            }
        },
        {
            "name": "SOUMAS",
            "runway": "RNW 01 RNW 19",
            "fixes": {
                "DAIGO": "DAIGO",
                "SOUMA": "SOUMA AT OR ABOVE 4600"
            }
        },
        {
            "name": "WAKAHN",
            "runway": "RNW 01 RNW 19",
            "fixes": {
                "HERON": "HERON AT OR ABOVE 8000",
                "WAKAH": "WAKAH AT OR ABOVE 5200"
            }
        },
        {
            "name": "WAKAHS",
            "runway": "RNW 01 RNW 19",
            "fixes": {
                "DAIGO": "DAIGO",
                "WISHU": "WISHU",
                "WAKAH": "WAKAH AT OR ABOVE 5200"
            }
        }
    ],
    "approaches": [
        {
            "name": "VORD19",
            "fixes": {
                "MAHOK": "MAHOK 3193",
                "MD19": "MD19 1506 RNW 19",
                "FKE": "FKE TRK 175 UNTIL 3000 TURN RIGHT DIRECT FKE 4700 HOLD AT FKE RIGHT TURN INBOUNDCOURSE 011 ALT 4700 SPEED 230 LEGTIME 1 FAF MAHOK MAP MD19"
            },
            "transitions": [
                {
                    "name": "FKE",
                    "fixes": {
                        "FKE": "FKE AT OR ABOVE 4700 TRK 011 UNTIL 10.0 FROM FKE SPEED 185 TURN LEFT DIRECT",
                        "D355J": "D355J AT OR ABOVE 3400"
                    }
                }
            ]
        },
        {
            "name": "ILSY01",
            "fixes": {
                "SOUMA": "SOUMA AT OR ABOVE 4600",
                "ABKMA": "ABKMA 3600 RNW 01 HDG 010 UNTIL 3000 TURN LEFT DIRECT",
                "FKE": "FKE 4700 HOLD AT FKE RIGHT TURN INBOUNDCOURSE 209 ALT 4700 SPEED 230 LEGTIME 1 FAF ABKMA MAP RNW 01"
            },
            "transitions": []
        },
        {
            "name": "ILSZ01",
            "fixes": {
                "CF01": "CF01 AT OR ABOVE 3600",
                "ABKMA": "ABKMA 3600 RNW 01 HDG 010 UNTIL 3000 TURN LEFT DIRECT",
                "FKE": "FKE 4700 HOLD AT FKE RIGHT TURN INBOUNDCOURSE 209 ALT 4700 SPEED 230 LEGTIME 1 FAF ABKMA MAP RNW 01"
            },
            "transitions": [
                {
                    "name": "FKE",
                    "fixes": {
                        "FKE": "FKE AT OR ABOVE 4700 TRK 209 UNTIL 11.0 FROM FKE SPEED 200"
                    }
                }
            ]
        },
        {
            "name": "RNAV19",
            "fixes": {
                "MATUN": "MATUN AT OR ABOVE 2800",
                "KAZMI": "KAZMI 2300",
                "SF951": "OVERFLY SF951 1323 RNW 19",
                "SF952": "OVERFLY SF952 TURN LEFT DIRECT",
                "FKE": "FKE 4700 HOLD AT FKE RIGHT TURN INBOUNDCOURSE 011 ALT 4700 SPEED 230 LEGTIME 1 FAF KAZMI MAP SF951"
            },
            "transitions": [
                {
                    "name": "WAKAH",
                    "fixes": {
                        "WAKAH": "WAKAH AT OR ABOVE 5200",
                        "SF950": "SF950 AT OR ABOVE 4100"
                    }
                }
            ]
        },
        {
            "name": "VORA01",
            "fixes": {
                "ABKMA": "ABKMA 2600",
                "56VOR": "56VOR AT OR ABOVE 1830",
                "FKE": "FKE 1770 RNW 01 TRK 008 UNTIL 3000 TURN LEFT DIRECT FKE 4700 HOLD AT FKE RIGHT TURN INBOUNDCOURSE 209 ALT 4700 SPEED 230 LEGTIME 1 FAF ABKMA MAP FKE"
            },
            "transitions": [
                {
                    "name": "FKE",
                    "fixes": {
                        "FKE": "FKE AT OR ABOVE 4700 TRK 210 UNTIL 11.0 FROM FKE SPEED 200 TURN LEFT DIRECT",
                        "D194K": "D194K AT OR ABOVE 3600"
                    }
                }
            ]
        },
        {
            "name": "VORA19",
            "fixes": {
                "ABKMA": "ABKMA 2600",
                "56VOR": "56VOR AT OR ABOVE 1830",
                "FKE": "FKE 1770 RNW 19 TRK 008 UNTIL 3000 TURN LEFT DIRECT FKE 4700 HOLD AT FKE RIGHT TURN INBOUNDCOURSE 209 ALT 4700 SPEED 230 LEGTIME 1 FAF ABKMA MAP FKE"
            },
            "transitions": [
                {
                    "name": "FKE",
                    "fixes": {
                        "FKE": "FKE AT OR ABOVE 4700 TRK 210 UNTIL 11.0 FROM FKE SPEED 200 TURN LEFT DIRECT",
                        "D194K": "D194K AT OR ABOVE 3600"
                    }
                }
            ]
        }
    ]
}