{
    "fixes": [
        {
            "name": "25VO2",
            "lat": 39.47381943333333,
            "lon": 141.14651666666666
        },
        {
            "name": "25VOR",
            "lat": 39.391880566666664,
            "lon": 141.12788056666668
        },
        {
            "name": "AF001",
            "lat": 39.65538673333333,
            "lon": 141.36175548333333
        },
        {
            "name": "AF002",
            "lat": 39.67434845,
            "lon": 141.32675171666668
        },
        {
            "name": "AKARI",
            "lat": 39.721516666666666,
            "lon": 141.13841388333333
        },
        {
            "name": "CF02",
            "lat": 39.25086388333333,
            "lon": 141.10882778333334
        },
        {
            "name": "CI20",
            "lat": 39.58934721666667,
            "lon": 141.17471666666665
        },
        {
            "name": "CS20",
            "lat": 39.5952,
            "lon": 141.18566111666667
        },
        {
            "name": "D019N",
            "lat": 39.645744433333334,
            "lon": 141.19004443333333
        },
        {
            "name": "D019R",
            "lat": 39.71123333333333,
            "lon": 141.20658333333333
        },
        {
            "name": "D022L",
            "lat": 39.62756666666667,
            "lon": 141.19612221666668
        },
        {
            "name": "D034Q",
            "lat": 39.68812221666666,
            "lon": 141.29439443333334
        },
        {
            "name": "D054Q",
            "lat": 39.63004721666667,
            "lon": 141.39729721666666
        },
        {
            "name": "D063Q",
            "lat": 39.593516666666666,
            "lon": 141.43562778333333
        },
        {
            "name": "D202H",
            "lat": 39.30386111666667,
            "lon": 141.09194443333334
        },
        {
            "name": "DASCO",
            "lat": 39.852555566666666,
            "lon": 141.14066111666668
        },
        {
            "name": "ESBEL",
            "lat": 39.875897216666665,
            "lon": 140.99025
        },
        {
            "name": "GANSU",
            "lat": 39.42012221666667,
            "lon": 141.20627778333332
        },
        {
            "name": "GEIBI",
            "lat": 39.81381111666666,
            "lon": 140.98333333333332
        },
        {
            "name": "GTC",
            "lat": 37.958294433333336,
            "lon": 139.11488611666667
        },
        {
            "name": "HANKA",
            "lat": 39.01832221666667,
            "lon": 140.561325
        },
        {
            "name": "HIZME",
            "lat": 39.52845,
            "lon": 141.15981388333333
        },
        {
            "name": "HPE",
            "lat": 39.43335833333333,
            "lon": 141.1335
        },
        {
            "name": "INAZO",
            "lat": 39.33696943333333,
            "lon": 141.11295833333332
        },
        {
            "name": "ISIDO",
            "lat": 39.49901388333333,
            "lon": 141.16584721666666
        },
        {
            "name": "JAMEN",
            "lat": 39.46753888333333,
            "lon": 141.3651
        },
        {
            "name": "KENDA",
            "lat": 39.42047221666667,
            "lon": 141.20218611666667
        },
        {
            "name": "MAMEB",
            "lat": 39.809322216666665,
            "lon": 141.03878056666667
        },
        {
            "name": "MASAH",
            "lat": 39.51445556666667,
            "lon": 141.15863611666666
        },
        {
            "name": "MORIO",
            "lat": 39.612555566666664,
            "lon": 141.47173333333333
        },
        {
            "name": "MOUSU",
            "lat": 39.35530833333333,
            "lon": 141.13855833333332
        },
        {
            "name": "NAKAN",
            "lat": 39.41379443333334,
            "lon": 141.226975
        },
        {
            "name": "NITBE",
            "lat": 39.254986116666664,
            "lon": 141.09297778333334
        },
        {
            "name": "NOJYO",
            "lat": 39.794322216666664,
            "lon": 141.02843056666666
        },
        {
            "name": "NONBE",
            "lat": 39.759275,
            "lon": 141.07519166666665
        },
        {
            "name": "OHSHU",
            "lat": 40.436486116666664,
            "lon": 141.15079721666666
        },
        {
            "name": "PALPA",
            "lat": 39.33102221666667,
            "lon": 141.21339721666666
        },
        {
            "name": "REMEN",
            "lat": 39.23942221666667,
            "lon": 141.19840833333333
        },
        {
            "name": "RF001",
            "lat": 39.37430618333333,
            "lon": 141.2139709
        },
        {
            "name": "RF002",
            "lat": 39.35622858333333,
            "lon": 141.19727853333333
        },
        {
            "name": "RF003",
            "lat": 39.34955255,
            "lon": 141.16988231666667
        },
        {
            "name": "RF004",
            "lat": 39.480099466666665,
            "lon": 141.22496748333333
        },
        {
            "name": "RF005",
            "lat": 39.49357823333333,
            "lon": 141.19591703333333
        },
        {
            "name": "RF006",
            "lat": 39.48769085,
            "lon": 141.16288866666667
        },
        {
            "name": "RF007",
            "lat": 39.45847353333333,
            "lon": 141.23405583333334
        },
        {
            "name": "RF008",
            "lat": 39.49281798333333,
            "lon": 141.20054946666667
        },
        {
            "name": "RYUHO",
            "lat": 39.63194443333333,
            "lon": 141.05290833333333
        },
        {
            "name": "RYUTA",
            "lat": 39.111888883333336,
            "lon": 141.05821943333333
        },
        {
            "name": "SAMBO",
            "lat": 40.18775556666667,
            "lon": 140.95038056666667
        },
        {
            "name": "SHIHO",
            "lat": 39.33486943333333,
            "lon": 141.11998611666667
        },
        {
            "name": "SI010",
            "lat": 39.44983333333333,
            "lon": 141.03211111666667
        },
        {
            "name": "SI050",
            "lat": 39.43700833333333,
            "lon": 141.22394721666666
        },
        {
            "name": "SI051",
            "lat": 39.465638883333334,
            "lon": 141.14441388333333
        },
        {
            "name": "SI052",
            "lat": 39.30178333333333,
            "lon": 141.10437778333332
        },
        {
            "name": "SI053",
            "lat": 39.454669433333336,
            "lon": 141.23369166666666
        },
        {
            "name": "SI250",
            "lat": 39.39306666666667,
            "lon": 141.12665833333332
        },
        {
            "name": "SI251",
            "lat": 39.5313,
            "lon": 141.16050556666667
        },
        {
            "name": "SI252",
            "lat": 39.39640833333333,
            "lon": 141.21330278333335
        },
        {
            "name": "SI253",
            "lat": 39.39110278333333,
            "lon": 141.12617778333333
        },
        {
            "name": "SIOMO",
            "lat": 39.13382778333333,
            "lon": 140.90841111666666
        },
        {
            "name": "SUIHO",
            "lat": 39.613697216666665,
            "lon": 141.18075833333333
        },
        {
            "name": "TAIHO",
            "lat": 39.62287778333334,
            "lon": 141.116575
        },
        {
            "name": "WANKO",
            "lat": 39.46916388333333,
            "lon": 141.00545556666665
        }
    ],
    "rnws": [
        "RNW 02",
        "RNW 20"
    ],
    "sids": [
        {
            "name": "GTC4",
            "rnw": "15",
            "fixes": {
                "HPE": "HPE AT OR ABOVE 2200",
                "GTC": "GTC"
            },
            "sub_fixes": [
                {
                    "rwy": "RNW 02",
                    "fixes": {
                        "RNW 02": "RNW 02 TRK 020 UNTIL 3.5 FROM",
                        "HPE": "HPE"
                    }
                },
                {
                    "rwy": "RNW 20",
                    "fixes": {
                        "RNW 20": "RNW 20 TRK 200 UNTIL 3.5 FROM",
                        "HPE": "HPE"
                    }
                }
            ],
            "transitions": []
        },
        {
            "name": "HANKA1",
            "rnw": "15",
            "fixes": {},
            "sub_fixes": [
                {
                    "rwy": "RNW 02",
                    "fixes": {
                        "RNW 02": "RNW 02 HDG 019 UNTIL 1600 TURN LEFT DIRECT",
                        "HANKA": "HANKA AT OR ABOVE 11000"
                    }
                },
                {
                    "rwy": "RNW 20",
                    "fixes": {
                        "RNW 20": "RNW 20 HDG 199 UNTIL 800",
                        "HANKA": "HANKA AT OR ABOVE 11000"
                    }
                }
            ],
            "transitions": []
        },
        {
            "name": "HPE2R",
            "rnw": "15",
            "fixes": {},
            "sub_fixes": [
                {
                    "rwy": "RNW 02",
                    "fixes": {
                        "RNW 02": "RNW 02 TRK 020 UNTIL 700 TRK 022 UNTIL 6.0 FROM",
                        "HPE": "HPE TURN RIGHT DIRECT HPE AT OR ABOVE 6000"
                    }
                },
                {
                    "rwy": "RNW 20",
                    "fixes": {
                        "RNW 20": "RNW 20 TRK 200 UNTIL 700 TRK 194 UNTIL 6.0 FROM",
                        "HPE": "HPE TURN LEFT DIRECT HPE AT OR ABOVE 6000"
                    }
                }
            ],
            "transitions": []
        },
        {
            "name": "OHSHU1",
            "rnw": "15",
            "fixes": {},
            "sub_fixes": [
                {
                    "rwy": "RNW 02",
                    "fixes": {
                        "RNW 02": "RNW 02 TRK 020 UNTIL 900",
                        "OHSHU": "OHSHU"
                    }
                },
                {
                    "rwy": "RNW 20",
                    "fixes": {
                        "RNW 20": "RNW 20 TRK 200 UNTIL 1300 TURN LEFT HDG 324 INTERCEPT RADIAL 009 TO",
                        "OHSHU": "OHSHU OHSHU"
                    }
                }
            ],
            "transitions": []
        },
        {
            "name": "SAMBO1",
            "rnw": "15",
            "fixes": {},
            "sub_fixes": [
                {
                    "rwy": "RNW 02",
                    "fixes": {
                        "RNW 02": "RNW 02 HDG 019 UNTIL 700",
                        "AKARI": "AKARI",
                        "DASCO": "DASCO",
                        "SAMBO": "SAMBO"
                    }
                },
                {
                    "rwy": "RNW 20",
                    "fixes": {
                        "RNW 20": "RNW 20 HDG 199 UNTIL 1300 TURN RIGHT DIRECT",
                        "SI010": "SI010",
                        "AKARI": "AKARI",
                        "DASCO": "DASCO",
                        "SAMBO": "SAMBO"
                    }
                }
            ],
            "transitions": []
        }
    ],
    "stars": [
        {
            "name": "REMEN",
            "runway": "RNW 02",
            "fixes": {
                "MORIO": "MORIO AT OR ABOVE 9000",
                "JAMEN": "JAMEN AT OR ABOVE 7400",
                "REMEN": "REMEN AT OR ABOVE 4100"
            }
        },
        {
            "name": "REMENW",
            "runway": "RNW 20",
            "fixes": {
                "SIOMO": "SIOMO AT OR ABOVE 8000",
                "REMEN": "REMEN AT OR ABOVE 6000"
            }
        },
        {
            "name": "SIOMO",
            "runway": "RNW 02",
            "fixes": {
                "ESBEL": "ESBEL AT OR ABOVE 9000",
                "GEIBI": "GEIBI AT OR ABOVE 8200",
                "SIOMO": "SIOMO AT OR ABOVE 8000"
            }
        },
        {
            "name": "SUIHO",
            "runway": "RNW 20",
            "fixes": {
                "ESBEL": "ESBEL AT OR ABOVE 9000",
                "MAMEB": "MAMEB AT OR ABOVE 8200",
                "NONBE": "NONBE AT OR ABOVE 6600",
                "SUIHO": "SUIHO AT OR ABOVE 3200"
            }
        },
        {
            "name": "WANKO",
            "runway": "RNW 20",
            "fixes": {
                "SIOMO": "SIOMO AT OR ABOVE 8000",
                "WANKO": "WANKO AT OR ABOVE 5800"
            }
        }
    ],
    "approaches": [
        {
            "name": "VORD02",
            "fixes": {
                "CF02": "CF02 AT OR ABOVE 2300",
                "SHIHO": "SHIHO 1925",
                "25VOR": "25VOR AT OR ABOVE 830 RNW 02",
                "HPE": "HPE TRK 014 UNTIL 6.0 FROM HPE TURN RIGHT DIRECT HPE 4500 HOLD AT HPE LEFT TURN INBOUNDCOURSE 178 SPEED 230 LEGTIME 1 FAF SHIHO MAP RNW 02"
            },
            "transitions": [
                {
                    "name": "HPE",
                    "fixes": {
                        "HPE": "HPE AT OR ABOVE 4500 TRK 178 UNTIL 11.0 FROM HPE SPEED 200"
                    }
                }
            ]
        },
        {
            "name": "VORD20",
            "fixes": {
                "CS20": "CS20 AT OR ABOVE 2600",
                "MASAH": "MASAH 1805",
                "25VO2": "25VO2 AT OR ABOVE 1008 RNW 20",
                "HPE": "OVERFLY HPE TRK 202 UNTIL 8.0 FROM HPE TURN LEFT DIRECT HPE 4000 HOLD AT HPE RIGHT TURN INBOUNDCOURSE 007 SPEED 230 LEGTIME 1 FAF MASAH MAP RNW 20"
            },
            "transitions": [
                {
                    "name": "HPE",
                    "fixes": {
                        "HPE": "HPE AT OR ABOVE 4000 TRK 007 UNTIL 12.0 FROM HPE SPEED 200 TURN RIGHT DIRECT",
                        "D022L": "D022L AT OR ABOVE 3500"
                    }
                }
            ]
        },
        {
            "name": "ILSY20",
            "fixes": {
                "CI20": "CI20 AT OR ABOVE 2700",
                "HIZME": "HIZME 2100 RNW 20 TRK 199 UNTIL 800",
                "D202H": "OVERFLY D202H TURN LEFT DIRECT",
                "HPE": "HPE 4000 HOLD AT HPE RIGHT TURN INBOUNDCOURSE 006 SPEED 230 LEGTIME 1 FAF HIZME MAP RNW 20"
            },
            "transitions": [
                {
                    "name": "MORIO",
                    "fixes": {
                        "MORIO": "MORIO AT OR ABOVE 9000",
                        "D063Q": "D063Q",
                        "D054Q": "D054Q AT OR ABOVE 7200",
                        "AF001": "AF001",
                        "AF002": "AF002",
                        "D034Q": "D034Q AT OR ABOVE 5000",
                        "D019R": "D019R AT OR ABOVE 3400",
                        "SUIHO": "SUIHO AT OR ABOVE 3200"
                    }
                },
                {
                    "name": "WANKO",
                    "fixes": {
                        "WANKO": "WANKO AT OR ABOVE 5800",
                        "RYUHO": "RYUHO AT OR ABOVE 4200 SPEED 200",
                        "TAIHO": "TAIHO AT OR ABOVE 4000",
                        "SUIHO": "SUIHO AT OR ABOVE 3200"
                    }
                }
            ]
        },
        {
            "name": "ILSZ20",
            "fixes": {
                "CI20": "CI20 AT OR ABOVE 2700",
                "HIZME": "HIZME 2100 RNW 20 TRK 199 UNTIL 800",
                "D202H": "OVERFLY D202H TURN LEFT DIRECT",
                "HPE": "HPE 4000 HOLD AT HPE RIGHT TURN INBOUNDCOURSE 006 SPEED 230 LEGTIME 1 FAF HIZME MAP RNW 20"
            },
            "transitions": [
                {
                    "name": "HPE",
                    "fixes": {
                        "HPE": "HPE AT OR ABOVE 4000 TRK 006 UNTIL 13.0 FROM HPE SPEED 200 TURN RIGHT DIRECT",
                        "D019N": "D019N AT OR ABOVE 3600"
                    }
                }
            ]
        },
        {
            "name": "RNAVY02",
            "fixes": {
                "ISIDO": "ISIDO AT OR ABOVE 4000",
                "KENDA": "KENDA 3800",
                "SI252": "SI252 3312 SPEED 165",
                "RF001": "RF001",
                "RF002": "RF002",
                "RF003": "RF003",
                "SI253": "SI253 848 RNW 02",
                "SI251": "OVERFLY SI251 TURN RIGHT DIRECT",
                "HPE": "HPE 4500 HOLD AT HPE LEFT TURN INBOUNDCOURSE 178 ALT 4500 SPEED 230 LEGTIME 1 FAF KENDA MAP RNW 02"
            },
            "transitions": [
                {
                    "name": "ESBEL",
                    "fixes": {
                        "ESBEL": "ESBEL AT OR ABOVE 9000",
                        "NOJYO": "NOJYO AT OR ABOVE 8200"
                    }
                }
            ]
        },
        {
            "name": "RNAVZ02",
            "fixes": {
                "NITBE": "NITBE AT OR ABOVE 2000",
                "INAZO": "INAZO 1900",
                "SI250": "SI250 AT OR ABOVE 810 RNW 02",
                "SI251": "OVERFLY SI251 TURN RIGHT DIRECT",
                "HPE": "HPE 4500 HOLD AT HPE LEFT TURN INBOUNDCOURSE 178 ALT 4500 SPEED 230 LEGTIME 1 FAF INAZO MAP RNW 02"
            },
            "transitions": [
                {
                    "name": "REMEN",
                    "fixes": {
                        "REMEN": "REMEN"
                    }
                },
                {
                    "name": "SIOMO",
                    "fixes": {
                        "SIOMO": "SIOMO",
                        "RYUTA": "RYUTA AT OR ABOVE 3900"
                    }
                }
            ]
        },
        {
            "name": "RNAVY20",
            "fixes": {
                "NAKAN": "NAKAN 3700",
                "SI053": "SI053 2913 SPEED 165",
                "RF004": "RF004",
                "RF005": "RF005",
                "RF006": "RF006",
                "SI051": "SI051 853 RNW 20",
                "SI052": "OVERFLY SI052 TURN LEFT DIRECT",
                "HPE": "HPE 4000 HOLD AT HPE RIGHT TURN INBOUNDCOURSE 006 ALT 4000 SPEED 230 LEGTIME 1 FAF NAKAN MAP RNW 20"
            },
            "transitions": [
                {
                    "name": "REMEN",
                    "fixes": {
                        "REMEN": "REMEN AT OR ABOVE 6000",
                        "PALPA": "PALPA"
                    }
                }
            ]
        },
        {
            "name": "RNAVZ20",
            "fixes": {
                "MOUSU": "MOUSU AT OR ABOVE 4800",
                "GANSU": "GANSU 3700",
                "SI050": "SI050 3285 SPEED 165",
                "RF007": "RF007",
                "RF004": "RF004",
                "RF008": "RF008",
                "SI051": "SI051 853 RNW 20",
                "SI052": "OVERFLY SI052 TURN LEFT DIRECT",
                "HPE": "HPE 4000 HOLD AT HPE RIGHT TURN INBOUNDCOURSE 006 ALT 4000 SPEED 230 LEGTIME 1 FAF GANSU MAP RNW 20"
            },
            "transitions": [
                {
                    "name": "SIOMO",
                    "fixes": {
                        "SIOMO": "SIOMO AT OR ABOVE 8000"
                    }
                }
            ]
        }
    ]
}