{
    "fixes": [
        {
            "name": "AF001",
            "lat": 33.18671608333333,
            "lon": 126.58214931666667
        },
        {
            "name": "AF002",
            "lat": 33.17107551666667,
            "lon": 126.62525203333334
        },
        {
            "name": "AF003",
            "lat": 33.199387683333335,
            "lon": 126.87174518333333
        },
        {
            "name": "AF004",
            "lat": 33.17527641666667,
            "lon": 126.81739678333334
        },
        {
            "name": "BIGTU",
            "lat": 33.15841666666667,
            "lon": 126.71286111666667
        },
        {
            "name": "CJU",
            "lat": 33.38461111666667,
            "lon": 126.62411111666667
        },
        {
            "name": "D002B",
            "lat": 33.42547221666667,
            "lon": 126.71133333333333
        },
        {
            "name": "D012B",
            "lat": 33.41713888333334,
            "lon": 126.71663888333333
        },
        {
            "name": "D086H",
            "lat": 33.41951111666667,
            "lon": 126.87037221666667
        },
        {
            "name": "D091E",
            "lat": 33.39329721666667,
            "lon": 126.72309721666667
        },
        {
            "name": "D178N",
            "lat": 33.161258333333336,
            "lon": 126.75795278333334
        },
        {
            "name": "D196N",
            "lat": 33.161258333333336,
            "lon": 126.67098888333334
        },
        {
            "name": "EGOMI",
            "lat": 33.206861116666666,
            "lon": 126.54463888333333
        },
        {
            "name": "FD01",
            "lat": 33.30888888333333,
            "lon": 126.70722221666666
        },
        {
            "name": "FF01",
            "lat": 33.30283333333333,
            "lon": 126.71202778333333
        },
        {
            "name": "GAEBI",
            "lat": 33.457222216666665,
            "lon": 126.63194443333333
        },
        {
            "name": "GAPHA",
            "lat": 33.159027783333336,
            "lon": 126.69419443333334
        },
        {
            "name": "GONEE",
            "lat": 33.443333333333335,
            "lon": 126.86166666666666
        },
        {
            "name": "JDG",
            "lat": 33.39216666666667,
            "lon": 126.71447221666666
        },
        {
            "name": "MA01",
            "lat": 33.357111116666665,
            "lon": 126.71172221666667
        },
        {
            "name": "MD01",
            "lat": 33.350527783333334,
            "lon": 126.71083333333333
        },
        {
            "name": "MUPAS",
            "lat": 33.18030556666667,
            "lon": 126.51430556666666
        },
        {
            "name": "PD501",
            "lat": 33.23230556666667,
            "lon": 126.71244443333333
        },
        {
            "name": "PD502",
            "lat": 33.30169443333333,
            "lon": 126.71205556666666
        },
        {
            "name": "PD515",
            "lat": 33.42547221666667,
            "lon": 126.71133333333333
        },
        {
            "name": "PD516",
            "lat": 33.382,
            "lon": 126.84375
        },
        {
            "name": "PD701",
            "lat": 33.38191666666667,
            "lon": 126.87013888333334
        },
        {
            "name": "PD702",
            "lat": 33.32538888333333,
            "lon": 126.98044443333333
        },
        {
            "name": "PD801",
            "lat": 33.43869443333333,
            "lon": 126.71127778333333
        },
        {
            "name": "PD802",
            "lat": 33.41641666666666,
            "lon": 126.83819443333333
        },
        {
            "name": "PD803",
            "lat": 33.34019443333333,
            "lon": 126.88166666666666
        },
        {
            "name": "PD804",
            "lat": 33.27680556666667,
            "lon": 126.78347221666667
        },
        {
            "name": "PD811",
            "lat": 33.24338888333333,
            "lon": 126.71238888333333
        },
        {
            "name": "PD812",
            "lat": 33.20138888333334,
            "lon": 126.60483333333333
        },
        {
            "name": "PD813",
            "lat": 33.25122221666667,
            "lon": 126.52022221666667
        },
        {
            "name": "PD814",
            "lat": 33.33772221666667,
            "lon": 126.52925
        },
        {
            "name": "SUPUL",
            "lat": 33.42972221666667,
            "lon": 126.92888888333333
        },
        {
            "name": "TENUL",
            "lat": 33.23377778333333,
            "lon": 126.91908333333333
        },
        {
            "name": "TODAL",
            "lat": 33.491,
            "lon": 126.76497221666666
        }
    ],
    "rnws": [
        "RNW 01",
        "RNW 15",
        "RNW 19",
        "RNW 33"
    ],
    "sids": [
        {
            "name": "CJU1N",
            "rnw": "01",
            "fixes": {
                "PD801": "OVERFLY PD801 SPEED 210 TURN RIGHT DIRECT",
                "PD802": "PD802 SPEED 210",
                "PD803": "PD803 7000 SPEED 210",
                "PD804": "PD804 SPEED 210",
                "CJU": "CJU 9000"
            },
            "sub_fixes": [],
            "transitions": []
        },
        {
            "name": "CJU1S",
            "rnw": "19",
            "fixes": {
                "PD811": "PD811 SPEED 210",
                "PD812": "PD812 SPEED 210",
                "PD813": "PD813 SPEED 210",
                "PD814": "PD814 SPEED 210",
                "CJU": "CJU 9000"
            },
            "sub_fixes": [],
            "transitions": []
        },
        {
            "name": "CJU5A",
            "rnw": "01",
            "fixes": {
                "JDG": "JDG TURN RIGHT HDG 241 INTERCEPT RADIAL 271 TO",
                "D091E": "D091E AT OR BELOW 7000 AT OR ABOVE 5000",
                "CJU": "CJU"
            },
            "sub_fixes": [],
            "transitions": []
        },
        {
            "name": "CJU5B",
            "rnw": "19",
            "fixes": {
                "JDG": "JDG TURN RIGHT DIRECT",
                "CJU": "CJU SPEED 210"
            },
            "sub_fixes": [],
            "transitions": []
        },
        {
            "name": "EGOM1N",
            "rnw": "01",
            "fixes": {
                "JDG": "JDG SPEED 210",
                "EGOMI": "EGOMI"
            },
            "sub_fixes": [],
            "transitions": []
        },
        {
            "name": "EGOM1S",
            "rnw": "19",
            "fixes": {
                "JDG": "JDG HDG 265 INTERCEPT RADIAL 225 TO",
                "EGOMI": "EGOMI"
            },
            "sub_fixes": [],
            "transitions": []
        },
        {
            "name": "GONE1A",
            "rnw": "01",
            "fixes": {
                "JDG": "JDG TURN RIGHT HDG 130 INTERCEPT RADIAL 075 TO",
                "GONEE": "GONEE"
            },
            "sub_fixes": [],
            "transitions": []
        },
        {
            "name": "SUPU1A",
            "rnw": "19",
            "fixes": {
                "JDG": "JDG TURN LEFT HDG 015 INTERCEPT RADIAL 086 TO",
                "D086H": "D086H",
                "SUPUL": "SUPUL"
            },
            "sub_fixes": [],
            "transitions": []
        }
    ],
    "stars": [
        {
            "name": "CJU1T",
            "runway": "RNW 01",
            "fixes": {
                "CJU": "CJU 10000",
                "PD701": "PD701 10000",
                "PD702": "PD702 AT OR ABOVE 8000",
                "TENUL": "TENUL AT OR ABOVE 6000"
            }
        },
        {
            "name": "GEB1A",
            "runway": "RNW 01",
            "fixes": {
                "GAEBI": "GAEBI",
                "JDG": "JDG 10000",
                "TENUL": "TENUL AT OR ABOVE 6000"
            }
        },
        {
            "name": "TDL1A",
            "runway": "RNW 01",
            "fixes": {
                "TODAL": "TODAL",
                "JDG": "JDG 10000",
                "TENUL": "TENUL AT OR ABOVE 6000"
            }
        },
        {
            "name": "TODA1T",
            "runway": "RNW 01",
            "fixes": {
                "TODAL": "TODAL 10000",
                "PD701": "PD701 10000",
                "PD702": "PD702 AT OR ABOVE 8000",
                "TENUL": "TENUL AT OR ABOVE 6000"
            }
        }
    ],
    "approaches": [
        {
            "name": "VORD01",
            "fixes": {
                "GAPHA": "GAPHA AT OR ABOVE 3800",
                "FD01": "FD01 2700",
                "MD01": "MD01 1832 RNW 01",
                "D012B": "OVERFLY D012B TURN RIGHT HDG 180 INTERCEPT RADIAL 140 TO",
                "TENUL": "TENUL SPEED 210 TENUL AT OR ABOVE 6000 HOLD AT TENUL RIGHT TURN INBOUNDCOURSE 320 ALT 6000 SPEED 210 LEGTIME 1 FAF FD01 MAP MD01"
            },
            "transitions": [
                {
                    "name": "EGOMI",
                    "fixes": {
                        "EGOMI": "EGOMI AT OR ABOVE 5000"
                    }
                },
                {
                    "name": "TENUL",
                    "fixes": {
                        "TENUL": "TENUL AT OR ABOVE 6000"
                    }
                }
            ]
        },
        {
            "name": "ILS01",
            "fixes": {
                "BIGTU": "BIGTU AT OR ABOVE 3800",
                "FF01": "FF01 2700 RNW 01",
                "D002B": "OVERFLY D002B TURN RIGHT HDG 180 INTERCEPT RADIAL 140 TO",
                "TENUL": "TENUL SPEED 210 TENUL AT OR ABOVE 6000 HOLD AT TENUL RIGHT TURN INBOUNDCOURSE 320 ALT 7000 SPEED 210 LEGTIME 1 FAF FF01 MAP RNW 01"
            },
            "transitions": [
                {
                    "name": "EGOMI",
                    "fixes": {
                        "EGOMI": "EGOMI AT OR ABOVE 5000",
                        "AF001": "AF001",
                        "AF002": "AF002",
                        "D196N": "D196N AT OR ABOVE 3800"
                    }
                },
                {
                    "name": "TENUL",
                    "fixes": {
                        "TENUL": "TENUL AT OR ABOVE 6000",
                        "AF003": "AF003",
                        "AF004": "AF004",
                        "D178N": "D178N AT OR ABOVE 3800"
                    }
                }
            ]
        },
        {
            "name": "LOC01",
            "fixes": {
                "BIGTU": "BIGTU AT OR ABOVE 3800",
                "FF01": "FF01 2700",
                "MA01": "MA01 1645 RNW 01",
                "D002B": "OVERFLY D002B TURN RIGHT HDG 180 INTERCEPT RADIAL 140 TO",
                "TENUL": "TENUL SPEED 210 TENUL AT OR ABOVE 6000 HOLD AT TENUL RIGHT TURN INBOUNDCOURSE 320 ALT 7000 SPEED 210 LEGTIME 1 FAF FF01 MAP MA01"
            },
            "transitions": [
                {
                    "name": "EGOMI",
                    "fixes": {
                        "EGOMI": "EGOMI AT OR ABOVE 5000",
                        "AF001": "AF001",
                        "AF002": "AF002",
                        "D196N": "D196N AT OR ABOVE 3800"
                    }
                },
                {
                    "name": "TENUL",
                    "fixes": {
                        "TENUL": "TENUL AT OR ABOVE 6000",
                        "AF003": "AF003",
                        "AF004": "AF004",
                        "D178N": "D178N AT OR ABOVE 3800"
                    }
                }
            ]
        },
        {
            "name": "RNAV01",
            "fixes": {
                "PD501": "PD501 AT OR ABOVE 3800",
                "PD502": "PD502 2700 RNW 01",
                "PD515": "OVERFLY PD515 SPEED 210 TURN RIGHT DIRECT",
                "PD516": "PD516 SPEED 210",
                "TENUL": "OVERFLY TENUL AT OR ABOVE 6000 SPEED 210 HOLD AT TENUL RIGHT TURN INBOUNDCOURSE 320 ALT 7000 SPEED 210 LEGTIME 1 FAF PD502 MAP RNW 01"
            },
            "transitions": [
                {
                    "name": "MUPAS",
                    "fixes": {
                        "MUPAS": "MUPAS AT OR ABOVE 6000"
                    }
                },
                {
                    "name": "TENUL",
                    "fixes": {
                        "TENUL": "TENUL AT OR ABOVE 6000"
                    }
                }
            ]
        }
    ]
}