{
    "fixes": [
        {
            "name": "AR001",
            "lat": 11.651561116666667,
            "lon": 37.06806111666667
        },
        {
            "name": "AR002",
            "lat": 10.814047216666667,
            "lon": 37.14233611666667
        },
        {
            "name": "AR003",
            "lat": 10.982475,
            "lon": 37.115913883333334
        },
        {
            "name": "AR361",
            "lat": 10.882361116666667,
            "lon": 37.28127778333333
        },
        {
            "name": "AR362",
            "lat": 10.974416666666666,
            "lon": 37.351416666666665
        },
        {
            "name": "AR363",
            "lat": 11.071055566666667,
            "lon": 37.28788888333333
        },
        {
            "name": "AR364",
            "lat": 10.977888883333334,
            "lon": 37.249805566666666
        },
        {
            "name": "AR366",
            "lat": 10.980777783333334,
            "lon": 37.165138883333334
        },
        {
            "name": "AR367",
            "lat": 10.990138883333334,
            "lon": 36.89094443333333
        },
        {
            "name": "AR368",
            "lat": 11.085666666666667,
            "lon": 36.8595
        },
        {
            "name": "AR369",
            "lat": 10.897,
            "lon": 36.852916666666665
        },
        {
            "name": "AR371",
            "lat": 10.98725,
            "lon": 36.97563888333333
        },
        {
            "name": "ARU",
            "lat": 10.981925,
            "lon": 37.07737778333333
        },
        {
            "name": "ARU01",
            "lat": 10.985019433333333,
            "lon": 37.114213883333335
        },
        {
            "name": "ARU02",
            "lat": 10.982177783333332,
            "lon": 37.080388883333335
        },
        {
            "name": "ARU03",
            "lat": 10.982797216666667,
            "lon": 37.060236116666665
        },
        {
            "name": "ARU08",
            "lat": 10.986177783333334,
            "lon": 37.128030566666666
        },
        {
            "name": "ATARO",
            "lat": 12.034911116666667,
            "lon": 37.550266666666666
        },
        {
            "name": "DAMAV",
            "lat": 11.335247216666666,
            "lon": 37.653522216666666
        },
        {
            "name": "DENDO",
            "lat": 10.246833333333333,
            "lon": 36.4295
        },
        {
            "name": "ESDEP",
            "lat": 10.989008333333333,
            "lon": 37.1618
        },
        {
            "name": "ESLIB",
            "lat": 13.087,
            "lon": 37.27033333333333
        },
        {
            "name": "GATUL",
            "lat": 11.154,
            "lon": 36.998452783333335
        },
        {
            "name": "GEDIS",
            "lat": 10.996058333333334,
            "lon": 37.246172216666665
        },
        {
            "name": "GIKPU",
            "lat": 10.855555566666666,
            "lon": 36.966194433333335
        },
        {
            "name": "ILKUK",
            "lat": 11.122333333333334,
            "lon": 37.169666666666664
        },
        {
            "name": "ORAGO",
            "lat": 10.314666666666668,
            "lon": 36.56316666666667
        },
        {
            "name": "PAKAD",
            "lat": 10.986225,
            "lon": 36.99270833333333
        },
        {
            "name": "PULUR",
            "lat": 10.981375,
            "lon": 37.148208333333336
        },
        {
            "name": "RAXOT",
            "lat": 12.218225,
            "lon": 37.249327783333335
        },
        {
            "name": "SIKAT",
            "lat": 10.990497216666666,
            "lon": 36.908088883333335
        },
        {
            "name": "SIMAD",
            "lat": 10.464675,
            "lon": 36.59538056666667
        },
        {
            "name": "VUGRA",
            "lat": 10.841333333333333,
            "lon": 36.676411116666664
        }
    ],
    "rnws": [
        "RNW 12",
        "RNW 30"
    ],
    "sids": [
        {
            "name": "GATU1A",
            "rnw": "12",
            "fixes": {
                "GATUL": "GATUL"
            },
            "sub_fixes": [],
            "transitions": [
                {
                    "name": "ATARO",
                    "fixes": [
                        "ATARO"
                    ]
                },
                {
                    "name": "DAMAV",
                    "fixes": [
                        "DAMAV"
                    ]
                },
                {
                    "name": "ESLIB",
                    "fixes": [
                        "AR001",
                        "ESLIB"
                    ]
                },
                {
                    "name": "RAXOT",
                    "fixes": [
                        "AR001",
                        "RAXOT"
                    ]
                }
            ]
        },
        {
            "name": "OMNI",
            "rnw": "12",
            "fixes": {},
            "sub_fixes": [
                {
                    "rwy": "RNW 12",
                    "fixes": {
                        "RNW 12": "RNW 12 TRK 115 UNTIL 1500 HDG 115 VECTORS"
                    }
                },
                {
                    "rwy": "RNW 30",
                    "fixes": {
                        "RNW 30": "RNW 30 TRK 295 UNTIL 1500 HDG 295 VECTORS"
                    }
                }
            ],
            "transitions": []
        },
        {
            "name": "PULU1A",
            "rnw": "30",
            "fixes": {
                "PULUR": "OVERFLY PULUR"
            },
            "sub_fixes": [],
            "transitions": [
                {
                    "name": "ATARO",
                    "fixes": [
                        "ATARO"
                    ]
                },
                {
                    "name": "DAMAV",
                    "fixes": [
                        "DAMAV"
                    ]
                },
                {
                    "name": "DENDO",
                    "fixes": [
                        "AR002",
                        "ORAGO",
                        "DENDO"
                    ]
                },
                {
                    "name": "ESLIB",
                    "fixes": [
                        "RAXOT",
                        "ESLIB"
                    ]
                },
                {
                    "name": "ORAGO",
                    "fixes": [
                        "AR002",
                        "ORAGO"
                    ]
                },
                {
                    "name": "RAXOT",
                    "fixes": [
                        "RAXOT"
                    ]
                }
            ]
        },
        {
            "name": "SIMA1A",
            "rnw": "12",
            "fixes": {
                "SIMAD": "SIMAD"
            },
            "sub_fixes": [],
            "transitions": [
                {
                    "name": "DENDO",
                    "fixes": [
                        "DENDO"
                    ]
                },
                {
                    "name": "ORAGO",
                    "fixes": [
                        "ORAGO"
                    ]
                }
            ]
        },
        {
            "name": "VUGR1A",
            "rnw": "12",
            "fixes": {
                "VUGRA": "VUGRA",
                "SIMAD": "SIMAD"
            },
            "sub_fixes": [],
            "transitions": [
                {
                    "name": "DENDO",
                    "fixes": [
                        "DENDO"
                    ]
                },
                {
                    "name": "ORAGO",
                    "fixes": [
                        "ORAGO"
                    ]
                }
            ]
        }
    ],
    "stars": [],
    "approaches": [
        {
            "name": "VORDW12",
            "fixes": {
                "GEDIS": "GEDIS AT OR ABOVE 2000",
                "ESDEP": "ESDEP 1610",
                "ARU01": "ARU01 AT OR ABOVE 710",
                "ARU02": "ARU02 73 RNW 12 TRK 108 UNTIL 2000 TURN RIGHT DIRECT",
                "ARU": "ARU AT OR ABOVE 3000 HOLD AT ARU RIGHT TURN INBOUNDCOURSE 309 ALT 3000 LEGTIME 1 FAF ESDEP MAP ARU02"
            },
            "transitions": [
                {
                    "name": "ARU",
                    "fixes": {
                        "ARU": "ARU AT OR ABOVE 3000 TRK 309 UNTIL 12.0 FROM ARU"
                    }
                }
            ]
        },
        {
            "name": "VORDX12",
            "fixes": {
                "GEDIS": "GEDIS AT OR ABOVE 2000",
                "ESDEP": "ESDEP 1610",
                "ARU08": "ARU08 AT OR ABOVE 972",
                "ARU02": "ARU02 73 RNW 12",
                "ARU": "OVERFLY ARU TRK 108 UNTIL 1500 TURN RIGHT HDG 280 INTERCEPT RADIAL 236 TO",
                "ILKUK": "ILKUK SPEED 200 ILKUK AT OR ABOVE 3000 SPEED 200 HOLD AT ILKUK RIGHT TURN INBOUNDCOURSE 056 ALT 3000 LEGTIME 1 FAF ESDEP MAP ARU02"
            },
            "transitions": [
                {
                    "name": "GIKPU",
                    "fixes": {
                        "GIKPU": "GIKPU AT OR ABOVE 3000"
                    }
                },
                {
                    "name": "ILKUK",
                    "fixes": {
                        "ILKUK": "ILKUK AT OR ABOVE 3000"
                    }
                }
            ]
        },
        {
            "name": "VORDV30",
            "fixes": {
                "SIKAT": "SIKAT AT OR ABOVE 2000",
                "PAKAD": "PAKAD 1350",
                "ARU03": "ARU03 72 RNW 30 TRK 296 UNTIL 2000 TURN RIGHT DIRECT",
                "ARU": "ARU AT OR ABOVE 3000 HOLD AT ARU RIGHT TURN INBOUNDCOURSE 137 ALT 3000 LEGTIME 1 FAF PAKAD MAP ARU03"
            },
            "transitions": [
                {
                    "name": "ARU",
                    "fixes": {
                        "ARU": "ARU AT OR ABOVE 3000 TRK 137 UNTIL 12.0 FROM ARU"
                    }
                }
            ]
        },
        {
            "name": "RNAVZ12",
            "fixes": {
                "AR364": "AR364 AT OR ABOVE 2500",
                "AR366": "AR366 1670",
                "AR003": "AR003 AT OR ABOVE 742 RNW 12",
                "AR367": "OVERFLY AR367 AT OR ABOVE 4000 HOLD AT AR367 RIGHT TURN INBOUNDCOURSE 295 ALT 4000 LEGTIME 1 FAF AR366 MAP RNW 12"
            },
            "transitions": [
                {
                    "name": "AR361",
                    "fixes": {
                        "AR361": "AR361 AT OR ABOVE 4000"
                    }
                },
                {
                    "name": "AR362",
                    "fixes": {
                        "AR362": "AR362 AT OR ABOVE 4000"
                    }
                },
                {
                    "name": "AR363",
                    "fixes": {
                        "AR363": "AR363 AT OR ABOVE 4000"
                    }
                }
            ]
        },
        {
            "name": "RNAVY30",
            "fixes": {
                "AR367": "AR367 AT OR ABOVE 2500",
                "AR371": "AR371 1670 RNW 30 TRK 295 UNTIL 2000 TURN RIGHT DIRECT",
                "AR369": "OVERFLY AR369 AT OR ABOVE 4000 HOLD AT AR369 RIGHT TURN INBOUNDCOURSE 225 ALT 4000 LEGTIME 1 FAF AR371 MAP RNW 30"
            },
            "transitions": [
                {
                    "name": "AR368",
                    "fixes": {
                        "AR368": "AR368 AT OR ABOVE 4000"
                    }
                },
                {
                    "name": "AR369",
                    "fixes": {
                        "AR369": "AR369 AT OR ABOVE 4000"
                    }
                }
            ]
        }
    ]
}