{
    "fixes": [
        {
            "name": "AU001",
            "lat": 21.223333333333333,
            "lon": 50.472166666666666
        },
        {
            "name": "AU002",
            "lat": 21.296666666666667,
            "lon": 50.515
        },
        {
            "name": "AU003",
            "lat": 21.281666666666666,
            "lon": 50.62083333333333
        },
        {
            "name": "AU004",
            "lat": 21.384666666666668,
            "lon": 50.56633333333333
        },
        {
            "name": "AU006",
            "lat": 21.372,
            "lon": 50.44416666666667
        },
        {
            "name": "AU007",
            "lat": 20.986166666666666,
            "lon": 50.33433333333333
        },
        {
            "name": "AU008",
            "lat": 21.059666666666665,
            "lon": 50.377
        },
        {
            "name": "AU009",
            "lat": 21.001333333333335,
            "lon": 50.22866666666667
        },
        {
            "name": "AU011",
            "lat": 20.89816666666667,
            "lon": 50.283166666666666
        },
        {
            "name": "AU012",
            "lat": 20.910833333333333,
            "lon": 50.404666666666664
        },
        {
            "name": "EDESI",
            "lat": 21.654677783333334,
            "lon": 50.461308333333335
        },
        {
            "name": "MORDA",
            "lat": 20.782333333333334,
            "lon": 50.6485
        },
        {
            "name": "MORPI",
            "lat": 21.305555566666666,
            "lon": 49.89027778333333
        },
        {
            "name": "VUMIK",
            "lat": 20.813166666666667,
            "lon": 49.406166666666664
        }
    ],
    "rnws": [
        "RNW 05",
        "RNW 23"
    ],
    "sids": [
        {
            "name": "EDES1A",
            "rnw": "05",
            "fixes": {
                "EDESI": "EDESI"
            },
            "sub_fixes": [],
            "transitions": []
        },
        {
            "name": "EDES1B",
            "rnw": "23",
            "fixes": {
                "EDESI": "EDESI"
            },
            "sub_fixes": [],
            "transitions": []
        },
        {
            "name": "MORD1A",
            "rnw": "05",
            "fixes": {
                "MORDA": "MORDA"
            },
            "sub_fixes": [],
            "transitions": []
        },
        {
            "name": "MORD1B",
            "rnw": "23",
            "fixes": {
                "MORDA": "MORDA"
            },
            "sub_fixes": [],
            "transitions": []
        },
        {
            "name": "MORP1A",
            "rnw": "05",
            "fixes": {
                "MORPI": "MORPI"
            },
            "sub_fixes": [],
            "transitions": []
        },
        {
            "name": "MORP1B",
            "rnw": "23",
            "fixes": {
                "MORPI": "MORPI"
            },
            "sub_fixes": [],
            "transitions": []
        },
        {
            "name": "VUMI1A",
            "rnw": "05",
            "fixes": {
                "VUMIK": "VUMIK"
            },
            "sub_fixes": [],
            "transitions": []
        },
        {
            "name": "VUMI1B",
            "rnw": "23",
            "fixes": {
                "VUMIK": "VUMIK"
            },
            "sub_fixes": [],
            "transitions": []
        }
    ],
    "stars": [],
    "approaches": [
        {
            "name": "RNAV05",
            "fixes": {
                "AU002": "AU002 AT OR ABOVE 3500",
                "AU001": "AU001 3010 RNW 05 TRK 049 UNTIL 2000 TURN LEFT DIRECT",
                "AU003": "OVERFLY AU003 AT OR ABOVE 5000 HOLD AT AU003 LEFT TURN INBOUNDCOURSE 119 ALT 5000 LEGTIME 1 FAF AU001 MAP RNW 05"
            },
            "transitions": [
                {
                    "name": "AU003",
                    "fixes": {
                        "AU003": "AU003 AT OR ABOVE 5000"
                    }
                },
                {
                    "name": "AU004",
                    "fixes": {
                        "AU004": "AU004 AT OR ABOVE 5000"
                    }
                },
                {
                    "name": "AU006",
                    "fixes": {
                        "AU006": "AU006 AT OR ABOVE 5000"
                    }
                }
            ]
        },
        {
            "name": "RNAV23",
            "fixes": {
                "AU007": "AU007 AT OR ABOVE 3000",
                "AU008": "AU008 2970 RNW 23 TRK 229 UNTIL 2000 TURN RIGHT DIRECT",
                "AU012": "OVERFLY AU012 AT OR ABOVE 5000 HOLD AT AU012 LEFT TURN INBOUNDCOURSE 159 ALT 5000 LEGTIME 1 FAF AU008 MAP RNW 23"
            },
            "transitions": [
                {
                    "name": "AU009",
                    "fixes": {
                        "AU009": "AU009 AT OR ABOVE 5000"
                    }
                },
                {
                    "name": "AU011",
                    "fixes": {
                        "AU011": "AU011 AT OR ABOVE 5000"
                    }
                },
                {
                    "name": "AU012",
                    "fixes": {
                        "AU012": "AU012 AT OR ABOVE 5000"
                    }
                }
            ]
        }
    ]
}