{
    "fixes": [
        {
            "name": "AF001",
            "lat": 25.706853916666667,
            "lon": 49.00477205
        },
        {
            "name": "AF002",
            "lat": 25.746568166666666,
            "lon": 49.08096208333333
        },
        {
            "name": "AF003",
            "lat": 25.760363883333333,
            "lon": 49.16766388333333
        },
        {
            "name": "AF004",
            "lat": 25.746568166666666,
            "lon": 49.2543657
        },
        {
            "name": "AF005",
            "lat": 25.706853916666667,
            "lon": 49.330555733333334
        },
        {
            "name": "AF006",
            "lat": 25.447579466666667,
            "lon": 49.38066805
        },
        {
            "name": "AF007",
            "lat": 25.419582383333335,
            "lon": 49.36412298333333
        },
        {
            "name": "AF008",
            "lat": 25.348614666666666,
            "lon": 49.277072733333334
        },
        {
            "name": "AF009",
            "lat": 25.36929475,
            "lon": 49.311720066666666
        },
        {
            "name": "AF010",
            "lat": 25.723299033333333,
            "lon": 49.29192631666667
        },
        {
            "name": "AF011",
            "lat": 25.749859916666665,
            "lon": 49.213216583333335
        },
        {
            "name": "AF012",
            "lat": 25.750963116666668,
            "lon": 49.12916431666667
        },
        {
            "name": "AF013",
            "lat": 25.7264792,
            "lon": 49.04962748333333
        },
        {
            "name": "AF014",
            "lat": 25.679279,
            "lon": 48.98392641666667
        },
        {
            "name": "AF015",
            "lat": 25.71518285,
            "lon": 49.07855596666667
        },
        {
            "name": "AF016",
            "lat": 25.700972866666667,
            "lon": 49.04895091666667
        },
        {
            "name": "AF017",
            "lat": 25.618403583333333,
            "lon": 48.9738458
        },
        {
            "name": "AF018",
            "lat": 25.651088983333334,
            "lon": 48.99643043333333
        },
        {
            "name": "AF019",
            "lat": 25.44423795,
            "lon": 49.37900046666667
        },
        {
            "name": "AF020",
            "lat": 25.413464133333335,
            "lon": 49.35965358333333
        },
        {
            "name": "AF021",
            "lat": 25.34691958333333,
            "lon": 49.27351328333334
        },
        {
            "name": "AF022",
            "lat": 25.364857266666668,
            "lon": 49.30534443333333
        },
        {
            "name": "AF023",
            "lat": 25.71326223333333,
            "lon": 49.073850666666665
        },
        {
            "name": "AF024",
            "lat": 25.695805933333332,
            "lon": 49.04035945
        },
        {
            "name": "AF025",
            "lat": 25.614310716666665,
            "lon": 48.971672766666664
        },
        {
            "name": "AF026",
            "lat": 25.643771366666666,
            "lon": 48.99047675
        },
        {
            "name": "AKTER",
            "lat": 25.495936116666666,
            "lon": 48.925775
        },
        {
            "name": "ALGUD",
            "lat": 25.725572216666666,
            "lon": 49.112766666666666
        },
        {
            "name": "ANLIV",
            "lat": 25.408625,
            "lon": 49.318052783333336
        },
        {
            "name": "ANRET",
            "lat": 25.4542,
            "lon": 48.952283333333334
        },
        {
            "name": "ANRUR",
            "lat": 25.608225,
            "lon": 49.24479721666667
        },
        {
            "name": "ARMIM",
            "lat": 26.5472,
            "lon": 49.33671388333333
        },
        {
            "name": "ARPAD",
            "lat": 24.941197216666666,
            "lon": 49.87473611666667
        },
        {
            "name": "ASGOL",
            "lat": 24.995919433333334,
            "lon": 48.54893611666667
        },
        {
            "name": "ATIMA",
            "lat": 25.279661116666666,
            "lon": 48.298675
        },
        {
            "name": "BACOR",
            "lat": 25.67462778333333,
            "lon": 49.355947216666664
        },
        {
            "name": "BIVOD",
            "lat": 25.356272216666667,
            "lon": 49.329377783333335
        },
        {
            "name": "BOLIP",
            "lat": 24.796,
            "lon": 49.832166666666666
        },
        {
            "name": "BUVBA",
            "lat": 25.594833333333334,
            "lon": 49.1015
        },
        {
            "name": "CT006",
            "lat": 25.523602783333335,
            "lon": 49.33910556666667
        },
        {
            "name": "CT011",
            "lat": 25.570719433333334,
            "lon": 49.28663888333333
        },
        {
            "name": "CT029",
            "lat": 25.616333333333333,
            "lon": 49.40533333333333
        },
        {
            "name": "CT031",
            "lat": 25.52316666666667,
            "lon": 49.364333333333335
        },
        {
            "name": "CT032",
            "lat": 25.525666666666666,
            "lon": 49.272166666666664
        },
        {
            "name": "CT042",
            "lat": 25.52,
            "lon": 49.474833333333336
        },
        {
            "name": "CT053",
            "lat": 25.567097216666667,
            "lon": 49.059125
        },
        {
            "name": "CT056",
            "lat": 25.53405,
            "lon": 48.977491666666666
        },
        {
            "name": "CT057",
            "lat": 25.531202783333335,
            "lon": 49.06970556666667
        },
        {
            "name": "CT059",
            "lat": 25.618241666666666,
            "lon": 49.075169433333336
        },
        {
            "name": "CT066",
            "lat": 25.893388883333333,
            "lon": 49.261994433333335
        },
        {
            "name": "CT067",
            "lat": 25.781841666666665,
            "lon": 49.343808333333335
        },
        {
            "name": "CT068",
            "lat": 26.018336116666667,
            "lon": 49.27620556666667
        },
        {
            "name": "CT071",
            "lat": 25.090991666666667,
            "lon": 49.02360278333333
        },
        {
            "name": "CT072",
            "lat": 25.108475,
            "lon": 49.416188883333334
        },
        {
            "name": "CT073",
            "lat": 25.365705566666666,
            "lon": 49.142488883333336
        },
        {
            "name": "CT076",
            "lat": 25.187822216666667,
            "lon": 49.57410556666667
        },
        {
            "name": "CT077",
            "lat": 25.666969433333332,
            "lon": 49.178755566666666
        },
        {
            "name": "CT079",
            "lat": 25.644091666666668,
            "lon": 48.735844433333334
        },
        {
            "name": "CT081",
            "lat": 25.288605566666668,
            "lon": 49.546988883333334
        },
        {
            "name": "CT082",
            "lat": 25.601569433333335,
            "lon": 49.09577221666667
        },
        {
            "name": "CT084",
            "lat": 25.53282778333333,
            "lon": 48.47099443333333
        },
        {
            "name": "CT086",
            "lat": 24.923786116666665,
            "lon": 49.435372216666664
        },
        {
            "name": "CT087",
            "lat": 25.342752783333335,
            "lon": 48.43562778333333
        },
        {
            "name": "CT088",
            "lat": 25.750725,
            "lon": 49.269069433333335
        },
        {
            "name": "CT089",
            "lat": 25.620730566666666,
            "lon": 49.43328056666667
        },
        {
            "name": "CT091",
            "lat": 25.706680566666666,
            "lon": 49.32477778333333
        },
        {
            "name": "CT092",
            "lat": 25.504111116666667,
            "lon": 48.98029721666666
        },
        {
            "name": "CT093",
            "lat": 25.427872216666668,
            "lon": 49.398861116666666
        },
        {
            "name": "CT094",
            "lat": 25.537386116666667,
            "lon": 48.86699443333333
        },
        {
            "name": "CT096",
            "lat": 25.629402783333333,
            "lon": 48.94316943333333
        },
        {
            "name": "CT097",
            "lat": 25.440994433333334,
            "lon": 48.93623611666666
        },
        {
            "name": "CT098",
            "lat": 25.487525,
            "lon": 48.95685556666667
        },
        {
            "name": "CT099",
            "lat": 25.532919433333333,
            "lon": 49.01432221666666
        },
        {
            "name": "CT101",
            "lat": 25.534519433333333,
            "lon": 49.16528056666667
        },
        {
            "name": "CT102",
            "lat": 25.567630566666665,
            "lon": 49.13366943333333
        },
        {
            "name": "CT107",
            "lat": 25.683052783333334,
            "lon": 49.023327783333336
        },
        {
            "name": "CT108",
            "lat": 25.680294433333334,
            "lon": 49.02596943333333
        },
        {
            "name": "CT109",
            "lat": 25.489983333333335,
            "lon": 49.060825
        },
        {
            "name": "CT332",
            "lat": 25.390775,
            "lon": 49.33976388333333
        },
        {
            "name": "CTB",
            "lat": 25.532030566666666,
            "lon": 49.16766388333333
        },
        {
            "name": "CTB13",
            "lat": 25.671386116666667,
            "lon": 49.015375
        },
        {
            "name": "CTB17",
            "lat": 25.673944433333332,
            "lon": 49.01249721666667
        },
        {
            "name": "CTB20",
            "lat": 25.38748611666667,
            "lon": 49.33410833333333
        },
        {
            "name": "CTB21",
            "lat": 25.386436116666665,
            "lon": 49.335313883333335
        },
        {
            "name": "CTB22",
            "lat": 25.531205566666667,
            "lon": 49.1621
        },
        {
            "name": "CTB23",
            "lat": 25.53005,
            "lon": 49.18035833333333
        },
        {
            "name": "D332M",
            "lat": 25.391794433333335,
            "lon": 49.338525
        },
        {
            "name": "DAGIX",
            "lat": 26.124436116666665,
            "lon": 49.2883
        },
        {
            "name": "DAGMA",
            "lat": 25.389188883333333,
            "lon": 48.979825
        },
        {
            "name": "DAKMI",
            "lat": 25.781166666666667,
            "lon": 49.53783333333333
        },
        {
            "name": "DAKUD",
            "lat": 25.660955566666665,
            "lon": 49.044480566666664
        },
        {
            "name": "DODRA",
            "lat": 25.476477783333333,
            "lon": 49.391536116666664
        },
        {
            "name": "DUBRI",
            "lat": 25.646683333333332,
            "lon": 48.949052783333336
        },
        {
            "name": "EDRUG",
            "lat": 25.597705566666665,
            "lon": 49.10495
        },
        {
            "name": "EDSUR",
            "lat": 25.581411116666665,
            "lon": 48.95835
        },
        {
            "name": "EDVEB",
            "lat": 25.325158333333334,
            "lon": 47.978966666666665
        },
        {
            "name": "EGBOX",
            "lat": 25.615502783333334,
            "lon": 48.94032778333333
        },
        {
            "name": "EPDOL",
            "lat": 25.493025,
            "lon": 49.41635278333333
        },
        {
            "name": "ESLOT",
            "lat": 26.232763883333334,
            "lon": 49.550836116666666
        },
        {
            "name": "GEGID",
            "lat": 25.284719433333333,
            "lon": 49.44895833333333
        },
        {
            "name": "GEGOB",
            "lat": 24.170208333333335,
            "lon": 50.38644443333333
        },
        {
            "name": "GERKA",
            "lat": 25.639108333333333,
            "lon": 49.62749443333333
        },
        {
            "name": "IBGAP",
            "lat": 25.477505566666668,
            "lon": 48.924391666666665
        },
        {
            "name": "ILBEK",
            "lat": 25.584752783333332,
            "lon": 51.39167221666667
        },
        {
            "name": "ISNIX",
            "lat": 26.651602783333335,
            "lon": 48.82416666666667
        },
        {
            "name": "ISREM",
            "lat": 25.473905566666666,
            "lon": 48.721955566666665
        },
        {
            "name": "KUDOT",
            "lat": 25.464675,
            "lon": 49.249808333333334
        },
        {
            "name": "KUDPU",
            "lat": 25.566913883333335,
            "lon": 49.52575
        },
        {
            "name": "MATKO",
            "lat": 24.665777783333333,
            "lon": 49.509627783333336
        },
        {
            "name": "MUDAT",
            "lat": 25.98697221666667,
            "lon": 50.130769433333334
        },
        {
            "name": "MULEM",
            "lat": 26.177055566666667,
            "lon": 48.98096388333333
        },
        {
            "name": "OGNIM",
            "lat": 26.062561116666668,
            "lon": 49.010163883333334
        },
        {
            "name": "OPMUM",
            "lat": 25.323958333333334,
            "lon": 49.09735
        },
        {
            "name": "OPTIB",
            "lat": 27.219466666666666,
            "lon": 50.328347216666664
        },
        {
            "name": "OPVIS",
            "lat": 25.653333333333332,
            "lon": 49.035666666666664
        },
        {
            "name": "ORONU",
            "lat": 25.589183333333335,
            "lon": 48.60584721666667
        },
        {
            "name": "PAKUT",
            "lat": 24.822583333333334,
            "lon": 49.44585
        },
        {
            "name": "PAPIP",
            "lat": 24.596661116666667,
            "lon": 50.68659721666667
        },
        {
            "name": "POPLO",
            "lat": 25.888283333333334,
            "lon": 49.06211666666667
        },
        {
            "name": "PULAR",
            "lat": 25.4635,
            "lon": 49.2485
        },
        {
            "name": "RAXIT",
            "lat": 24.420525,
            "lon": 47.69141666666667
        },
        {
            "name": "REPID",
            "lat": 25.605286116666665,
            "lon": 49.08963056666666
        },
        {
            "name": "RORIB",
            "lat": 25.27978888333333,
            "lon": 49.861025
        },
        {
            "name": "SEGDI",
            "lat": 25.646063883333333,
            "lon": 49.38666666666666
        },
        {
            "name": "SIBUM",
            "lat": 25.334333333333333,
            "lon": 49.39266666666666
        },
        {
            "name": "SIRAB",
            "lat": 25.726847216666666,
            "lon": 49.2431
        },
        {
            "name": "SOVTA",
            "lat": 25.332655566666666,
            "lon": 49.237102783333334
        },
        {
            "name": "SUPLA",
            "lat": 25.733841666666667,
            "lon": 48.953541666666666
        },
        {
            "name": "TEDUG",
            "lat": 25.404833333333332,
            "lon": 49.314166666666665
        },
        {
            "name": "TEKES",
            "lat": 25.468533333333333,
            "lon": 48.67666388333333
        },
        {
            "name": "TILTA",
            "lat": 25.216652783333334,
            "lon": 48.742680566666664
        },
        {
            "name": "TINGA",
            "lat": 24.807463883333334,
            "lon": 48.93426111666667
        },
        {
            "name": "TOGSO",
            "lat": 25.84213056666667,
            "lon": 49.921202783333335
        },
        {
            "name": "TOSOT",
            "lat": 25.517686116666667,
            "lon": 49.071188883333335
        },
        {
            "name": "UMGUL",
            "lat": 23.743813883333335,
            "lon": 49.535811116666665
        },
        {
            "name": "UREBA",
            "lat": 25.425141666666665,
            "lon": 48.61538888333333
        },
        {
            "name": "VASEM",
            "lat": 25.515855566666666,
            "lon": 49.271141666666665
        },
        {
            "name": "VULUD",
            "lat": 25.845866666666666,
            "lon": 48.81769166666667
        },
        {
            "name": "VUPAB",
            "lat": 25.587274999999998,
            "lon": 49.399194433333335
        }
    ],
    "rnws": [
        "RNW 11",
        "RNW 15",
        "RNW 29",
        "RNW 33"
    ],
    "sids": [
        {
            "name": "ANRE2A",
            "rnw": "15",
            "fixes": {
                "CT082": "CT082 SPEED 240 TURN LEFT DIRECT",
                "ANRET": "ANRET AT OR BELOW 10000 AT OR ABOVE 9000 SPEED 240"
            },
            "sub_fixes": [],
            "transitions": [
                {
                    "name": "ASGOL",
                    "fixes": [
                        "TILTA",
                        "ASGOL"
                    ]
                },
                {
                    "name": "TINGA",
                    "fixes": [
                        "TILTA",
                        "TINGA"
                    ]
                }
            ]
        },
        {
            "name": "DAGI1A",
            "rnw": "15",
            "fixes": {
                "CT082": "CT082 TURN RIGHT DIRECT",
                "SIRAB": "SIRAB AT OR BELOW 9000 AT OR ABOVE 8000",
                "CT066": "CT066 AT OR ABOVE 12000",
                "CT068": "CT068 AT OR ABOVE 15000",
                "DAGIX": "DAGIX"
            },
            "sub_fixes": [],
            "transitions": [
                {
                    "name": "ARMIM",
                    "fixes": [
                        "ARMIM"
                    ]
                },
                {
                    "name": "ESLOT",
                    "fixes": [
                        "ESLOT"
                    ]
                }
            ]
        },
        {
            "name": "DAGI1B",
            "rnw": "33",
            "fixes": {
                "PULAR": "OVERFLY PULAR AT OR ABOVE 5000",
                "VUPAB": "VUPAB 9000 SPEED 250",
                "CT067": "CT067 AT OR ABOVE 12000",
                "CT068": "CT068 AT OR ABOVE 15000",
                "DAGIX": "DAGIX"
            },
            "sub_fixes": [],
            "transitions": [
                {
                    "name": "ARMIM",
                    "fixes": [
                        "ARMIM"
                    ]
                },
                {
                    "name": "ESLOT",
                    "fixes": [
                        "ESLOT"
                    ]
                }
            ]
        },
        {
            "name": "GEGI1B",
            "rnw": "33",
            "fixes": {
                "PULAR": "OVERFLY PULAR AT OR ABOVE 5000",
                "GEGID": "GEGID AT OR BELOW 12000"
            },
            "sub_fixes": [],
            "transitions": [
                {
                    "name": "BOLIP",
                    "fixes": [
                        "CT076",
                        "BOLIP"
                    ]
                },
                {
                    "name": "GEGOB",
                    "fixes": [
                        "CT076",
                        "ARPAD",
                        "GEGOB"
                    ]
                },
                {
                    "name": "PAPIP",
                    "fixes": [
                        "CT076",
                        "ARPAD",
                        "PAPIP"
                    ]
                },
                {
                    "name": "RORIB",
                    "fixes": [
                        "CT081",
                        "RORIB"
                    ]
                }
            ]
        },
        {
            "name": "OMNI",
            "rnw": "33",
            "fixes": {},
            "sub_fixes": [
                {
                    "rwy": "RNW 11",
                    "fixes": {
                        "RNW 11": "RNW 11 TRK 112 UNTIL 6500 HDG 112 VECTORS"
                    }
                },
                {
                    "rwy": "RNW 15",
                    "fixes": {
                        "RNW 15": "RNW 15 TRK 154 UNTIL 5700 HDG 154 VECTORS"
                    }
                },
                {
                    "rwy": "RNW 29",
                    "fixes": {
                        "RNW 29": "RNW 29 TRK 292 UNTIL 5700 HDG 292 VECTORS"
                    }
                },
                {
                    "rwy": "RNW 33",
                    "fixes": {
                        "RNW 33": "RNW 33 TRK 335 UNTIL 3390 HDG 324 UNTIL 6000 HDG 324 VECTORS"
                    }
                }
            ],
            "transitions": []
        },
        {
            "name": "OPMU1B",
            "rnw": "33",
            "fixes": {
                "PULAR": "PULAR AT OR ABOVE 5000",
                "CT073": "CT073 AT OR ABOVE 8000",
                "OPMUM": "OPMUM AT OR ABOVE 9000"
            },
            "sub_fixes": [],
            "transitions": [
                {
                    "name": "ASGOL",
                    "fixes": [
                        "CT071",
                        "ASGOL"
                    ]
                },
                {
                    "name": "EDVEB",
                    "fixes": [
                        "IBGAP",
                        "CT079",
                        "ORONU",
                        "CT084",
                        "EDVEB"
                    ]
                },
                {
                    "name": "TINGA",
                    "fixes": [
                        "CT071",
                        "TINGA"
                    ]
                }
            ]
        },
        {
            "name": "RORI1A",
            "rnw": "15",
            "fixes": {
                "CT082": "CT082 TURN RIGHT DIRECT",
                "CT088": "CT088 AT OR BELOW 9000 AT OR ABOVE 8000",
                "CT091": "CT091 AT OR ABOVE 9000",
                "CT089": "CT089 AT OR ABOVE 10000",
                "RORIB": "RORIB"
            },
            "sub_fixes": [],
            "transitions": [
                {
                    "name": "BOLIP",
                    "fixes": [
                        "BOLIP"
                    ]
                },
                {
                    "name": "GEGOB",
                    "fixes": [
                        "GEGOB"
                    ]
                },
                {
                    "name": "PAPIP",
                    "fixes": [
                        "PAPIP"
                    ]
                }
            ]
        },
        {
            "name": "SUPL1A",
            "rnw": "15",
            "fixes": {
                "SUPLA": "SUPLA AT OR BELOW 12000"
            },
            "sub_fixes": [],
            "transitions": [
                {
                    "name": "EDVEB",
                    "fixes": [
                        "CT079",
                        "ORONU",
                        "CT084",
                        "EDVEB"
                    ]
                },
                {
                    "name": "VULUD",
                    "fixes": [
                        "VULUD"
                    ]
                }
            ]
        }
    ],
    "stars": [
        {
            "name": "EDSU1A",
            "runway": "RNW 15",
            "fixes": {
                "RAXIT": "RAXIT",
                "ATIMA": "ATIMA AT OR BELOW 22000 AT OR ABOVE 20000",
                "UREBA": "UREBA AT OR ABOVE 16000",
                "EDSUR": "EDSUR",
                "CT109": "CT109 AT OR ABOVE 11000",
                "SOVTA": "SOVTA AT OR ABOVE 7000"
            }
        },
        {
            "name": "ISNI1B",
            "runway": "RNW 33",
            "fixes": {
                "ISNIX": "ISNIX",
                "MULEM": "MULEM AT OR ABOVE 12000",
                "OGNIM": "OGNIM AT OR BELOW 11000",
                "POPLO": "POPLO",
                "ALGUD": "ALGUD AT OR ABOVE 7000"
            }
        },
        {
            "name": "ISNI2A",
            "runway": "RNW 15",
            "fixes": {
                "ISNIX": "ISNIX",
                "MULEM": "MULEM",
                "POPLO": "POPLO AT OR ABOVE 16000",
                "ALGUD": "ALGUD AT OR ABOVE 13000",
                "ANRUR": "ANRUR AT OR ABOVE 10000",
                "CT011": "CT011 AT OR ABOVE 9000",
                "CT006": "CT006 AT OR ABOVE 8000",
                "DODRA": "DODRA AT OR ABOVE 7000"
            }
        },
        {
            "name": "MATK1B",
            "runway": "RNW 33",
            "fixes": {
                "MATKO": "MATKO",
                "PAKUT": "PAKUT",
                "CT072": "CT072 AT OR ABOVE 16000",
                "SIBUM": "SIBUM",
                "DODRA": "DODRA AT OR ABOVE 13000",
                "ANRUR": "ANRUR AT OR ABOVE 10000",
                "CT077": "CT077 AT OR ABOVE 8500",
                "ALGUD": "ALGUD AT OR ABOVE 7000"
            }
        },
        {
            "name": "MATK2A",
            "runway": "RNW 15",
            "fixes": {
                "MATKO": "MATKO",
                "PAKUT": "PAKUT",
                "CT086": "CT086 AT OR BELOW 13000",
                "CT072": "CT072 AT OR ABOVE 11000",
                "SIBUM": "SIBUM AT OR ABOVE 7000"
            }
        },
        {
            "name": "MUDA1B",
            "runway": "RNW 33",
            "fixes": {
                "MUDAT": "MUDAT",
                "TOGSO": "TOGSO",
                "GERKA": "GERKA AT OR BELOW 16000",
                "DODRA": "DODRA AT OR ABOVE 13000",
                "ANRUR": "ANRUR AT OR ABOVE 10000",
                "CT077": "CT077 AT OR ABOVE 8500",
                "ALGUD": "ALGUD AT OR ABOVE 7000"
            }
        },
        {
            "name": "MUDA2A",
            "runway": "RNW 15",
            "fixes": {
                "MUDAT": "MUDAT",
                "TOGSO": "TOGSO AT OR ABOVE 14000",
                "GERKA": "GERKA AT OR BELOW 9000",
                "KUDPU": "KUDPU",
                "DODRA": "DODRA AT OR ABOVE 7000"
            }
        },
        {
            "name": "RAXI1B",
            "runway": "RNW 33",
            "fixes": {
                "RAXIT": "RAXIT",
                "ATIMA": "ATIMA AT OR BELOW 20000",
                "CT087": "CT087 AT OR BELOW 18000",
                "UREBA": "UREBA AT OR ABOVE 12000",
                "ISREM": "ISREM AT OR BELOW 11000 AT OR ABOVE 10000",
                "EDSUR": "EDSUR AT OR ABOVE 7000"
            }
        }
    ],
    "approaches": [
        {
            "name": "VORD11",
            "fixes": {
                "EPDOL": "EPDOL AT OR ABOVE 5500",
                "VASEM": "VASEM 4620",
                "CTB23": "CTB23 3023 RNW 11",
                "CTB": "OVERFLY CTB TRK 120 UNTIL 4400",
                "DUBRI": "DUBRI AT OR ABOVE 7000 SPEED 190 HOLD AT DUBRI LEFT TURN INBOUNDCOURSE 320 ALT 7000 LEGTIME 1 FAF VASEM MAP CTB23"
            },
            "transitions": [
                {
                    "name": "BIVOD",
                    "fixes": {
                        "BIVOD": "BIVOD AT OR ABOVE 7000"
                    }
                },
                {
                    "name": "DUBRI",
                    "fixes": {
                        "DUBRI": "DUBRI AT OR ABOVE 7000",
                        "AF001": "AF001",
                        "AF002": "AF002",
                        "AF003": "AF003",
                        "AF004": "AF004",
                        "AF005": "AF005",
                        "SEGDI": "SEGDI AT OR ABOVE 7000"
                    }
                },
                {
                    "name": "SEGDI",
                    "fixes": {
                        "SEGDI": "SEGDI AT OR ABOVE 7000"
                    }
                }
            ]
        },
        {
            "name": "VORDZ15",
            "fixes": {
                "ANLIV": "ANLIV AT OR ABOVE 5500",
                "KUDOT": "KUDOT 4620 RNW 15",
                "CTB": "CTB TRK 152 UNTIL 3900",
                "TEKES": "TEKES AT OR ABOVE 7000 SPEED 230 HOLD AT TEKES LEFT TURN INBOUNDCOURSE 282 ALT 7000 LEGTIME 1 FAF KUDOT MAP RNW 15"
            },
            "transitions": [
                {
                    "name": "DODRA",
                    "fixes": {
                        "DODRA": "DODRA AT OR ABOVE 7000",
                        "AF006": "AF006",
                        "AF007": "AF007",
                        "CT332": "CT332"
                    }
                },
                {
                    "name": "SOVTA",
                    "fixes": {
                        "SOVTA": "SOVTA AT OR ABOVE 7000",
                        "AF008": "AF008",
                        "AF009": "AF009",
                        "D332M": "D332M"
                    }
                }
            ]
        },
        {
            "name": "VORD29",
            "fixes": {
                "AKTER": "AKTER AT OR ABOVE 6100",
                "CT092": "CT092 AT OR ABOVE 5600",
                "TOSOT": "TOSOT 4610",
                "CTB22": "CTB22 3011 RNW 29",
                "CTB": "OVERFLY CTB TRK 281 UNTIL 3800",
                "BACOR": "BACOR AT OR ABOVE 7000 HOLD AT BACOR RIGHT TURN INBOUNDCOURSE 070 ALT 7000 LEGTIME 1 FAF TOSOT MAP CTB22"
            },
            "transitions": [
                {
                    "name": "BACOR",
                    "fixes": {
                        "BACOR": "BACOR AT OR ABOVE 7000",
                        "AF010": "AF010",
                        "AF011": "AF011",
                        "AF012": "AF012",
                        "AF013": "AF013",
                        "AF014": "AF014",
                        "EGBOX": "EGBOX AT OR ABOVE 7000"
                    }
                },
                {
                    "name": "DAGMA",
                    "fixes": {
                        "DAGMA": "DAGMA AT OR ABOVE 7000"
                    }
                },
                {
                    "name": "EGBOX",
                    "fixes": {
                        "EGBOX": "EGBOX AT OR ABOVE 7000"
                    }
                }
            ]
        },
        {
            "name": "VORDY33",
            "fixes": {
                "DAKUD": "DAKUD AT OR ABOVE 5500",
                "EDRUG": "EDRUG 4640",
                "CT102": "CT102 AT OR ABOVE 3873",
                "CT101": "CT101 3040 RNW 33 TRK 339 UNTIL 3390",
                "VUPAB": "VUPAB AT OR ABOVE 6000 SPEED 250 HOLD AT VUPAB RIGHT TURN INBOUNDCOURSE 095 ALT 6000 LEGTIME 1 FAF EDRUG MAP CT101"
            },
            "transitions": [
                {
                    "name": "ALGUD",
                    "fixes": {
                        "ALGUD": "ALGUD AT OR ABOVE 7000",
                        "AF015": "AF015",
                        "AF016": "AF016",
                        "CT107": "CT107"
                    }
                },
                {
                    "name": "EDSUR",
                    "fixes": {
                        "EDSUR": "EDSUR AT OR ABOVE 7000",
                        "AF017": "AF017",
                        "AF018": "AF018",
                        "CT108": "CT108"
                    }
                }
            ]
        },
        {
            "name": "ILSU15",
            "fixes": {
                "TEDUG": "TEDUG AT OR ABOVE 5500",
                "PULAR": "PULAR 4620 RNW 15 HDG 154 UNTIL 3700 TURN RIGHT TRK 283 INTERCEPT RADIAL 253 TO",
                "DAKMI": "DAKMI OVERFLY DAKMI AT OR ABOVE 7000 HOLD AT DAKMI LEFT TURN INBOUNDCOURSE 073 ALT 7000 LEGTIME 1 FAF PULAR MAP RNW 15"
            },
            "transitions": [
                {
                    "name": "DODRA",
                    "fixes": {
                        "DODRA": "DODRA AT OR ABOVE 7000",
                        "AF019": "AF019",
                        "AF020": "AF020",
                        "CTB21": "CTB21"
                    }
                },
                {
                    "name": "SOVTA",
                    "fixes": {
                        "SOVTA": "SOVTA AT OR ABOVE 7000",
                        "AF021": "AF021",
                        "AF022": "AF022",
                        "CTB20": "CTB20"
                    }
                }
            ]
        },
        {
            "name": "ILSW15",
            "fixes": {
                "TEDUG": "TEDUG AT OR ABOVE 5500",
                "PULAR": "PULAR 4620 RNW 15 HDG 154 UNTIL 3700 TURN RIGHT DIRECT",
                "DAKMI": "OVERFLY DAKMI AT OR ABOVE 7000 HOLD AT DAKMI LEFT TURN INBOUNDCOURSE 073 ALT 7000 LEGTIME 1 FAF PULAR MAP RNW 15"
            },
            "transitions": [
                {
                    "name": "DODRA",
                    "fixes": {
                        "DODRA": "DODRA AT OR ABOVE 7000"
                    }
                },
                {
                    "name": "SIBUM",
                    "fixes": {
                        "SIBUM": "SIBUM AT OR ABOVE 7000"
                    }
                },
                {
                    "name": "SOVTA",
                    "fixes": {
                        "SOVTA": "SOVTA AT OR ABOVE 7000"
                    }
                }
            ]
        },
        {
            "name": "ILSS33",
            "fixes": {
                "OPVIS": "OPVIS AT OR ABOVE 5500",
                "REPID": "REPID 4950 RNW 33 HDG 334 UNTIL 3800 HDG 275 INTERCEPT RADIAL 240 TO",
                "VUPAB": "VUPAB OVERFLY VUPAB AT OR ABOVE 6000 SPEED 230 HOLD AT VUPAB RIGHT TURN INBOUNDCOURSE 095 ALT 6000 LEGTIME 1 FAF REPID MAP RNW 33"
            },
            "transitions": [
                {
                    "name": "ALGUD",
                    "fixes": {
                        "ALGUD": "ALGUD AT OR ABOVE 7000",
                        "AF023": "AF023",
                        "AF024": "AF024",
                        "CTB17": "CTB17 AT OR ABOVE 5500"
                    }
                },
                {
                    "name": "EDSUR",
                    "fixes": {
                        "EDSUR": "EDSUR AT OR ABOVE 7000",
                        "AF025": "AF025",
                        "AF026": "AF026",
                        "CTB13": "CTB13 AT OR ABOVE 5500"
                    }
                }
            ]
        },
        {
            "name": "ILSV33",
            "fixes": {
                "OPVIS": "OPVIS AT OR ABOVE 5500",
                "REPID": "REPID 4950 RNW 33 HDG 334 UNTIL 3800",
                "VUPAB": "OVERFLY VUPAB AT OR ABOVE 6000 SPEED 230 HOLD AT VUPAB RIGHT TURN INBOUNDCOURSE 095 ALT 6000 LEGTIME 1 FAF REPID MAP RNW 33"
            },
            "transitions": [
                {
                    "name": "ALGUD",
                    "fixes": {
                        "ALGUD": "ALGUD AT OR ABOVE 7000"
                    }
                },
                {
                    "name": "EDSUR",
                    "fixes": {
                        "EDSUR": "EDSUR AT OR ABOVE 7000"
                    }
                }
            ]
        },
        {
            "name": "RNAV11",
            "fixes": {
                "CT031": "CT031 AT OR ABOVE 5500",
                "CT032": "CT032 4620 RNW 11 TRK 112 UNTIL 4000",
                "DUBRI": "OVERFLY DUBRI AT OR ABOVE 7000 SPEED 250 HOLD AT DUBRI LEFT TURN INBOUNDCOURSE 310 ALT 7000 LEGTIME 1 FAF CT032 MAP RNW 11"
            },
            "transitions": [
                {
                    "name": "CT029",
                    "fixes": {
                        "CT029": "CT029 AT OR ABOVE 7000"
                    }
                },
                {
                    "name": "CT042",
                    "fixes": {
                        "CT042": "CT042 AT OR ABOVE 7000"
                    }
                },
                {
                    "name": "CT093",
                    "fixes": {
                        "CT093": "CT093 AT OR ABOVE 7000"
                    }
                }
            ]
        },
        {
            "name": "RNAVZ15",
            "fixes": {
                "TEDUG": "TEDUG AT OR ABOVE 5500",
                "PULAR": "PULAR 4620 RNW 15 TRK 154 UNTIL 3400",
                "CT053": "CT053",
                "TEKES": "OVERFLY TEKES AT OR ABOVE 6000 HOLD AT TEKES LEFT TURN INBOUNDCOURSE 274 ALT 6000 LEGTIME 1 FAF PULAR MAP RNW 15"
            },
            "transitions": [
                {
                    "name": "DODRA",
                    "fixes": {
                        "DODRA": "DODRA AT OR ABOVE 7000"
                    }
                },
                {
                    "name": "SIBUM",
                    "fixes": {
                        "SIBUM": "SIBUM AT OR ABOVE 7000"
                    }
                },
                {
                    "name": "SOVTA",
                    "fixes": {
                        "SOVTA": "SOVTA AT OR ABOVE 7000"
                    }
                }
            ]
        },
        {
            "name": "RNAV29",
            "fixes": {
                "CT056": "CT056 AT OR ABOVE 5800",
                "CT099": "CT099 AT OR ABOVE 5500",
                "CT057": "CT057 4620 RNW 29 TRK 292 UNTIL 4500",
                "BACOR": "OVERFLY BACOR AT OR ABOVE 7200 SPEED 250 HOLD AT BACOR RIGHT TURN INBOUNDCOURSE 070 ALT 7200 LEGTIME 1 FAF CT057 MAP RNW 29"
            },
            "transitions": [
                {
                    "name": "CT094",
                    "fixes": {
                        "CT094": "CT094 AT OR ABOVE 7200"
                    }
                },
                {
                    "name": "CT096",
                    "fixes": {
                        "CT096": "CT096 AT OR ABOVE 7200"
                    }
                },
                {
                    "name": "CT097",
                    "fixes": {
                        "CT097": "CT097 AT OR ABOVE 7200",
                        "CT098": "CT098 AT OR ABOVE 6500"
                    }
                }
            ]
        },
        {
            "name": "RNAVZ33",
            "fixes": {
                "OPVIS": "OPVIS AT OR ABOVE 5500",
                "CT059": "CT059 AT OR ABOVE 4900",
                "BUVBA": "BUVBA 4620 RNW 33 TRK 334 UNTIL 3800",
                "VUPAB": "OVERFLY VUPAB AT OR ABOVE 6000 SPEED 230 HOLD AT VUPAB RIGHT TURN INBOUNDCOURSE 095 ALT 6000 LEGTIME 1 FAF BUVBA MAP RNW 33"
            },
            "transitions": [
                {
                    "name": "ALGUD",
                    "fixes": {
                        "ALGUD": "ALGUD AT OR ABOVE 7000"
                    }
                },
                {
                    "name": "EDSUR",
                    "fixes": {
                        "EDSUR": "EDSUR AT OR ABOVE 7000"
                    }
                }
            ]
        }
    ]
}