{
    "fixes": [
        {
            "name": "ALDUR",
            "lat": 19.419088883333334,
            "lon": 42.456727783333335
        },
        {
            "name": "DANKU",
            "lat": 19.678350000000002,
            "lon": 42.90635556666667
        },
        {
            "name": "IP006",
            "lat": 19.631336116666667,
            "lon": 42.560433333333336
        },
        {
            "name": "IP007",
            "lat": 19.550686116666668,
            "lon": 42.537005566666664
        },
        {
            "name": "IP008",
            "lat": 19.514605566666667,
            "lon": 42.514688883333335
        },
        {
            "name": "IP009",
            "lat": 19.711980566666668,
            "lon": 42.58388611666667
        },
        {
            "name": "IP011",
            "lat": 19.609105566666667,
            "lon": 42.64553888333333
        },
        {
            "name": "IP012",
            "lat": 19.653525,
            "lon": 42.47530833333333
        },
        {
            "name": "IP013",
            "lat": 19.318544433333333,
            "lon": 42.393619433333335
        },
        {
            "name": "IP014",
            "lat": 19.390730566666665,
            "lon": 42.438155566666666
        },
        {
            "name": "IP016",
            "lat": 19.360794433333332,
            "lon": 42.31755833333333
        },
        {
            "name": "IP017",
            "lat": 19.246347216666667,
            "lon": 42.349122216666665
        },
        {
            "name": "IP018",
            "lat": 19.276263883333332,
            "lon": 42.46964166666667
        },
        {
            "name": "ISITU",
            "lat": 19.522291666666668,
            "lon": 42.518288883333334
        },
        {
            "name": "OPLUT",
            "lat": 18.860666666666667,
            "lon": 42.9035
        },
        {
            "name": "UGPAR",
            "lat": 20.106402783333333,
            "lon": 41.7003
        }
    ],
    "rnws": [
        "RNW 05",
        "RNW 23"
    ],
    "sids": [
        {
            "name": "ALDU1A",
            "rnw": "05",
            "fixes": {
                "ALDUR": "OVERFLY ALDUR SPEED 240"
            },
            "sub_fixes": [],
            "transitions": [
                {
                    "name": "DANKU",
                    "fixes": [
                        "DANKU"
                    ]
                },
                {
                    "name": "OPLUT",
                    "fixes": [
                        "OPLUT"
                    ]
                },
                {
                    "name": "UGPAR",
                    "fixes": [
                        "UGPAR"
                    ]
                }
            ]
        },
        {
            "name": "ISIT1A",
            "rnw": "23",
            "fixes": {
                "ISITU": "OVERFLY ISITU"
            },
            "sub_fixes": [],
            "transitions": [
                {
                    "name": "DANKU",
                    "fixes": [
                        "DANKU"
                    ]
                },
                {
                    "name": "OPLUT",
                    "fixes": [
                        "OPLUT"
                    ]
                },
                {
                    "name": "UGPAR",
                    "fixes": [
                        "UGPAR"
                    ]
                }
            ]
        },
        {
            "name": "OMNI",
            "rnw": "23",
            "fixes": {},
            "sub_fixes": [
                {
                    "rwy": "RNW 05",
                    "fixes": {
                        "RNW 05": "RNW 05 HDG 054 UNTIL 6000 HDG 054 VECTORS"
                    }
                },
                {
                    "rwy": "RNW 23",
                    "fixes": {
                        "RNW 23": "RNW 23 HDG 234 UNTIL 6000 HDG 234 VECTORS"
                    }
                }
            ],
            "transitions": []
        }
    ],
    "stars": [],
    "approaches": [
        {
            "name": "RNAVZ05",
            "fixes": {
                "IP006": "IP006 AT OR ABOVE 4000",
                "IP007": "IP007 2430",
                "IP008": "IP008 AT OR ABOVE 1630 RNW 05 HDG 054 UNTIL 2200 TURN RIGHT DIRECT",
                "IP012": "IP012 AT OR ABOVE 6000 HOLD AT IP012 RIGHT TURN INBOUNDCOURSE 309 ALT 6000 LEGTIME 1 FAF IP007 MAP RNW 05"
            },
            "transitions": [
                {
                    "name": "IP009",
                    "fixes": {
                        "IP009": "IP009 AT OR ABOVE 6000"
                    }
                },
                {
                    "name": "IP011",
                    "fixes": {
                        "IP011": "IP011 AT OR ABOVE 6000"
                    }
                },
                {
                    "name": "IP012",
                    "fixes": {
                        "IP012": "IP012 AT OR ABOVE 6000"
                    }
                }
            ]
        },
        {
            "name": "RNAVY23",
            "fixes": {
                "IP013": "IP013 AT OR ABOVE 4000",
                "IP014": "IP014 2430 RNW 23 HDG 234 UNTIL 2200 TURN LEFT DIRECT",
                "IP016": "IP016 AT OR ABOVE 6000 HOLD AT IP016 LEFT TURN INBOUNDCOURSE 324 ALT 6000 LEGTIME 1 FAF IP014 MAP RNW 23"
            },
            "transitions": [
                {
                    "name": "IP016",
                    "fixes": {
                        "IP016": "IP016 AT OR ABOVE 6000"
                    }
                },
                {
                    "name": "IP017",
                    "fixes": {
                        "IP017": "IP017 AT OR ABOVE 6000"
                    }
                },
                {
                    "name": "IP018",
                    "fixes": {
                        "IP018": "IP018 AT OR ABOVE 6000"
                    }
                }
            ]
        }
    ]
}