{
    "fixes": [
        {
            "name": "AF001",
            "lat": 29.677109266666665,
            "lon": 50.8149128
        },
        {
            "name": "AF002",
            "lat": 29.6482309,
            "lon": 50.968515966666665
        },
        {
            "name": "AF003",
            "lat": 29.672449283333332,
            "lon": 51.12317851666667
        },
        {
            "name": "AF004",
            "lat": 29.820959233333333,
            "lon": 51.32373641666667
        },
        {
            "name": "AF005",
            "lat": 29.903092616666665,
            "lon": 51.36429673333333
        },
        {
            "name": "AF006",
            "lat": 30.228981716666667,
            "lon": 51.27971278333333
        },
        {
            "name": "AF007",
            "lat": 30.186651483333332,
            "lon": 51.31640673333333
        },
        {
            "name": "AF008",
            "lat": 30.092118666666668,
            "lon": 51.36503786666667
        },
        {
            "name": "AF009",
            "lat": 30.042244716666666,
            "lon": 51.376555466666666
        },
        {
            "name": "AJAX",
            "lat": 30.063166666666667,
            "lon": 50.85783333333333
        },
        {
            "name": "AKTOM",
            "lat": 29.992444433333333,
            "lon": 51.278944433333336
        },
        {
            "name": "ALBOL",
            "lat": 28.823574999999998,
            "lon": 51.211522216666665
        },
        {
            "name": "ALCIR",
            "lat": 29.991188883333333,
            "lon": 51.392769433333335
        },
        {
            "name": "ALDAD",
            "lat": 29.9129,
            "lon": 50.76700833333334
        },
        {
            "name": "AMVOM",
            "lat": 30.502802783333333,
            "lon": 51.60758333333333
        },
        {
            "name": "ANBIV",
            "lat": 29.716375,
            "lon": 51.379983333333335
        },
        {
            "name": "ANLER",
            "lat": 28.694280566666666,
            "lon": 49.85695
        },
        {
            "name": "ARPEP",
            "lat": 30.4529,
            "lon": 51.915613883333336
        },
        {
            "name": "ARTIL",
            "lat": 28.81392221666667,
            "lon": 50.938916666666664
        },
        {
            "name": "ASDEK",
            "lat": 28.601997216666668,
            "lon": 51.33003611666667
        },
        {
            "name": "BUXEV",
            "lat": 29.624902783333333,
            "lon": 51.346119433333335
        },
        {
            "name": "DAISE",
            "lat": 29.051333333333332,
            "lon": 50.781
        },
        {
            "name": "DAKAT",
            "lat": 30.083833333333335,
            "lon": 51.41683333333334
        },
        {
            "name": "DAKMU",
            "lat": 28.858813883333333,
            "lon": 51.388297216666665
        },
        {
            "name": "DEVOT",
            "lat": 31.229027783333333,
            "lon": 52.74043888333333
        },
        {
            "name": "DOMPA",
            "lat": 29.4135,
            "lon": 51.097833333333334
        },
        {
            "name": "DOPGA",
            "lat": 29.882661116666668,
            "lon": 52.23023333333333
        },
        {
            "name": "DOVNA",
            "lat": 30.669444433333332,
            "lon": 51.885333333333335
        },
        {
            "name": "EAGLE",
            "lat": 29.202833333333334,
            "lon": 51.7905
        },
        {
            "name": "EDNEV",
            "lat": 29.395286116666668,
            "lon": 50.27651388333334
        },
        {
            "name": "EDSEP",
            "lat": 30.499005566666668,
            "lon": 51.46022778333333
        },
        {
            "name": "EDSOL",
            "lat": 29.756505566666668,
            "lon": 50.683694433333336
        },
        {
            "name": "EGBAM",
            "lat": 30.170391666666667,
            "lon": 51.28629166666666
        },
        {
            "name": "EGBIP",
            "lat": 28.278,
            "lon": 49.035
        },
        {
            "name": "ENSEP",
            "lat": 29.0711,
            "lon": 51.479025
        },
        {
            "name": "ESDON",
            "lat": 29.48575556666667,
            "lon": 51.01599721666667
        },
        {
            "name": "ESNUX",
            "lat": 30.1975,
            "lon": 51.10316666666667
        },
        {
            "name": "FIG",
            "lat": 29.998177783333333,
            "lon": 50.97554443333333
        },
        {
            "name": "FIG11",
            "lat": 29.989319433333332,
            "lon": 51.42758056666667
        },
        {
            "name": "FIG12",
            "lat": 29.989325,
            "lon": 51.42735278333333
        },
        {
            "name": "GEMGI",
            "lat": 29.988333333333333,
            "lon": 51.47083333333333
        },
        {
            "name": "GIGPA",
            "lat": 29.218591666666665,
            "lon": 51.09109443333333
        },
        {
            "name": "ILTOG",
            "lat": 31.555444433333335,
            "lon": 52.586455566666665
        },
        {
            "name": "IRILU",
            "lat": 29.113666666666667,
            "lon": 51.42933333333333
        },
        {
            "name": "ISEPA",
            "lat": 29.992333333333335,
            "lon": 51.282833333333336
        },
        {
            "name": "ISOBU",
            "lat": 30.730463883333332,
            "lon": 53.38301666666667
        },
        {
            "name": "ISTEN",
            "lat": 30.263797216666667,
            "lon": 51.239225
        },
        {
            "name": "KEKAR",
            "lat": 29.745666666666665,
            "lon": 52.947833333333335
        },
        {
            "name": "KEXEL",
            "lat": 29.800666666666668,
            "lon": 52.95366666666666
        },
        {
            "name": "KORGU",
            "lat": 29.481166666666667,
            "lon": 50.553333333333335
        },
        {
            "name": "KOTUB",
            "lat": 29.905166666666666,
            "lon": 50.925666666666665
        },
        {
            "name": "LOGUV",
            "lat": 30.088716666666667,
            "lon": 51.18888333333334
        },
        {
            "name": "NETPI",
            "lat": 29.996666666666666,
            "lon": 51.0635
        },
        {
            "name": "NIGMU",
            "lat": 29.364383333333333,
            "lon": 50.920525
        },
        {
            "name": "NIKPI",
            "lat": 29.028688883333334,
            "lon": 51.10146111666667
        },
        {
            "name": "NIRTI",
            "lat": 29.291805566666667,
            "lon": 50.92950833333333
        },
        {
            "name": "NOBEL",
            "lat": 28.824166666666667,
            "lon": 52.084833333333336
        },
        {
            "name": "OGROP",
            "lat": 29.208094433333333,
            "lon": 50.931322216666665
        },
        {
            "name": "OGVUV",
            "lat": 29.8955,
            "lon": 51.411833333333334
        },
        {
            "name": "OPSIV",
            "lat": 29.377116666666666,
            "lon": 51.023769433333335
        },
        {
            "name": "ORAKI",
            "lat": 29.742758333333335,
            "lon": 51.7991
        },
        {
            "name": "PA004",
            "lat": 29.9905,
            "lon": 51.374833333333335
        },
        {
            "name": "PA006",
            "lat": 30.000333333333334,
            "lon": 50.8715
        },
        {
            "name": "PA008",
            "lat": 29.990366666666667,
            "lon": 51.37850278333333
        },
        {
            "name": "PA009",
            "lat": 29.99033611666667,
            "lon": 51.37850278333333
        },
        {
            "name": "PA012",
            "lat": 29.990433333333332,
            "lon": 51.37488056666667
        },
        {
            "name": "PA024",
            "lat": 29.9985,
            "lon": 50.9675
        },
        {
            "name": "PA051",
            "lat": 29.998583333333332,
            "lon": 50.95186388333333
        },
        {
            "name": "PA052",
            "lat": 29.800833333333333,
            "lon": 50.799722216666666
        },
        {
            "name": "PA053",
            "lat": 30.257105566666667,
            "lon": 51.52937778333333
        },
        {
            "name": "PA054",
            "lat": 30.257363883333333,
            "lon": 51.750166666666665
        },
        {
            "name": "PA056",
            "lat": 30.257336116666668,
            "lon": 51.905908333333336
        },
        {
            "name": "PA057",
            "lat": 30.256088883333334,
            "lon": 52.40377778333333
        },
        {
            "name": "PA058",
            "lat": 30.01289166666667,
            "lon": 51.82626388333333
        },
        {
            "name": "PA059",
            "lat": 30.108475,
            "lon": 51.83206943333333
        },
        {
            "name": "PA062",
            "lat": 29.855077783333332,
            "lon": 51.64930278333333
        },
        {
            "name": "PANIB",
            "lat": 29.745955566666666,
            "lon": 51.25537778333333
        },
        {
            "name": "PENSO",
            "lat": 28.046333333333333,
            "lon": 50.822
        },
        {
            "name": "POA01",
            "lat": 29.993602783333333,
            "lon": 51.221386116666665
        },
        {
            "name": "POA05",
            "lat": 29.995694433333334,
            "lon": 51.11525278333333
        },
        {
            "name": "POSBI",
            "lat": 29.9915,
            "lon": 51.32483333333333
        },
        {
            "name": "POXEV",
            "lat": 30.322416666666665,
            "lon": 53.453547216666664
        },
        {
            "name": "PUBGI",
            "lat": 29.026883333333334,
            "lon": 51.588822216666664
        },
        {
            "name": "PUDMA",
            "lat": 29.510533333333335,
            "lon": 51.20148056666667
        },
        {
            "name": "PUKSA",
            "lat": 29.569241666666667,
            "lon": 50.92281388333333
        },
        {
            "name": "PULPU",
            "lat": 29.451011116666667,
            "lon": 50.978338883333336
        },
        {
            "name": "PUPER",
            "lat": 29.294763883333335,
            "lon": 50.704686116666664
        },
        {
            "name": "SELRI",
            "lat": 30.245386116666666,
            "lon": 51.6379
        },
        {
            "name": "SUKDI",
            "lat": 29.283091666666667,
            "lon": 50.35713056666667
        },
        {
            "name": "SUKSU",
            "lat": 29.793011116666666,
            "lon": 50.91858611666667
        },
        {
            "name": "SUSKI",
            "lat": 29.777172216666667,
            "lon": 52.19496388333334
        },
        {
            "name": "TEMEK",
            "lat": 30.574666666666666,
            "lon": 51.550333333333334
        },
        {
            "name": "TEREB",
            "lat": 30.219025,
            "lon": 51.602
        },
        {
            "name": "TIMVI",
            "lat": 28.901188883333333,
            "lon": 49.81434443333333
        },
        {
            "name": "TIRNO",
            "lat": 29.89074443333333,
            "lon": 51.818880566666664
        },
        {
            "name": "TISGA",
            "lat": 29.531433333333332,
            "lon": 50.90869721666667
        },
        {
            "name": "TOGEK",
            "lat": 30.700833333333332,
            "lon": 52.06503611666667
        },
        {
            "name": "TOGNU",
            "lat": 29.213438883333332,
            "lon": 51.37024443333333
        },
        {
            "name": "TOKAK",
            "lat": 30.695463883333332,
            "lon": 52.81069721666667
        },
        {
            "name": "UBREG",
            "lat": 29.72706111666667,
            "lon": 50.72348611666666
        },
        {
            "name": "UDOGO",
            "lat": 30.207252783333335,
            "lon": 51.52205
        },
        {
            "name": "UKDEL",
            "lat": 28.803580566666668,
            "lon": 50.99531111666667
        },
        {
            "name": "UREPU",
            "lat": 29.25665,
            "lon": 51.85850833333333
        },
        {
            "name": "VAGAL",
            "lat": 29.125230566666666,
            "lon": 50.69570556666667
        },
        {
            "name": "VAMOR",
            "lat": 29.99035556666667,
            "lon": 51.37850278333333
        },
        {
            "name": "VASED",
            "lat": 29.692622216666667,
            "lon": 51.270752783333336
        },
        {
            "name": "VUBRA",
            "lat": 30.138683333333333,
            "lon": 51.34514443333333
        },
        {
            "name": "VUGBO",
            "lat": 30.0935,
            "lon": 50.9305
        },
        {
            "name": "VUGET",
            "lat": 30.187725,
            "lon": 50.92719721666667
        },
        {
            "name": "VUKMO",
            "lat": 28.725922216666667,
            "lon": 50.354125
        }
    ],
    "rnws": [
        "RNW 11",
        "RNW 29"
    ],
    "sids": [
        {
            "name": "EGBA1B",
            "rnw": "29",
            "fixes": {
                "ISEPA": "ISEPA TURN LEFT DIRECT",
                "EGBAM": "EGBAM AT OR BELOW 6000 AT OR ABOVE 5000"
            },
            "sub_fixes": [],
            "transitions": [
                {
                    "name": "DEVOT",
                    "fixes": [
                        "AMVOM",
                        "DOVNA",
                        "DEVOT"
                    ]
                },
                {
                    "name": "ISOBU",
                    "fixes": [
                        "AMVOM",
                        "DOVNA",
                        "TOKAK",
                        "ISOBU"
                    ]
                },
                {
                    "name": "KEXEL",
                    "fixes": [
                        "PA053",
                        "PA054",
                        "PA056",
                        "PA057",
                        "KEXEL"
                    ]
                },
                {
                    "name": "POXEV",
                    "fixes": [
                        "AMVOM",
                        "DOVNA",
                        "POXEV"
                    ]
                },
                {
                    "name": "TEMEK",
                    "fixes": [
                        "EDSEP",
                        "TEMEK"
                    ]
                },
                {
                    "name": "TOKAK",
                    "fixes": [
                        "AMVOM",
                        "DOVNA",
                        "TOKAK"
                    ]
                }
            ]
        },
        {
            "name": "ESNU3A",
            "rnw": "11",
            "fixes": {
                "ESNUX": "ESNUX AT OR BELOW 6000 AT OR ABOVE 5000 SPEED 230"
            },
            "sub_fixes": [],
            "transitions": [
                {
                    "name": "DEVOT",
                    "fixes": [
                        "AMVOM",
                        "DOVNA",
                        "DEVOT"
                    ]
                },
                {
                    "name": "ISOBU",
                    "fixes": [
                        "AMVOM",
                        "DOVNA",
                        "TOKAK",
                        "ISOBU"
                    ]
                },
                {
                    "name": "KEKAR",
                    "fixes": [
                        "UDOGO",
                        "PA059",
                        "KEKAR"
                    ]
                },
                {
                    "name": "POXEV",
                    "fixes": [
                        "AMVOM",
                        "DOVNA",
                        "POXEV"
                    ]
                },
                {
                    "name": "SUSKI",
                    "fixes": [
                        "UDOGO",
                        "PA058",
                        "SUSKI"
                    ]
                },
                {
                    "name": "TEMEK",
                    "fixes": [
                        "EDSEP",
                        "TEMEK"
                    ]
                },
                {
                    "name": "TOKAK",
                    "fixes": [
                        "AMVOM",
                        "DOVNA",
                        "TOKAK"
                    ]
                }
            ]
        },
        {
            "name": "KEXE2A",
            "rnw": "11",
            "fixes": {
                "ESNUX": "ESNUX AT OR ABOVE 5000",
                "PA053": "PA053",
                "PA054": "PA054 AT OR BELOW 6000",
                "PA056": "PA056",
                "PA057": "PA057",
                "KEXEL": "KEXEL"
            },
            "sub_fixes": [],
            "transitions": []
        },
        {
            "name": "KORG2A",
            "rnw": "11",
            "fixes": {
                "NETPI": "OVERFLY NETPI",
                "PA051": "OVERFLY PA051",
                "PA052": "PA052 AT OR BELOW 10000",
                "KORGU": "KORGU"
            },
            "sub_fixes": [],
            "transitions": [
                {
                    "name": "ANLER",
                    "fixes": [
                        "SUKDI",
                        "ANLER"
                    ]
                },
                {
                    "name": "EGBIP",
                    "fixes": [
                        "SUKDI",
                        "ANLER",
                        "EGBIP"
                    ]
                }
            ]
        },
        {
            "name": "NIRT2A",
            "rnw": "11",
            "fixes": {
                "NETPI": "OVERFLY NETPI",
                "SUKSU": "SUKSU",
                "NIRTI": "NIRTI"
            },
            "sub_fixes": [],
            "transitions": [
                {
                    "name": "ARTIL",
                    "fixes": [
                        "OGROP",
                        "ARTIL"
                    ]
                },
                {
                    "name": "NOBEL",
                    "fixes": [
                        "ENSEP",
                        "PUBGI",
                        "NOBEL"
                    ]
                },
                {
                    "name": "PENSO",
                    "fixes": [
                        "OGROP",
                        "UKDEL",
                        "PENSO"
                    ]
                }
            ]
        },
        {
            "name": "OMNI",
            "rnw": "11",
            "fixes": {},
            "sub_fixes": [
                {
                    "rwy": "RNW 11",
                    "fixes": {
                        "RNW 11": "RNW 11 TRK 109 UNTIL 2000 HDG 109 VECTORS"
                    }
                },
                {
                    "rwy": "RNW 29",
                    "fixes": {
                        "RNW 29": "RNW 29 TRK 289 UNTIL 2000 HDG 289 VECTORS"
                    }
                }
            ],
            "transitions": []
        },
        {
            "name": "PUDM1B",
            "rnw": "29",
            "fixes": {
                "ISEPA": "ISEPA",
                "VASED": "VASED",
                "PUDMA": "PUDMA"
            },
            "sub_fixes": [],
            "transitions": [
                {
                    "name": "ANLER",
                    "fixes": [
                        "PULPU",
                        "SUKDI",
                        "ANLER"
                    ]
                },
                {
                    "name": "EGBIP",
                    "fixes": [
                        "PULPU",
                        "SUKDI",
                        "ANLER",
                        "EGBIP"
                    ]
                }
            ]
        },
        {
            "name": "PUKS2A",
            "rnw": "11",
            "fixes": {
                "NETPI": "OVERFLY NETPI",
                "SUKSU": "SUKSU",
                "PUKSA": "PUKSA"
            },
            "sub_fixes": [],
            "transitions": [
                {
                    "name": "DAISE",
                    "fixes": [
                        "OGROP",
                        "DAISE"
                    ]
                },
                {
                    "name": "DOMPA",
                    "fixes": [
                        "ESDON",
                        "DOMPA"
                    ]
                },
                {
                    "name": "IRILU",
                    "fixes": [
                        "ESDON",
                        "DOMPA",
                        "IRILU"
                    ]
                }
            ]
        },
        {
            "name": "SUSK2B",
            "rnw": "29",
            "fixes": {
                "ISEPA": "ISEPA",
                "GEMGI": "GEMGI",
                "PA062": "PA062 AT OR BELOW 11000",
                "ORAKI": "ORAKI",
                "SUSKI": "SUSKI"
            },
            "sub_fixes": [],
            "transitions": []
        },
        {
            "name": "TISG1B",
            "rnw": "29",
            "fixes": {
                "ISEPA": "ISEPA",
                "VASED": "VASED",
                "TISGA": "TISGA AT OR ABOVE 16000"
            },
            "sub_fixes": [],
            "transitions": [
                {
                    "name": "ANLER",
                    "fixes": [
                        "SUKDI",
                        "ANLER"
                    ]
                },
                {
                    "name": "EGBIP",
                    "fixes": [
                        "SUKDI",
                        "ANLER",
                        "EGBIP"
                    ]
                }
            ]
        },
        {
            "name": "VASE2B",
            "rnw": "29",
            "fixes": {
                "ISEPA": "ISEPA",
                "VASED": "VASED"
            },
            "sub_fixes": [],
            "transitions": [
                {
                    "name": "ARTIL",
                    "fixes": [
                        "GIGPA",
                        "ARTIL"
                    ]
                },
                {
                    "name": "DAISE",
                    "fixes": [
                        "DAISE"
                    ]
                },
                {
                    "name": "DOMPA",
                    "fixes": [
                        "DOMPA"
                    ]
                },
                {
                    "name": "IRILU",
                    "fixes": [
                        "IRILU"
                    ]
                },
                {
                    "name": "KORGU",
                    "fixes": [
                        "KORGU"
                    ]
                },
                {
                    "name": "NOBEL",
                    "fixes": [
                        "PUBGI",
                        "NOBEL"
                    ]
                },
                {
                    "name": "PENSO",
                    "fixes": [
                        "GIGPA",
                        "UKDEL",
                        "PENSO"
                    ]
                }
            ]
        }
    ],
    "stars": [
        {
            "name": "ARPE1A",
            "runway": "RNW 11",
            "fixes": {
                "ARPEP": "ARPEP AT OR ABOVE 15000",
                "SELRI": "SELRI AT OR BELOW 9000 AT OR ABOVE 7000",
                "DAKAT": "DAKAT AT OR ABOVE 4000"
            }
        },
        {
            "name": "BUXE3A",
            "runway": "RNW 11",
            "fixes": {
                "BUXEV": "BUXEV AT OR BELOW 8000 AT OR ABOVE 7000",
                "ANBIV": "ANBIV AT OR BELOW 7000 AT OR ABOVE 6000",
                "OGVUV": "OGVUV AT OR ABOVE 4000"
            }
        },
        {
            "name": "DAKA1B",
            "runway": "RNW 29",
            "fixes": {
                "DAKAT": "DAKAT AT OR ABOVE 10000",
                "LOGUV": "LOGUV AT OR ABOVE 7000",
                "VUGBO": "VUGBO AT OR ABOVE 4000"
            }
        },
        {
            "name": "DOPG1A",
            "runway": "RNW 11",
            "fixes": {
                "DOPGA": "DOPGA",
                "TIRNO": "TIRNO",
                "OGVUV": "OGVUV AT OR ABOVE 4000"
            }
        },
        {
            "name": "TIMV3A",
            "runway": "RNW 11",
            "fixes": {
                "TIMVI": "TIMVI",
                "EDNEV": "EDNEV",
                "ALDAD": "ALDAD AT OR ABOVE 11000",
                "VUGBO": "VUGBO AT OR ABOVE 11000",
                "LOGUV": "LOGUV AT OR ABOVE 7000",
                "DAKAT": "DAKAT AT OR ABOVE 4000"
            }
        },
        {
            "name": "UBRE1B",
            "runway": "RNW 29",
            "fixes": {
                "UBREG": "UBREG AT OR ABOVE 8000",
                "KOTUB": "KOTUB AT OR ABOVE 4000"
            }
        }
    ],
    "approaches": [
        {
            "name": "VORDZ11",
            "fixes": {
                "POSBI": "POSBI AT OR ABOVE 2000",
                "ISEPA": "ISEPA 1720 RNW 11",
                "FIG": "FIG",
                "AJAX": "AJAX AT OR ABOVE 4000 HOLD AT AJAX LEFT TURN INBOUNDCOURSE 139 ALT 4000 LEGTIME 1 FAF ISEPA MAP RNW 11"
            },
            "transitions": [
                {
                    "name": "EDSOL",
                    "fixes": {
                        "EDSOL": "EDSOL AT OR ABOVE 6000",
                        "AF001": "AF001",
                        "AF002": "AF002",
                        "AF003": "AF003",
                        "PANIB": "PANIB AT OR ABOVE 6000",
                        "AF004": "AF004",
                        "AF005": "AF005",
                        "PA008": "PA008 AT OR ABOVE 2000"
                    }
                },
                {
                    "name": "ISTEN",
                    "fixes": {
                        "ISTEN": "ISTEN AT OR ABOVE 5000",
                        "AF006": "AF006",
                        "AF007": "AF007",
                        "VUBRA": "VUBRA AT OR ABOVE 4000",
                        "AF008": "AF008",
                        "AF009": "AF009",
                        "PA009": "PA009 AT OR ABOVE 2000"
                    }
                },
                {
                    "name": "PANIB",
                    "fixes": {
                        "PANIB": "PANIB AT OR ABOVE 6000",
                        "AF004": "AF004",
                        "AF005": "AF005",
                        "PA008": "PA008 AT OR ABOVE 2000"
                    }
                },
                {
                    "name": "VUBRA",
                    "fixes": {
                        "VUBRA": "VUBRA AT OR ABOVE 4000",
                        "AF008": "AF008",
                        "AF009": "AF009",
                        "PA009": "PA009 AT OR ABOVE 2000"
                    }
                }
            ]
        },
        {
            "name": "VORDY29",
            "fixes": {
                "FIG": "FIG AT OR ABOVE 2200",
                "NETPI": "NETPI 1510 RNW 29",
                "ALCIR": "ALCIR",
                "DAKAT": "DAKAT AT OR ABOVE 4000 HOLD AT DAKAT RIGHT TURN INBOUNDCOURSE 095 ALT 4000 LEGTIME 1 FAF NETPI MAP RNW 29"
            },
            "transitions": [
                {
                    "name": "KOTUB",
                    "fixes": {
                        "KOTUB": "KOTUB AT OR ABOVE 4000"
                    }
                },
                {
                    "name": "VUGBO",
                    "fixes": {
                        "VUGBO": "VUGBO AT OR ABOVE 4000"
                    }
                }
            ]
        },
        {
            "name": "ILSY11",
            "fixes": {
                "VAMOR": "VAMOR AT OR ABOVE 2700",
                "AKTOM": "AKTOM 1660 RNW 11 HDG 108 UNTIL 3000",
                "VUGET": "VUGET AT OR BELOW 7000 AT OR ABOVE 5000 HOLD AT VUGET LEFT TURN INBOUNDCOURSE 185 LEGTIME 1 FAF AKTOM MAP RNW 11"
            },
            "transitions": [
                {
                    "name": "DAKAT",
                    "fixes": {
                        "DAKAT": "DAKAT AT OR ABOVE 4000",
                        "FIG12": "FIG12"
                    }
                },
                {
                    "name": "OGVUV",
                    "fixes": {
                        "OGVUV": "OGVUV AT OR ABOVE 4000",
                        "FIG11": "FIG11"
                    }
                }
            ]
        },
        {
            "name": "ILSZ11",
            "fixes": {
                "PA012": "PA012 AT OR ABOVE 2700",
                "AKTOM": "AKTOM 1660 RNW 11 HDG 108 UNTIL 3000",
                "VUGET": "OVERFLY VUGET AT OR BELOW 7000 AT OR ABOVE 5000 HOLD AT VUGET LEFT TURN INBOUNDCOURSE 301 LEGTIME 1 FAF AKTOM MAP RNW 11"
            },
            "transitions": [
                {
                    "name": "DAKAT",
                    "fixes": {
                        "DAKAT": "DAKAT AT OR ABOVE 4000"
                    }
                },
                {
                    "name": "GEMGI",
                    "fixes": {
                        "GEMGI": "GEMGI AT OR ABOVE 4000"
                    }
                },
                {
                    "name": "OGVUV",
                    "fixes": {
                        "OGVUV": "OGVUV AT OR ABOVE 4000"
                    }
                }
            ]
        },
        {
            "name": "LOCY11",
            "fixes": {
                "VAMOR": "VAMOR AT OR ABOVE 2700",
                "AKTOM": "AKTOM 1660 RNW 11 HDG 108 UNTIL 3000",
                "VUGET": "VUGET AT OR BELOW 7000 AT OR ABOVE 5000 HOLD AT VUGET LEFT TURN INBOUNDCOURSE 185 LEGTIME 1 FAF AKTOM MAP RNW 11"
            },
            "transitions": [
                {
                    "name": "DAKAT",
                    "fixes": {
                        "DAKAT": "DAKAT AT OR ABOVE 4000",
                        "FIG12": "FIG12"
                    }
                },
                {
                    "name": "OGVUV",
                    "fixes": {
                        "OGVUV": "OGVUV AT OR ABOVE 4000",
                        "FIG11": "FIG11"
                    }
                }
            ]
        },
        {
            "name": "RNAVZ11",
            "fixes": {
                "PA004": "PA004 AT OR ABOVE 2700",
                "ISEPA": "ISEPA 1720",
                "POA01": "POA01 AT OR ABOVE 600 RNW 11 HDG 108 UNTIL 3000",
                "VUGET": "OVERFLY VUGET AT OR BELOW 7000 AT OR ABOVE 5000 HOLD AT VUGET LEFT TURN INBOUNDCOURSE 300 ALT 7000 LEGTIME 1 FAF ISEPA MAP RNW 11"
            },
            "transitions": [
                {
                    "name": "DAKAT",
                    "fixes": {
                        "DAKAT": "DAKAT AT OR ABOVE 4000"
                    }
                },
                {
                    "name": "GEMGI",
                    "fixes": {
                        "GEMGI": "GEMGI AT OR ABOVE 4000"
                    }
                },
                {
                    "name": "OGVUV",
                    "fixes": {
                        "OGVUV": "OGVUV AT OR ABOVE 4000"
                    }
                }
            ]
        },
        {
            "name": "RNAVY29",
            "fixes": {
                "PA024": "PA024 AT OR ABOVE 2300",
                "NETPI": "NETPI 1510",
                "POA05": "POA05 AT OR ABOVE 653 RNW 29 TRK 288 UNTIL 3000",
                "DAKAT": "OVERFLY DAKAT AT OR ABOVE 4000 SPEED 240 HOLD AT DAKAT RIGHT TURN INBOUNDCOURSE 108 ALT 4000 SPEED 240 LEGTIME 1 FAF NETPI MAP RNW 29"
            },
            "transitions": [
                {
                    "name": "KOTUB",
                    "fixes": {
                        "KOTUB": "KOTUB AT OR ABOVE 4000"
                    }
                },
                {
                    "name": "PA006",
                    "fixes": {
                        "PA006": "PA006 AT OR ABOVE 4000"
                    }
                },
                {
                    "name": "VUGBO",
                    "fixes": {
                        "VUGBO": "VUGBO AT OR ABOVE 4000"
                    }
                }
            ]
        }
    ]
}