{
    "fixes": [
        {
            "name": "62VOR",
            "lat": 23.364036116666668,
            "lon": 70.43408888333333
        },
        {
            "name": "ARPOM",
            "lat": 22.887019433333332,
            "lon": 70.56281388333333
        },
        {
            "name": "ARTEK",
            "lat": 23.578622216666666,
            "lon": 70.461475
        },
        {
            "name": "BRADA",
            "lat": 21.891944433333332,
            "lon": 70.74527778333334
        },
        {
            "name": "CD01",
            "lat": 23.649513883333334,
            "lon": 70.47211111666667
        },
        {
            "name": "CF19",
            "lat": 23.251166666666666,
            "lon": 70.41910278333333
        },
        {
            "name": "D008U",
            "lat": 23.116969433333335,
            "lon": 70.41631388333333
        },
        {
            "name": "D008Y",
            "lat": 23.050305566666665,
            "lon": 70.41033888333334
        },
        {
            "name": "D011O",
            "lat": 23.217969433333334,
            "lon": 70.4147
        },
        {
            "name": "D354Y",
            "lat": 23.055202783333332,
            "lon": 70.52622778333334
        },
        {
            "name": "DADIK",
            "lat": 23.334677783333333,
            "lon": 70.43162778333334
        },
        {
            "name": "DOLTO",
            "lat": 23.510097216666665,
            "lon": 70.5369
        },
        {
            "name": "DOVRI",
            "lat": 24.800563883333332,
            "lon": 70.56055
        },
        {
            "name": "EKENO",
            "lat": 22.978505566666666,
            "lon": 70.11065
        },
        {
            "name": "EKEVI",
            "lat": 23.109166666666667,
            "lon": 70.44305556666667
        },
        {
            "name": "ENLUS",
            "lat": 21.893083333333333,
            "lon": 70.22120833333334
        },
        {
            "name": "FA011",
            "lat": 23.473633333333332,
            "lon": 70.44861666666667
        },
        {
            "name": "FA022",
            "lat": 23.437741666666668,
            "lon": 70.444225
        },
        {
            "name": "FA039",
            "lat": 23.367911116666665,
            "lon": 70.43568888333333
        },
        {
            "name": "FA068",
            "lat": 23.343366666666668,
            "lon": 70.43268888333333
        },
        {
            "name": "FA090",
            "lat": 23.285788883333332,
            "lon": 70.48235556666667
        },
        {
            "name": "FA107",
            "lat": 23.633816666666668,
            "lon": 70.46824166666667
        },
        {
            "name": "FA109",
            "lat": 23.613133333333334,
            "lon": 70.50603611666666
        },
        {
            "name": "FA110",
            "lat": 23.251588883333334,
            "lon": 70.42148611666667
        },
        {
            "name": "FA134",
            "lat": 23.326408333333333,
            "lon": 70.51808333333334
        },
        {
            "name": "FA169",
            "lat": 23.240305566666667,
            "lon": 70.52937778333333
        },
        {
            "name": "FA190",
            "lat": 23.418252783333333,
            "lon": 70.52748333333334
        },
        {
            "name": "FA201",
            "lat": 23.480519433333335,
            "lon": 70.53204166666667
        },
        {
            "name": "FA230",
            "lat": 23.808802783333334,
            "lon": 70.61316111666666
        },
        {
            "name": "FA23A",
            "lat": 23.849727783333332,
            "lon": 70.48837778333333
        },
        {
            "name": "FA249",
            "lat": 23.3737,
            "lon": 70.54623056666667
        },
        {
            "name": "FA251",
            "lat": 23.456133333333334,
            "lon": 70.57332221666667
        },
        {
            "name": "FA261",
            "lat": 23.056138883333333,
            "lon": 70.30696388333334
        },
        {
            "name": "FA38A",
            "lat": 22.833641666666665,
            "lon": 70.39096111666667
        },
        {
            "name": "FA38B",
            "lat": 24.100475,
            "lon": 70.50105278333334
        },
        {
            "name": "FA456",
            "lat": 24.214725,
            "lon": 70.53885833333334
        },
        {
            "name": "FAG",
            "lat": 23.46694443333333,
            "lon": 70.44777778333334
        },
        {
            "name": "FAG18",
            "lat": 23.166966666666667,
            "lon": 70.42079721666667
        },
        {
            "name": "FAG24",
            "lat": 23.068577783333332,
            "lon": 70.39491388333333
        },
        {
            "name": "FAG26",
            "lat": 23.900419433333333,
            "lon": 70.48417221666666
        },
        {
            "name": "FAG35",
            "lat": 22.885980566666667,
            "lon": 70.37078888333333
        },
        {
            "name": "FAG45",
            "lat": 24.21678611666667,
            "lon": 70.51611111666666
        },
        {
            "name": "FD01",
            "lat": 23.549930566666667,
            "lon": 70.45883056666666
        },
        {
            "name": "FF19",
            "lat": 23.334158333333335,
            "lon": 70.43011943333333
        },
        {
            "name": "FS01",
            "lat": 23.556227783333334,
            "lon": 70.45966943333333
        },
        {
            "name": "FS19",
            "lat": 23.375655566666666,
            "lon": 70.43563333333333
        },
        {
            "name": "IRIKI",
            "lat": 23.167705566666665,
            "lon": 70.41125833333334
        },
        {
            "name": "ISEKA",
            "lat": 23.796388883333332,
            "lon": 70.38472221666666
        },
        {
            "name": "KIGON",
            "lat": 23.550069433333334,
            "lon": 70.457975
        },
        {
            "name": "KUBRI",
            "lat": 23.84915,
            "lon": 70.49420278333334
        },
        {
            "name": "LOA",
            "lat": 22.501944433333332,
            "lon": 68.87555556666666
        },
        {
            "name": "LOMUN",
            "lat": 23.716113883333332,
            "lon": 70.478325
        },
        {
            "name": "LONEK",
            "lat": 24.214444433333334,
            "lon": 70.56416666666667
        },
        {
            "name": "MA19",
            "lat": 23.41715,
            "lon": 70.44115
        },
        {
            "name": "MS19",
            "lat": 23.425447216666665,
            "lon": 70.44225556666666
        },
        {
            "name": "NEDAV",
            "lat": 23.093752783333333,
            "lon": 70.40238056666666
        },
        {
            "name": "OPSUD",
            "lat": 23.193783333333332,
            "lon": 70.49820278333334
        },
        {
            "name": "PUKTA",
            "lat": 22.885230566666667,
            "lon": 70.37775278333334
        },
        {
            "name": "REBOL",
            "lat": 21.920833333333334,
            "lon": 70.31
        },
        {
            "name": "REGAL",
            "lat": 23.155330566666667,
            "lon": 70.4852
        },
        {
            "name": "REMED",
            "lat": 23.068125,
            "lon": 70.399125
        },
        {
            "name": "RF001",
            "lat": 23.588852733333333,
            "lon": 70.54355501666667
        },
        {
            "name": "RF002",
            "lat": 23.605978433333334,
            "lon": 70.52842848333333
        },
        {
            "name": "SACON",
            "lat": 24.382777783333335,
            "lon": 70.88916666666667
        },
        {
            "name": "SIDAN",
            "lat": 23.567263883333332,
            "lon": 70.54628333333334
        },
        {
            "name": "TATIO",
            "lat": 22.805,
            "lon": 69.67555556666667
        },
        {
            "name": "TELOR",
            "lat": 23.508261116666667,
            "lon": 70.45285556666667
        },
        {
            "name": "TOGLO",
            "lat": 23.377711116666667,
            "lon": 70.43688333333333
        },
        {
            "name": "UKATO",
            "lat": 24.80249166666667,
            "lon": 70.35124166666667
        },
        {
            "name": "VADIX",
            "lat": 24.784166666666668,
            "lon": 70.19388888333333
        }
    ],
    "rnws": [
        "RNW 01",
        "RNW 19"
    ],
    "sids": [
        {
            "name": "ARPO3B",
            "rnw": "01",
            "fixes": {
                "ARPOM": "ARPOM AT OR ABOVE 8000"
            },
            "sub_fixes": [],
            "transitions": []
        },
        {
            "name": "ARPO3C",
            "rnw": "19",
            "fixes": {
                "FA251": "FA251",
                "ARPOM": "ARPOM AT OR ABOVE 8000"
            },
            "sub_fixes": [],
            "transitions": []
        },
        {
            "name": "BAHIA5",
            "rnw": "19",
            "fixes": {
                "FAG": "FAG AT OR ABOVE 4500"
            },
            "sub_fixes": [],
            "transitions": []
        },
        {
            "name": "BRAD3B",
            "rnw": "01",
            "fixes": {
                "BRADA": "BRADA AT OR ABOVE 10000"
            },
            "sub_fixes": [],
            "transitions": []
        },
        {
            "name": "BRAD3J",
            "rnw": "19",
            "fixes": {
                "FA251": "FA251",
                "BRADA": "BRADA AT OR ABOVE 10000"
            },
            "sub_fixes": [],
            "transitions": []
        },
        {
            "name": "FAGAS5",
            "rnw": "19",
            "fixes": {
                "FAG": "FAG"
            },
            "sub_fixes": [],
            "transitions": [
                {
                    "name": "BRADA",
                    "fixes": [
                        "BRADA",
                        "BRADA"
                    ]
                },
                {
                    "name": "DOVRI",
                    "fixes": [
                        "DOVRI",
                        "DOVRI"
                    ]
                },
                {
                    "name": "LOA",
                    "fixes": [
                        "FAG",
                        "LOA"
                    ]
                },
                {
                    "name": "REBOL",
                    "fixes": [
                        "FAG",
                        "REBOL"
                    ]
                },
                {
                    "name": "SACON",
                    "fixes": [
                        "SACON"
                    ]
                },
                {
                    "name": "TATIO",
                    "fixes": [
                        "FAG",
                        "EKEVI",
                        "TATIO"
                    ]
                }
            ]
        },
        {
            "name": "GARTO3",
            "rnw": "01",
            "fixes": {
                "FAG": "FAG"
            },
            "sub_fixes": [],
            "transitions": []
        },
        {
            "name": "ISEK3B",
            "rnw": "01",
            "fixes": {
                "FA090": "OVERFLY FA090 AT OR ABOVE 4000 TURN LEFT DIRECT",
                "ISEKA": "ISEKA AT OR ABOVE 10000"
            },
            "sub_fixes": [],
            "transitions": []
        },
        {
            "name": "ISEKA2",
            "rnw": "19",
            "fixes": {
                "ISEKA": "ISEKA AT OR ABOVE 6000"
            },
            "sub_fixes": [],
            "transitions": []
        },
        {
            "name": "LANNY3",
            "rnw": "01",
            "fixes": {
                "D008Y": "D008Y AT OR ABOVE 8000",
                "REBOL": "REBOL"
            },
            "sub_fixes": [],
            "transitions": []
        },
        {
            "name": "SACON3",
            "rnw": "19",
            "fixes": {
                "FA230": "FA230 AT OR ABOVE 6000",
                "SACON": "SACON AT OR ABOVE 10000"
            },
            "sub_fixes": [],
            "transitions": []
        },
        {
            "name": "SAITA4",
            "rnw": "01",
            "fixes": {
                "D008U": "OVERFLY D008U AT OR ABOVE 6500",
                "TATIO": "TATIO"
            },
            "sub_fixes": [],
            "transitions": []
        },
        {
            "name": "TATI3J",
            "rnw": "01",
            "fixes": {
                "NEDAV": "NEDAV AT OR ABOVE 6500",
                "TATIO": "TATIO AT OR ABOVE 13000"
            },
            "sub_fixes": [],
            "transitions": []
        },
        {
            "name": "TATI3K",
            "rnw": "19",
            "fixes": {
                "FA251": "FA251",
                "NEDAV": "NEDAV AT OR ABOVE 6500",
                "TATIO": "TATIO"
            },
            "sub_fixes": [],
            "transitions": []
        },
        {
            "name": "TENEC3",
            "rnw": "01",
            "fixes": {
                "D354Y": "D354Y AT OR ABOVE 8000",
                "BRADA": "BRADA"
            },
            "sub_fixes": [],
            "transitions": []
        },
        {
            "name": "UKAT3A",
            "rnw": "19",
            "fixes": {
                "ISEKA": "ISEKA AT OR ABOVE 6000",
                "UKATO": "UKATO AT OR ABOVE 18000"
            },
            "sub_fixes": [],
            "transitions": []
        },
        {
            "name": "VADI3A",
            "rnw": "19",
            "fixes": {
                "ISEKA": "ISEKA AT OR ABOVE 6000",
                "VADIX": "VADIX AT OR ABOVE 18000"
            },
            "sub_fixes": [],
            "transitions": []
        }
    ],
    "stars": [
        {
            "name": "BORO9",
            "runway": "RNW 19",
            "fixes": {
                "FAG35": "FAG35 AT OR ABOVE 8000",
                "FAG24": "FAG24 AT OR ABOVE 6000",
                "IRIKI": "IRIKI AT OR ABOVE 4500"
            }
        },
        {
            "name": "CEMOR3",
            "runway": "RNW 01 RNW 19",
            "fixes": {
                "DOVRI": "DOVRI",
                "FA38B": "FA38B AT OR ABOVE 14000",
                "FAG26": "FAG26 AT OR ABOVE 11000",
                "FAG": "FAG AT OR ABOVE 4500"
            }
        },
        {
            "name": "DOVR3B",
            "runway": "RNW 01",
            "fixes": {
                "DOVRI": "DOVRI AT OR ABOVE 14000",
                "FA456": "FA456 AT OR ABOVE 11000",
                "KUBRI": "KUBRI AT OR ABOVE 6500",
                "LOMUN": "LOMUN AT OR ABOVE 4500"
            }
        },
        {
            "name": "DOVR5C",
            "runway": "RNW 01",
            "fixes": {
                "DOVRI": "DOVRI AT OR ABOVE 14000",
                "FAG45": "FAG45 AT OR ABOVE 11000",
                "FA23A": "FA23A AT OR ABOVE 6000",
                "LOMUN": "LOMUN AT OR ABOVE 4500"
            }
        },
        {
            "name": "EKENO4",
            "runway": "RNW 19",
            "fixes": {
                "TATIO": "TATIO AT OR ABOVE 13000",
                "EKENO": "EKENO AT OR ABOVE 13000",
                "FA261": "FA261 AT OR ABOVE 8000",
                "NEDAV": "NEDAV AT OR ABOVE 4500",
                "IRIKI": "IRIKI AT OR ABOVE 4500"
            }
        },
        {
            "name": "ENLU4A",
            "runway": "RNW 19",
            "fixes": {
                "ENLUS": "ENLUS AT OR ABOVE 10000",
                "PUKTA": "PUKTA AT OR ABOVE 8000",
                "REMED": "REMED AT OR ABOVE 6000",
                "NEDAV": "NEDAV AT OR ABOVE 4500",
                "IRIKI": "IRIKI AT OR ABOVE 4500"
            }
        },
        {
            "name": "FAMEL4",
            "runway": "RNW 01 RNW 19",
            "fixes": {
                "REBOL": "REBOL",
                "FA38A": "FA38A AT OR ABOVE 13000",
                "FAG18": "FAG18 AT OR ABOVE 8000",
                "FAG": "FAG AT OR ABOVE 4500"
            }
        },
        {
            "name": "LOA1",
            "runway": "RNW 19",
            "fixes": {
                "TATIO": "TATIO TRK 252 INTERCEPT RADIAL 038 FROM",
                "FAG": "FAG TRK 252 INTERCEPT RADIAL 023 FROM FAG TRK 252 INTERCEPT RADIAL 013 FROM FAG",
                "IRIKI": "IRIKI AT OR ABOVE 4500"
            }
        },
        {
            "name": "LONE1A",
            "runway": "RNW 19",
            "fixes": {
                "LONEK": "LONEK AT OR ABOVE 9000",
                "DOLTO": "DOLTO AT OR ABOVE 6500"
            }
        },
        {
            "name": "LONE1B",
            "runway": "RNW 01",
            "fixes": {
                "LONEK": "LONEK AT OR ABOVE 9000",
                "KUBRI": "KUBRI AT OR ABOVE 6500",
                "LOMUN": "LOMUN AT OR ABOVE 4500"
            }
        },
        {
            "name": "REBOL4",
            "runway": "RNW 19",
            "fixes": {
                "REBOL": "REBOL AT OR ABOVE 13000",
                "PUKTA": "PUKTA AT OR ABOVE 8000",
                "REMED": "REMED AT OR ABOVE 6000",
                "NEDAV": "NEDAV AT OR ABOVE 4500",
                "IRIKI": "IRIKI AT OR ABOVE 4500"
            }
        }
    ],
    "approaches": [
        {
            "name": "VORDZ01",
            "fixes": {
                "CD01": "CD01 AT OR ABOVE 3500",
                "FD01": "FD01 2200",
                "FAG": "FAG 586 RNW 01 TRK 011 UNTIL 860 HDG 344 UNTIL 4500 FAF FD01 MAP FAG"
            },
            "transitions": [
                {
                    "name": "LOMUN",
                    "fixes": {
                        "LOMUN": "LOMUN AT OR ABOVE 4500"
                    }
                }
            ]
        },
        {
            "name": "VORDX19",
            "fixes": {
                "FS19": "FS19 1800",
                "MS19": "MS19 671 RNW 19 HDG 191 UNTIL 4500 FAF FS19 MAP MS19"
            },
            "transitions": [
                {
                    "name": "FAG",
                    "fixes": {
                        "FAG": "FAG AT OR ABOVE 6000 TRK 353 UNTIL 7.0 FROM FAG"
                    }
                }
            ]
        },
        {
            "name": "VORDY19",
            "fixes": {
                "CF19": "CF19 AT OR ABOVE 3500",
                "FF19": "FF19 2700",
                "62VOR": "62VOR AT OR ABOVE 2000",
                "MA19": "MA19 855 RNW 19 HDG 191 UNTIL 4500 FAF FF19 MAP MA19"
            },
            "transitions": [
                {
                    "name": "FAG",
                    "fixes": {
                        "FAG": "FAG AT OR ABOVE 8000 TRK 356 UNTIL 15.0 FROM FAG TURN RIGHT DIRECT",
                        "D011O": "D011O AT OR ABOVE 4000"
                    }
                }
            ]
        },
        {
            "name": "VORDZ19",
            "fixes": {
                "CF19": "CF19 AT OR ABOVE 3500",
                "FF19": "FF19 2700",
                "62VOR": "62VOR AT OR ABOVE 2000",
                "MA19": "MA19 855 RNW 19 HDG 191 UNTIL 4500 FAF FF19 MAP MA19"
            },
            "transitions": [
                {
                    "name": "IRIKI",
                    "fixes": {
                        "IRIKI": "IRIKI AT OR ABOVE 4500"
                    }
                }
            ]
        },
        {
            "name": "RNAVY01",
            "fixes": {
                "LOMUN": "LOMUN AT OR ABOVE 4500",
                "FA107": "FA107 AT OR ABOVE 3500",
                "KIGON": "KIGON 2200",
                "FA011": "OVERFLY FA011 716 RNW 01",
                "FA022": "FA022",
                "OPSUD": "OVERFLY OPSUD AT OR ABOVE 4500 HOLD AT OPSUD RIGHT TURN INBOUNDCOURSE 173 ALT 4500 LEGDIST 5 FAF KIGON MAP FA011"
            },
            "transitions": [
                {
                    "name": "LOMUN",
                    "fixes": {
                        "LOMUN": "LOMUN LEFT TURN INBOUNDCOURSE 011 ALT 4500 LEGDIST 5"
                    }
                }
            ]
        },
        {
            "name": "RNAVZ01",
            "fixes": {
                "ARTEK": "ARTEK AT OR ABOVE 2700",
                "TELOR": "TELOR 1380 RNW 01 TRK 011 UNTIL 2100",
                "FA068": "FA068 AT OR ABOVE 2100",
                "REGAL": "OVERFLY REGAL AT OR ABOVE 5000 HOLD AT REGAL RIGHT TURN INBOUNDCOURSE 170 ALT 5000 LEGDIST 5 FAF TELOR MAP RNW 01"
            },
            "transitions": [
                {
                    "name": "IRIKI",
                    "fixes": {
                        "IRIKI": "IRIKI AT OR ABOVE 4500",
                        "FA201": "FA201 AT OR ABOVE 4500",
                        "SIDAN": "SIDAN AT OR ABOVE 4500 SPEED 195",
                        "RF001": "RF001",
                        "RF002": "RF002",
                        "FA109": "FA109 AT OR ABOVE 3000"
                    }
                },
                {
                    "name": "LOMUN",
                    "fixes": {
                        "LOMUN": "LOMUN AT OR ABOVE 4500"
                    }
                }
            ]
        },
        {
            "name": "RNAVY19",
            "fixes": {
                "FA110": "FA110 AT OR ABOVE 3500",
                "DADIK": "DADIK 2700",
                "FA039": "FA039 AT OR ABOVE 1900 RNW 19 TRK 191 UNTIL 4500",
                "LOMUN": "OVERFLY LOMUN AT OR ABOVE 4500 HOLD AT LOMUN LEFT TURN INBOUNDCOURSE 011 ALT 4500 LEGDIST 5 FAF DADIK MAP RNW 19"
            },
            "transitions": [
                {
                    "name": "DOLTO",
                    "fixes": {
                        "DOLTO": "DOLTO AT OR ABOVE 6500",
                        "FA249": "FA249 AT OR ABOVE 6000",
                        "FA169": "FA169 AT OR ABOVE 4500 SPEED 210"
                    }
                },
                {
                    "name": "IRIKI",
                    "fixes": {
                        "IRIKI": "IRIKI AT OR ABOVE 4500"
                    }
                }
            ]
        },
        {
            "name": "RNAVZ19",
            "fixes": {
                "DADIK": "DADIK AT OR ABOVE 2600",
                "TOGLO": "TOGLO 1700 RNW 19",
                "ARTEK": "ARTEK",
                "LOMUN": "OVERFLY LOMUN AT OR ABOVE 4500 HOLD AT LOMUN LEFT TURN INBOUNDCOURSE 011 ALT 4500 LEGDIST 5 FAF TOGLO MAP RNW 19"
            },
            "transitions": [
                {
                    "name": "DOLTO",
                    "fixes": {
                        "DOLTO": "DOLTO AT OR ABOVE 6500",
                        "FA190": "FA190 AT OR ABOVE 4500",
                        "FA134": "FA134 AT OR ABOVE 4500 SPEED 195"
                    }
                },
                {
                    "name": "IRIKI",
                    "fixes": {
                        "IRIKI": "IRIKI AT OR ABOVE 4500"
                    }
                }
            ]
        },
        {
            "name": "VORY01",
            "fixes": {
                "FS01": "FS01 2300",
                "FAG": "FAG 588 RNW 01 TRK 011 UNTIL 860 HDG 344 UNTIL 4500 TURN RIGHT DIRECT FAG FAF FS01 MAP FAG"
            },
            "transitions": [
                {
                    "name": "FAG",
                    "fixes": {
                        "FAG": "FAG AT OR ABOVE 4500 TRK 209 UNTIL 7.0 FROM FAG"
                    }
                }
            ]
        }
    ]
}