{
    "fixes": [
        {
            "name": "AF001",
            "lat": 25.413450316666665,
            "lon": 55.0463604
        },
        {
            "name": "AF002",
            "lat": 25.455594466666668,
            "lon": 55.052990333333334
        },
        {
            "name": "AF003",
            "lat": 25.435731766666667,
            "lon": 55.03260756666667
        },
        {
            "name": "AF004",
            "lat": 25.369959916666666,
            "lon": 55.00527925
        },
        {
            "name": "AF005",
            "lat": 25.320187433333334,
            "lon": 54.95042026666667
        },
        {
            "name": "AF006",
            "lat": 25.295233766666666,
            "lon": 54.87777761666667
        },
        {
            "name": "AF007",
            "lat": 25.299516783333335,
            "lon": 54.80021861666667
        },
        {
            "name": "ALDOS",
            "lat": 26.230555566666666,
            "lon": 54.688888883333334
        },
        {
            "name": "ALG",
            "lat": 25.368055566666666,
            "lon": 54.76166666666667
        },
        {
            "name": "CDE",
            "lat": 25.479444433333335,
            "lon": 54.866111116666666
        },
        {
            "name": "CF23",
            "lat": 25.318752783333334,
            "lon": 54.71388056666667
        },
        {
            "name": "COSTA",
            "lat": 25.511944433333333,
            "lon": 55.23638888333333
        },
        {
            "name": "D057J",
            "lat": 25.337675,
            "lon": 54.72453611666667
        },
        {
            "name": "D271J",
            "lat": 25.497497216666666,
            "lon": 55.02948611666667
        },
        {
            "name": "D315K",
            "lat": 25.365180566666666,
            "lon": 55.02349443333333
        },
        {
            "name": "DAGOL",
            "lat": 25.749333333333333,
            "lon": 54.888333333333335
        },
        {
            "name": "FF05",
            "lat": 25.530661116666668,
            "lon": 54.91320833333333
        },
        {
            "name": "FF23",
            "lat": 25.369455566666666,
            "lon": 54.76186388333333
        },
        {
            "name": "FOZ",
            "lat": 25.583202783333334,
            "lon": 54.50351388333333
        },
        {
            "name": "FS05",
            "lat": 25.573580566666667,
            "lon": 54.94100556666667
        },
        {
            "name": "GILMO",
            "lat": 25.530333333333335,
            "lon": 54.914833333333334
        },
        {
            "name": "ILNIS",
            "lat": 25.551333333333332,
            "lon": 55.049166666666665
        },
        {
            "name": "IROKO",
            "lat": 25.654,
            "lon": 54.918
        },
        {
            "name": "KAMIL",
            "lat": 25.587333333333333,
            "lon": 53.76616666666666
        },
        {
            "name": "KAREN",
            "lat": 25.541133333333335,
            "lon": 54.91498611666667
        },
        {
            "name": "KORDI",
            "lat": 25.2665,
            "lon": 54.66433333333333
        },
        {
            "name": "LORNA",
            "lat": 25.374383333333334,
            "lon": 54.76214721666667
        },
        {
            "name": "MATEL",
            "lat": 25.224333333333334,
            "lon": 53.882333333333335
        },
        {
            "name": "MOLMA",
            "lat": 25.3805,
            "lon": 54.7725
        },
        {
            "name": "NINDA",
            "lat": 25.581,
            "lon": 54.963
        },
        {
            "name": "OQUIN",
            "lat": 25.608725,
            "lon": 54.96921111666666
        },
        {
            "name": "PIROY",
            "lat": 25.504969433333333,
            "lon": 55.06539443333333
        },
        {
            "name": "PULMI",
            "lat": 25.644166666666667,
            "lon": 55.02333333333333
        },
        {
            "name": "ROGER",
            "lat": 25.33,
            "lon": 54.724333333333334
        },
        {
            "name": "SATMO",
            "lat": 25.257,
            "lon": 54.769333333333336
        },
        {
            "name": "TEROI",
            "lat": 25.487069433333332,
            "lon": 55.05038056666667
        },
        {
            "name": "TEROM",
            "lat": 25.3595,
            "lon": 54.638333333333335
        },
        {
            "name": "UDENO",
            "lat": 26.124722216666665,
            "lon": 54.93722221666667
        },
        {
            "name": "VES",
            "lat": 25.46,
            "lon": 54.85
        }
    ],
    "rnws": [
        "RNW 05",
        "RNW 23"
    ],
    "sids": [
        {
            "name": "ALDOS",
            "rnw": "30",
            "fixes": {},
            "sub_fixes": [
                {
                    "rwy": "RNW 05",
                    "fixes": {
                        "RNW 05": "RNW 05 TRK 056 UNTIL 1249 TURN LEFT HDG 152 INTERCEPT RADIAL 182 TO",
                        "ALDOS": "ALDOS ALDOS 2000"
                    }
                },
                {
                    "rwy": "RNW 23",
                    "fixes": {
                        "RNW 23": "RNW 23 TRK 236 UNTIL 1249",
                        "ALDOS": "ALDOS 2000"
                    }
                }
            ],
            "transitions": []
        },
        {
            "name": "COSTA",
            "rnw": "30",
            "fixes": {},
            "sub_fixes": [
                {
                    "rwy": "RNW 05",
                    "fixes": {
                        "RNW 05": "RNW 05 TRK 056 UNTIL 1249 TURN LEFT HDG 249 INTERCEPT RADIAL 279 TO",
                        "COSTA": "COSTA COSTA 2000"
                    }
                },
                {
                    "rwy": "RNW 23",
                    "fixes": {
                        "RNW 23": "RNW 23 TRK 236 UNTIL 1249",
                        "COSTA": "COSTA 2000"
                    }
                }
            ],
            "transitions": []
        },
        {
            "name": "DAGOL",
            "rnw": "30",
            "fixes": {},
            "sub_fixes": [
                {
                    "rwy": "RNW 05",
                    "fixes": {
                        "RNW 05": "RNW 05 TRK 056 UNTIL 1249 TURN LEFT HDG 169 INTERCEPT RADIAL 199 TO",
                        "DAGOL": "DAGOL DAGOL 2000"
                    }
                },
                {
                    "rwy": "RNW 23",
                    "fixes": {
                        "RNW 23": "RNW 23 TRK 236 UNTIL 1249",
                        "DAGOL": "DAGOL 2000"
                    }
                }
            ],
            "transitions": [
                {
                    "name": "UDENO",
                    "fixes": [
                        "UDENO"
                    ]
                }
            ]
        },
        {
            "name": "KAMIL",
            "rnw": "30",
            "fixes": {
                "FOZ": "FOZ",
                "KAMIL": "KAMIL"
            },
            "sub_fixes": [
                {
                    "rwy": "RNW 05",
                    "fixes": {
                        "RNW 05": "RNW 05 TRK 056 UNTIL 1250 TURN RIGHT HDG 156 INTERCEPT RADIAL 126 TO",
                        "FOZ": "FOZ"
                    }
                },
                {
                    "rwy": "RNW 23",
                    "fixes": {
                        "RNW 23": "RNW 23 TRK 236 UNTIL 1250 TURN LEFT HDG 096 INTERCEPT RADIAL 126 TO",
                        "FOZ": "FOZ"
                    }
                }
            ],
            "transitions": []
        },
        {
            "name": "MATEL",
            "rnw": "30",
            "fixes": {
                "FOZ": "FOZ",
                "MATEL": "MATEL"
            },
            "sub_fixes": [
                {
                    "rwy": "RNW 05",
                    "fixes": {
                        "RNW 05": "RNW 05 TRK 056 UNTIL 1250 TURN RIGHT HDG 156 INTERCEPT RADIAL 126 TO",
                        "FOZ": "FOZ"
                    }
                },
                {
                    "rwy": "RNW 23",
                    "fixes": {
                        "RNW 23": "RNW 23 TRK 236 UNTIL 1250 TURN LEFT HDG 096 INTERCEPT RADIAL 126 TO",
                        "FOZ": "FOZ"
                    }
                }
            ],
            "transitions": []
        }
    ],
    "stars": [],
    "approaches": [
        {
            "name": "VORD05",
            "fixes": {
                "OQUIN": "OQUIN AT OR ABOVE 3000",
                "KAREN": "KAREN 2000 RNW 05 HDG 050 UNTIL 3000 TURN LEFT DIRECT",
                "VES": "VES HOLD AT VES RIGHT TURN INBOUNDCOURSE 230 LEGTIME 1 FAF KAREN MAP RNW 05"
            },
            "transitions": [
                {
                    "name": "COSTA",
                    "fixes": {
                        "COSTA": "COSTA",
                        "TEROI": "TEROI"
                    }
                },
                {
                    "name": "D315K",
                    "fixes": {
                        "D315K": "D315K",
                        "AF001": "AF001",
                        "AF002": "AF002",
                        "TEROI": "TEROI AT OR ABOVE 3000"
                    }
                }
            ]
        },
        {
            "name": "VORD23",
            "fixes": {
                "LORNA": "LORNA 2000 RNW 23 HDG 237 UNTIL 3000 TURN RIGHT HDG 102 INTERCEPT RADIAL 057 TO LORNA LORNA HOLD AT LORNA RIGHT TURN INBOUNDCOURSE 237 LEGTIME 1 FAF LORNA MAP RNW 23"
            },
            "transitions": [
                {
                    "name": "PIROY",
                    "fixes": {
                        "PIROY": "PIROY",
                        "D271J": "D271J",
                        "AF003": "AF003",
                        "AF004": "AF004",
                        "AF005": "AF005",
                        "AF006": "AF006",
                        "AF007": "AF007",
                        "D057J": "D057J AT OR ABOVE 3000"
                    }
                }
            ]
        },
        {
            "name": "ILS23",
            "fixes": {
                "CF23": "CF23 AT OR ABOVE 2800",
                "FF23": "FF23 2710 RNW 23 HDG 236 UNTIL 3000 TURN RIGHT DIRECT",
                "ALG": "ALG HOLD AT ALG LEFT TURN INBOUNDCOURSE 236 LEGTIME 1 FAF FF23 MAP RNW 23"
            },
            "transitions": [
                {
                    "name": "ALG",
                    "fixes": {
                        "ALG": "ALG LEFT TURN INBOUNDCOURSE 236 ALT 2800 LEGTIME 1"
                    }
                }
            ]
        },
        {
            "name": "ILSZ23",
            "fixes": {
                "ROGER": "ROGER AT OR ABOVE 2500 SPEED 210",
                "MOLMA": "MOLMA 2420 RNW 23",
                "PULMI": "OVERFLY PULMI AT OR ABOVE 3000 HOLD AT PULMI RIGHT TURN INBOUNDCOURSE 056 LEGTIME 1 FAF MOLMA MAP RNW 23"
            },
            "transitions": [
                {
                    "name": "KORDI",
                    "fixes": {
                        "KORDI": "KORDI AT OR ABOVE 3000 SPEED 230"
                    }
                },
                {
                    "name": "SATMO",
                    "fixes": {
                        "SATMO": "SATMO AT OR ABOVE 3000 SPEED 230"
                    }
                },
                {
                    "name": "TEROM",
                    "fixes": {
                        "TEROM": "TEROM AT OR ABOVE 3000 SPEED 230"
                    }
                }
            ]
        },
        {
            "name": "NDB05",
            "fixes": {
                "FF05": "FF05 2100",
                "CDE": "CDE 1202 RNW 05 HDG 054 UNTIL 3000 TURN LEFT DIRECT CDE HOLD AT CDE RIGHT TURN INBOUNDCOURSE 269 LEGTIME 1 FAF FF05 MAP CDE"
            },
            "transitions": [
                {
                    "name": "CDE",
                    "fixes": {
                        "CDE": "CDE AT OR ABOVE 3000 TRK 269 UNTIL 5.3 FROM CDE"
                    }
                }
            ]
        },
        {
            "name": "NDB23",
            "fixes": {
                "ALG": "ALG 2000 RNW 23 HDG 233 UNTIL 3000 TURN RIGHT DIRECT ALG HOLD AT ALG LEFT TURN INBOUNDCOURSE 233 LEGTIME 1 FAF ALG MAP RNW 23"
            },
            "transitions": [
                {
                    "name": "ALG",
                    "fixes": {
                        "ALG": "ALG LEFT TURN INBOUNDCOURSE 233 ALT 2000 LEGTIME 1"
                    }
                }
            ]
        },
        {
            "name": "RNAVZ05",
            "fixes": {
                "NINDA": "NINDA AT OR ABOVE 2500 SPEED 210",
                "GILMO": "GILMO 2490 RNW 05 TRK 056 UNTIL 3000",
                "KORDI": "OVERFLY KORDI HOLD AT KORDI RIGHT TURN INBOUNDCOURSE 236 LEGTIME 1 FAF GILMO MAP RNW 05"
            },
            "transitions": [
                {
                    "name": "ILNIS",
                    "fixes": {
                        "ILNIS": "ILNIS AT OR ABOVE 3000 SPEED 230"
                    }
                },
                {
                    "name": "IROKO",
                    "fixes": {
                        "IROKO": "IROKO AT OR ABOVE 3000 SPEED 230"
                    }
                },
                {
                    "name": "PULMI",
                    "fixes": {
                        "PULMI": "PULMI AT OR ABOVE 3000 SPEED 230"
                    }
                }
            ]
        },
        {
            "name": "RNAVZ23",
            "fixes": {
                "ROGER": "ROGER AT OR ABOVE 2500 SPEED 210",
                "MOLMA": "MOLMA 2420 RNW 23 TRK 236 UNTIL 3000",
                "PULMI": "OVERFLY PULMI HOLD AT PULMI RIGHT TURN INBOUNDCOURSE 056 LEGTIME 1 FAF MOLMA MAP RNW 23"
            },
            "transitions": [
                {
                    "name": "KORDI",
                    "fixes": {
                        "KORDI": "KORDI AT OR ABOVE 3000 SPEED 230"
                    }
                },
                {
                    "name": "SATMO",
                    "fixes": {
                        "SATMO": "SATMO AT OR ABOVE 3000 SPEED 230"
                    }
                },
                {
                    "name": "TEROM",
                    "fixes": {
                        "TEROM": "TEROM AT OR ABOVE 3000 SPEED 230"
                    }
                }
            ]
        },
        {
            "name": "VOR05",
            "fixes": {
                "FS05": "FS05 2000",
                "VES": "VES 1290 RNW 05 TRK 050 UNTIL 3000 TURN RIGHT DIRECT VES HOLD AT VES LEFT TURN INBOUNDCOURSE 265 LEGTIME 1 FAF FS05 MAP VES"
            },
            "transitions": [
                {
                    "name": "VES",
                    "fixes": {
                        "VES": "VES AT OR ABOVE 3000 TRK 265 UNTIL 8.4 FROM VES"
                    }
                }
            ]
        }
    ]
}