{
    "fixes": [
        {
            "name": "39DME",
            "lat": 10.845433333333334,
            "lon": 74.81798333333333
        },
        {
            "name": "AF001",
            "lat": 10.973093816666667,
            "lon": 74.76705036666667
        },
        {
            "name": "AF002",
            "lat": 10.987936733333333,
            "lon": 74.80560366666667
        },
        {
            "name": "AF003",
            "lat": 10.99209415,
            "lon": 74.82408233333334
        },
        {
            "name": "AF004",
            "lat": 10.985009516666667,
            "lon": 74.92469823333333
        },
        {
            "name": "AF005",
            "lat": 10.931386066666667,
            "lon": 75.00949376666667
        },
        {
            "name": "AF006",
            "lat": 10.844389416666667,
            "lon": 75.05766321666667
        },
        {
            "name": "AF007",
            "lat": 10.745364783333333,
            "lon": 75.05742226666666
        },
        {
            "name": "AF008",
            "lat": 10.891872883333333,
            "lon": 74.72198818333334
        },
        {
            "name": "AF009",
            "lat": 10.85160185,
            "lon": 74.70057573333334
        },
        {
            "name": "AF010",
            "lat": 10.807148016666666,
            "lon": 74.69103595
        },
        {
            "name": "AF011",
            "lat": 10.761815466666667,
            "lon": 74.69407253333333
        },
        {
            "name": "AF012",
            "lat": 10.718972116666666,
            "lon": 74.70945441666667
        },
        {
            "name": "AF013",
            "lat": 10.668398233333333,
            "lon": 74.7502828
        },
        {
            "name": "AF014",
            "lat": 10.656712233333334,
            "lon": 74.76601678333333
        },
        {
            "name": "AF015",
            "lat": 10.968640483333333,
            "lon": 74.75872516666666
        },
        {
            "name": "AF016",
            "lat": 10.98211015,
            "lon": 74.78759933333333
        },
        {
            "name": "AF017",
            "lat": 10.8892873,
            "lon": 74.72015373333333
        },
        {
            "name": "AF018",
            "lat": 10.8456307,
            "lon": 74.69852338333334
        },
        {
            "name": "AF019",
            "lat": 10.797704033333334,
            "lon": 74.69062571666667
        },
        {
            "name": "AF020",
            "lat": 10.909838333333333,
            "lon": 74.73702101666666
        },
        {
            "name": "AF021",
            "lat": 10.892661533333333,
            "lon": 74.72256261666666
        },
        {
            "name": "AF022",
            "lat": 10.661748016666667,
            "lon": 74.75876581666667
        },
        {
            "name": "AF023",
            "lat": 10.646026516666666,
            "lon": 74.78478573333334
        },
        {
            "name": "AF024",
            "lat": 10.979504716666666,
            "lon": 74.78100201666666
        },
        {
            "name": "AF025",
            "lat": 10.993828283333333,
            "lon": 74.83580126666666
        },
        {
            "name": "AF026",
            "lat": 10.992758866666666,
            "lon": 74.89250058333333
        },
        {
            "name": "AF027",
            "lat": 10.975556266666667,
            "lon": 74.77209033333334
        },
        {
            "name": "AF028",
            "lat": 10.99060915,
            "lon": 74.81652836666666
        },
        {
            "name": "AF029",
            "lat": 10.995255766666666,
            "lon": 74.86330021666667
        },
        {
            "name": "AF030",
            "lat": 10.900362483333334,
            "lon": 74.72856026666666
        },
        {
            "name": "AF031",
            "lat": 10.871165216666666,
            "lon": 74.7091977
        },
        {
            "name": "AF032",
            "lat": 10.652931133333333,
            "lon": 74.77204643333333
        },
        {
            "name": "AF033",
            "lat": 10.634747366666666,
            "lon": 74.81467456666667
        },
        {
            "name": "AF034",
            "lat": 10.628611683333334,
            "lon": 74.86072173333334
        },
        {
            "name": "AF035",
            "lat": 10.649286083333333,
            "lon": 74.7784488
        },
        {
            "name": "AF036",
            "lat": 10.631453666666667,
            "lon": 74.82908378333333
        },
        {
            "name": "AF037",
            "lat": 10.630093666666667,
            "lon": 74.88285203333334
        },
        {
            "name": "AF038",
            "lat": 10.893054633333334,
            "lon": 74.72285158333334
        },
        {
            "name": "AF039",
            "lat": 10.854331133333334,
            "lon": 74.70160023333334
        },
        {
            "name": "AF040",
            "lat": 10.811495783333333,
            "lon": 74.69140906666667
        },
        {
            "name": "AF041",
            "lat": 10.7675337,
            "lon": 74.69298346666666
        },
        {
            "name": "AF042",
            "lat": 10.72550715,
            "lon": 74.70620873333333
        },
        {
            "name": "AF043",
            "lat": 10.9831287,
            "lon": 74.79037486666667
        },
        {
            "name": "AF044",
            "lat": 10.995231416666666,
            "lon": 74.85589248333334
        },
        {
            "name": "AF045",
            "lat": 10.985909783333334,
            "lon": 74.92188058333333
        },
        {
            "name": "AF046",
            "lat": 10.956163866666667,
            "lon": 74.9812602
        },
        {
            "name": "AF047",
            "lat": 10.9091842,
            "lon": 75.02766518333334
        },
        {
            "name": "AF048",
            "lat": 10.6597454,
            "lon": 74.76155368333333
        },
        {
            "name": "AF049",
            "lat": 10.643131083333333,
            "lon": 74.79103151666666
        },
        {
            "name": "AF050",
            "lat": 10.6326228,
            "lon": 74.82328548333334
        },
        {
            "name": "AF051",
            "lat": 10.898088366666666,
            "lon": 74.72671318333333
        },
        {
            "name": "AF052",
            "lat": 10.865939683333334,
            "lon": 74.70659428333333
        },
        {
            "name": "AF053",
            "lat": 10.830169966666666,
            "lon": 74.69435863333334
        },
        {
            "name": "ASIVI",
            "lat": 11.091522216666666,
            "lon": 74.73940556666666
        },
        {
            "name": "ATAKI",
            "lat": 11.037222216666667,
            "lon": 74.86
        },
        {
            "name": "BAQ",
            "lat": 10.795277783333333,
            "lon": 74.86027778333333
        },
        {
            "name": "BAQ40",
            "lat": 11.110338883333334,
            "lon": 74.26221111666666
        },
        {
            "name": "BQ402",
            "lat": 10.844761116666668,
            "lon": 74.81929721666667
        },
        {
            "name": "BQ801",
            "lat": 10.94875,
            "lon": 74.45980556666666
        },
        {
            "name": "BQ900",
            "lat": 10.950555566666667,
            "lon": 74.72888888333334
        },
        {
            "name": "BQ901",
            "lat": 10.828888883333333,
            "lon": 74.83277778333333
        },
        {
            "name": "CF05",
            "lat": 10.731141666666666,
            "lon": 74.91469166666667
        },
        {
            "name": "CTG",
            "lat": 10.208333333333334,
            "lon": 75.50611111666667
        },
        {
            "name": "CZU",
            "lat": 9.335833333333333,
            "lon": 75.2825
        },
        {
            "name": "D012L",
            "lat": 10.995702783333334,
            "lon": 74.84609166666667
        },
        {
            "name": "D019L",
            "lat": 10.992086116666666,
            "lon": 74.819375
        },
        {
            "name": "D047L",
            "lat": 10.951391666666666,
            "lon": 74.73232221666666
        },
        {
            "name": "D069J",
            "lat": 10.874152783333333,
            "lon": 74.71087778333333
        },
        {
            "name": "D082J",
            "lat": 10.839491666666667,
            "lon": 74.69693056666667
        },
        {
            "name": "D098J",
            "lat": 10.792016666666667,
            "lon": 74.69096111666667
        },
        {
            "name": "D113J",
            "lat": 10.749747216666666,
            "lon": 74.69732221666666
        },
        {
            "name": "D137J",
            "lat": 10.688411116666666,
            "lon": 74.72993333333334
        },
        {
            "name": "D141J",
            "lat": 10.681063883333334,
            "lon": 74.73646943333334
        },
        {
            "name": "D160J",
            "lat": 10.646027783333333,
            "lon": 74.78354166666666
        },
        {
            "name": "D171M",
            "lat": 10.5857,
            "lon": 74.80085
        },
        {
            "name": "D172J",
            "lat": 10.634063883333333,
            "lon": 74.81455556666667
        },
        {
            "name": "D187J",
            "lat": 10.62785,
            "lon": 74.8588
        },
        {
            "name": "D203J",
            "lat": 10.634361116666666,
            "lon": 74.90705
        },
        {
            "name": "D209G",
            "lat": 10.685855566666667,
            "lon": 74.90274443333334
        },
        {
            "name": "D210F",
            "lat": 10.702130566666666,
            "lon": 74.89832778333333
        },
        {
            "name": "D213J",
            "lat": 10.644433333333334,
            "lon": 74.93375278333333
        },
        {
            "name": "D235L",
            "lat": 10.659494433333334,
            "lon": 75.01003056666667
        },
        {
            "name": "D293L",
            "lat": 10.849166666666667,
            "lon": 75.05606388333334
        },
        {
            "name": "D342L",
            "lat": 10.977363883333334,
            "lon": 74.94619443333333
        },
        {
            "name": "D353L",
            "lat": 10.989894433333333,
            "lon": 74.910775
        },
        {
            "name": "DARNI",
            "lat": 10.154444433333333,
            "lon": 74.53138888333334
        },
        {
            "name": "EDRES",
            "lat": 11.620833333333334,
            "lon": 74.68833333333333
        },
        {
            "name": "EGOKU",
            "lat": 10.652222216666667,
            "lon": 74.34944443333333
        },
        {
            "name": "ENTIP",
            "lat": 11.152777783333333,
            "lon": 74.18138888333333
        },
        {
            "name": "EROLA",
            "lat": 10.741238883333333,
            "lon": 74.90793611666666
        },
        {
            "name": "EVPIP",
            "lat": 11.939444433333334,
            "lon": 74.69416666666666
        },
        {
            "name": "GIKTI",
            "lat": 10.8062,
            "lon": 74.98543611666666
        },
        {
            "name": "ISOTO",
            "lat": 9.926388883333333,
            "lon": 74.61444443333333
        },
        {
            "name": "KAKUD",
            "lat": 11.673055566666667,
            "lon": 75.27555556666667
        },
        {
            "name": "KOSVA",
            "lat": 11.15925,
            "lon": 74.81840278333334
        },
        {
            "name": "LOKOV",
            "lat": 8.046111116666667,
            "lon": 73.88694443333333
        },
        {
            "name": "LOLUD",
            "lat": 9.96455,
            "lon": 74.94345833333334
        },
        {
            "name": "MA032",
            "lat": 10.874811116666667,
            "lon": 74.82445
        },
        {
            "name": "MA05",
            "lat": 10.859402783333334,
            "lon": 74.80583888333334
        },
        {
            "name": "MA063",
            "lat": 10.844247216666666,
            "lon": 74.78951666666667
        },
        {
            "name": "MIKID",
            "lat": 11.026511116666667,
            "lon": 74.66354443333333
        },
        {
            "name": "ML05",
            "lat": 10.866008333333333,
            "lon": 74.80062778333334
        },
        {
            "name": "MORGI",
            "lat": 11.656111116666667,
            "lon": 75.08416666666666
        },
        {
            "name": "NINLO",
            "lat": 10.909175,
            "lon": 74.65449721666667
        },
        {
            "name": "NUVUP",
            "lat": 10.805119433333333,
            "lon": 74.85321388333334
        },
        {
            "name": "OPSUR",
            "lat": 11.112647216666666,
            "lon": 74.82880278333333
        },
        {
            "name": "SAVRI",
            "lat": 10.963183333333333,
            "lon": 74.71781666666666
        },
        {
            "name": "SD23",
            "lat": 10.931677783333333,
            "lon": 74.74481388333334
        },
        {
            "name": "STA",
            "lat": 10.9625,
            "lon": 74.24055556666667
        },
        {
            "name": "TIGRO",
            "lat": 11.563888883333334,
            "lon": 74.06333333333333
        },
        {
            "name": "UGALU",
            "lat": 7.6825,
            "lon": 74.74944443333334
        },
        {
            "name": "UGREB",
            "lat": 9.736111116666667,
            "lon": 75.16722221666667
        },
        {
            "name": "UGSOL",
            "lat": 9.721944433333332,
            "lon": 75.38138888333333
        },
        {
            "name": "UKEKI",
            "lat": 11.102336116666667,
            "lon": 74.59856666666667
        },
        {
            "name": "UMKIR",
            "lat": 10.439722216666667,
            "lon": 74.42722221666666
        },
        {
            "name": "VALOP",
            "lat": 10.676252783333334,
            "lon": 74.830475
        },
        {
            "name": "VARON",
            "lat": 11.0375,
            "lon": 75.74444443333333
        },
        {
            "name": "VOVLU",
            "lat": 9.499166666666667,
            "lon": 74.84888888333333
        },
        {
            "name": "VUBON",
            "lat": 10.961502783333334,
            "lon": 74.58768333333333
        },
        {
            "name": "VUMBA",
            "lat": 10.784166666666666,
            "lon": 74.30138888333333
        }
    ],
    "rnws": [
        "RNW 05",
        "RNW 23"
    ],
    "sids": [
        {
            "name": "BAQ1F",
            "rnw": "05",
            "fixes": {
                "D047L": "D047L AT OR ABOVE 1400",
                "AF001": "AF001",
                "AF002": "AF002",
                "D012L": "D012L AT OR ABOVE 3900",
                "BAQ": "BAQ AT OR ABOVE 8000"
            },
            "sub_fixes": [],
            "transitions": []
        },
        {
            "name": "BAQ1H",
            "rnw": "05",
            "fixes": {},
            "sub_fixes": [
                {
                    "rwy": "RNW 05",
                    "fixes": {
                        "RNW 05": "RNW 05",
                        "BQ900": "BQ900 AT OR ABOVE 1500 HDG 049 VECTORS"
                    }
                },
                {
                    "rwy": "RNW 23",
                    "fixes": {
                        "RNW 23": "RNW 23",
                        "BQ901": "BQ901 AT OR ABOVE 1500 HDG 229 VECTORS"
                    }
                }
            ],
            "transitions": []
        },
        {
            "name": "CTG2E",
            "rnw": "05",
            "fixes": {
                "D047L": "D047L",
                "AF003": "AF003",
                "AF004": "AF004",
                "AF005": "AF005",
                "AF006": "AF006",
                "AF007": "AF007",
                "D235L": "D235L",
                "CTG": "CTG"
            },
            "sub_fixes": [],
            "transitions": []
        },
        {
            "name": "DARN2B",
            "rnw": "05",
            "fixes": {
                "AF008": "AF008",
                "AF009": "AF009",
                "AF010": "AF010",
                "AF011": "AF011",
                "AF012": "AF012",
                "D141J": "D141J AT OR ABOVE 6000",
                "AF013": "AF013",
                "AF014": "AF014",
                "D160J": "D160J",
                "DARNI": "DARNI"
            },
            "sub_fixes": [],
            "transitions": []
        },
        {
            "name": "EDRE2A",
            "rnw": "05",
            "fixes": {
                "D047L": "D047L",
                "AF015": "AF015",
                "AF016": "AF016",
                "D019L": "D019L",
                "EDRES": "EDRES"
            },
            "sub_fixes": [],
            "transitions": []
        },
        {
            "name": "EGOK1B",
            "rnw": "05",
            "fixes": {
                "AF017": "AF017",
                "AF018": "AF018",
                "AF019": "AF019",
                "D113J": "D113J",
                "EGOKU": "EGOKU"
            },
            "sub_fixes": [],
            "transitions": []
        },
        {
            "name": "ENTI1C",
            "rnw": "05",
            "fixes": {
                "AF020": "AF020",
                "AF021": "AF021",
                "D069J": "D069J",
                "ENTIP": "ENTIP"
            },
            "sub_fixes": [],
            "transitions": []
        },
        {
            "name": "EVPI1A",
            "rnw": "05",
            "fixes": {
                "EVPIP": "EVPIP AT OR ABOVE 10000"
            },
            "sub_fixes": [],
            "transitions": []
        },
        {
            "name": "ISOT2B",
            "rnw": "05",
            "fixes": {
                "AF008": "AF008",
                "AF009": "AF009",
                "AF010": "AF010",
                "AF011": "AF011",
                "AF012": "AF012",
                "D141J": "D141J AT OR ABOVE 6000",
                "AF022": "AF022",
                "AF023": "AF023",
                "D172J": "D172J",
                "ISOTO": "ISOTO"
            },
            "sub_fixes": [],
            "transitions": []
        },
        {
            "name": "KAKU1A",
            "rnw": "05",
            "fixes": {
                "D047L": "D047L",
                "AF024": "AF024",
                "AF025": "AF025",
                "AF026": "AF026",
                "D342L": "D342L",
                "KAKUD": "KAKUD"
            },
            "sub_fixes": [],
            "transitions": []
        },
        {
            "name": "MORG2C",
            "rnw": "05",
            "fixes": {
                "D047L": "D047L",
                "AF027": "AF027",
                "AF028": "AF028",
                "AF029": "AF029",
                "D353L": "D353L",
                "MORGI": "MORGI"
            },
            "sub_fixes": [],
            "transitions": []
        },
        {
            "name": "NINL1A",
            "rnw": "05",
            "fixes": {
                "SAVRI": "SAVRI AT OR ABOVE 1700",
                "NINLO": "NINLO AT OR ABOVE 3200 SPEED 205"
            },
            "sub_fixes": [],
            "transitions": [
                {
                    "name": "LOKOV",
                    "fixes": [
                        "LOKOV"
                    ]
                },
                {
                    "name": "UGALU",
                    "fixes": [
                        "UGALU"
                    ]
                }
            ]
        },
        {
            "name": "STA3C",
            "rnw": "05",
            "fixes": {
                "AF030": "AF030",
                "AF031": "AF031",
                "D082J": "D082J",
                "STA": "STA"
            },
            "sub_fixes": [],
            "transitions": []
        },
        {
            "name": "TIGR1A",
            "rnw": "05",
            "fixes": {
                "TIGRO": "TIGRO"
            },
            "sub_fixes": [],
            "transitions": []
        },
        {
            "name": "UGRE1A",
            "rnw": "05",
            "fixes": {
                "AF008": "AF008",
                "AF009": "AF009",
                "AF010": "AF010",
                "AF011": "AF011",
                "AF012": "AF012",
                "D141J": "D141J AT OR ABOVE 6000",
                "AF032": "AF032",
                "AF033": "AF033",
                "AF034": "AF034",
                "D203J": "D203J",
                "UGREB": "UGREB"
            },
            "sub_fixes": [],
            "transitions": []
        },
        {
            "name": "UGSO1A",
            "rnw": "05",
            "fixes": {
                "AF008": "AF008",
                "AF009": "AF009",
                "AF010": "AF010",
                "AF011": "AF011",
                "AF012": "AF012",
                "D141J": "D141J AT OR ABOVE 6000",
                "AF035": "AF035",
                "AF036": "AF036",
                "AF037": "AF037",
                "D213J": "D213J",
                "UGSOL": "UGSOL"
            },
            "sub_fixes": [],
            "transitions": []
        },
        {
            "name": "UMKI1B",
            "rnw": "05",
            "fixes": {
                "AF038": "AF038",
                "AF039": "AF039",
                "AF040": "AF040",
                "AF041": "AF041",
                "AF042": "AF042",
                "D137J": "D137J",
                "UMKIR": "UMKIR"
            },
            "sub_fixes": [],
            "transitions": []
        },
        {
            "name": "VARO2D",
            "rnw": "05",
            "fixes": {
                "D047L": "D047L",
                "AF043": "AF043",
                "AF044": "AF044",
                "AF045": "AF045",
                "AF046": "AF046",
                "AF047": "AF047",
                "D293L": "D293L",
                "VARON": "VARON"
            },
            "sub_fixes": [],
            "transitions": []
        },
        {
            "name": "VOVL1B",
            "rnw": "05",
            "fixes": {
                "AF008": "AF008",
                "AF009": "AF009",
                "AF010": "AF010",
                "AF011": "AF011",
                "AF012": "AF012",
                "D141J": "D141J AT OR ABOVE 6000",
                "AF048": "AF048",
                "AF049": "AF049",
                "AF050": "AF050",
                "D187J": "D187J",
                "VOVLU": "VOVLU"
            },
            "sub_fixes": [],
            "transitions": []
        },
        {
            "name": "VUMB1B",
            "rnw": "05",
            "fixes": {
                "AF051": "AF051",
                "AF052": "AF052",
                "AF053": "AF053",
                "D098J": "D098J",
                "VUMBA": "VUMBA"
            },
            "sub_fixes": [],
            "transitions": []
        }
    ],
    "stars": [
        {
            "name": "CTG1A",
            "runway": "RNW 05",
            "fixes": {
                "CTG": "CTG AT OR ABOVE 5000",
                "EROLA": "EROLA AT OR ABOVE 3000"
            }
        },
        {
            "name": "CZU1B",
            "runway": "RNW 05",
            "fixes": {
                "CZU": "CZU AT OR ABOVE 5000",
                "EROLA": "EROLA AT OR ABOVE 3000"
            }
        },
        {
            "name": "DARN1A",
            "runway": "RNW 05",
            "fixes": {
                "DARNI": "DARNI AT OR ABOVE 5000",
                "EROLA": "EROLA AT OR ABOVE 3000"
            }
        },
        {
            "name": "EDRE1B",
            "runway": "RNW 05",
            "fixes": {
                "EDRES": "EDRES AT OR ABOVE 6000",
                "GIKTI": "GIKTI AT OR ABOVE 4000"
            }
        },
        {
            "name": "EGOK1A",
            "runway": "RNW 05",
            "fixes": {
                "EGOKU": "EGOKU AT OR ABOVE 7000",
                "VALOP": "VALOP AT OR ABOVE 4000"
            }
        },
        {
            "name": "ENTI2B",
            "runway": "RNW 05",
            "fixes": {
                "ENTIP": "ENTIP AT OR ABOVE 11000",
                "BQ801": "BQ801 AT OR ABOVE 8000",
                "VALOP": "VALOP AT OR ABOVE 4000"
            }
        },
        {
            "name": "ENTI3A",
            "runway": "RNW 05 RNW 23",
            "fixes": {
                "ENTIP": "ENTIP",
                "BAQ40": "BAQ40 AT OR ABOVE 10000",
                "BAQ": "BAQ TRK 255 UNTIL 5.0 FROM BAQ TURN LEFT DIRECT BAQ",
                "CF05": "CF05 AT OR ABOVE 3100 SPEED 185"
            }
        },
        {
            "name": "ISOT4A",
            "runway": "RNW 05 RNW 23",
            "fixes": {
                "ISOTO": "ISOTO",
                "D171M": "D171M AT OR ABOVE 5000",
                "D209G": "OVERFLY D209G AT OR ABOVE 4000",
                "CF05": "CF05 AT OR ABOVE 3100",
                "BAQ": "BAQ 2260"
            }
        },
        {
            "name": "KAKU1B",
            "runway": "RNW 05 RNW 23",
            "fixes": {
                "KAKUD": "KAKUD",
                "BAQ": "BAQ AT OR ABOVE 4000 TRK 205 UNTIL 5.0 FROM BAQ TURN RIGHT DIRECT BAQ 2260",
                "CF05": "CF05 AT OR ABOVE 3100 SPEED 185"
            }
        },
        {
            "name": "KAKU1C",
            "runway": "RNW 05",
            "fixes": {
                "KAKUD": "KAKUD AT OR ABOVE 6000",
                "GIKTI": "GIKTI AT OR ABOVE 4000"
            }
        },
        {
            "name": "LOLU1A",
            "runway": "RNW 05",
            "fixes": {
                "LOLUD": "LOLUD AT OR ABOVE 5000",
                "EROLA": "EROLA AT OR ABOVE 3000"
            }
        },
        {
            "name": "MORG1B",
            "runway": "RNW 05",
            "fixes": {
                "MORGI": "MORGI AT OR ABOVE 6000",
                "GIKTI": "GIKTI AT OR ABOVE 4000"
            }
        },
        {
            "name": "MORG3A",
            "runway": "RNW 05 RNW 23",
            "fixes": {
                "MORGI": "MORGI",
                "BAQ": "BAQ AT OR ABOVE 4000 TRK 205 UNTIL 5.0 FROM BAQ TURN RIGHT DIRECT BAQ 2260",
                "CF05": "CF05 AT OR ABOVE 3100 SPEED 185"
            }
        },
        {
            "name": "STA2B",
            "runway": "RNW 05",
            "fixes": {
                "STA": "STA AT OR ABOVE 5000",
                "VALOP": "VALOP AT OR ABOVE 4000"
            }
        },
        {
            "name": "STA5A",
            "runway": "RNW 05 RNW 23",
            "fixes": {
                "STA": "STA",
                "BAQ": "BAQ TRK 255 UNTIL 5.0 FROM BAQ TURN LEFT DIRECT BAQ",
                "CF05": "CF05 AT OR ABOVE 3100 SPEED 185"
            }
        },
        {
            "name": "UGSO1D",
            "runway": "RNW 05",
            "fixes": {
                "UGSOL": "UGSOL AT OR ABOVE 5000",
                "EROLA": "EROLA AT OR ABOVE 3000"
            }
        },
        {
            "name": "UMKI1A",
            "runway": "RNW 05",
            "fixes": {
                "UMKIR": "UMKIR AT OR ABOVE 8000",
                "VALOP": "VALOP AT OR ABOVE 4000"
            }
        },
        {
            "name": "VARO1C",
            "runway": "RNW 05",
            "fixes": {
                "VARON": "VARON AT OR ABOVE 6000",
                "EROLA": "EROLA AT OR ABOVE 3000"
            }
        },
        {
            "name": "VOVL2A",
            "runway": "RNW 05 RNW 23",
            "fixes": {
                "VOVLU": "VOVLU",
                "D187J": "D187J AT OR ABOVE 4000",
                "D210F": "OVERFLY D210F AT OR ABOVE 3100",
                "CF05": "CF05 AT OR ABOVE 3100",
                "BAQ": "BAQ 2260"
            }
        },
        {
            "name": "VUMB1A",
            "runway": "RNW 05",
            "fixes": {
                "VUMBA": "VUMBA AT OR ABOVE 8000",
                "VALOP": "VALOP AT OR ABOVE 4000"
            }
        }
    ],
    "approaches": [
        {
            "name": "VORD05",
            "fixes": {
                "CF05": "CF05 AT OR ABOVE 3100",
                "BAQ": "BAQ 2260",
                "39DME": "39DME AT OR ABOVE 1000",
                "MA05": "MA05 648 RNW 05 HDG 048 UNTIL 1200 TURN LEFT DIRECT",
                "ATAKI": "ATAKI 3000 SPEED 185 HOLD AT ATAKI RIGHT TURN INBOUNDCOURSE 188 ALT 3000 SPEED 230 LEGTIME 1 FAF BAQ MAP MA05"
            },
            "transitions": [
                {
                    "name": "BAQ",
                    "fixes": {
                        "BAQ": "BAQ RIGHT TURN INBOUNDCOURSE 048 ALT 3100 LEGDIST 5"
                    }
                }
            ]
        },
        {
            "name": "ILSY05",
            "fixes": {
                "EROLA": "EROLA AT OR ABOVE 3000",
                "NUVUP": "NUVUP 2000 RNW 05 TRK 048 UNTIL 1200",
                "OPSUR": "OVERFLY OPSUR 4000 SPEED 185 HOLD AT OPSUR RIGHT TURN INBOUNDCOURSE 214 ALT 4000 SPEED 230 LEGTIME 1 FAF NUVUP MAP RNW 05"
            },
            "transitions": [
                {
                    "name": "EROLA",
                    "fixes": {
                        "EROLA": "EROLA RIGHT TURN INBOUNDCOURSE 048 ALT 3000 SPEED 230 LEGTIME 1"
                    }
                },
                {
                    "name": "GIKTI",
                    "fixes": {
                        "GIKTI": "GIKTI AT OR ABOVE 4000"
                    }
                },
                {
                    "name": "VALOP",
                    "fixes": {
                        "VALOP": "VALOP AT OR ABOVE 4000"
                    }
                }
            ]
        },
        {
            "name": "ILSZ05",
            "fixes": {
                "CF05": "CF05 AT OR ABOVE 3100",
                "BAQ": "BAQ 2260 RNW 05 HDG 048 UNTIL 1200",
                "ATAKI": "ATAKI 3000 SPEED 185 HOLD AT ATAKI RIGHT TURN INBOUNDCOURSE 188 ALT 3000 SPEED 230 LEGTIME 1 FAF BAQ MAP RNW 05"
            },
            "transitions": [
                {
                    "name": "BAQ",
                    "fixes": {
                        "BAQ": "BAQ RIGHT TURN INBOUNDCOURSE 048 ALT 3100 LEGDIST 5"
                    }
                }
            ]
        },
        {
            "name": "LOC05",
            "fixes": {
                "CF05": "CF05 AT OR ABOVE 3100",
                "BAQ": "BAQ 2260",
                "39DME": "39DME AT OR ABOVE 1000",
                "ML05": "ML05 482 RNW 05 HDG 048 UNTIL 1200 TURN LEFT DIRECT",
                "ATAKI": "ATAKI 3000 SPEED 185 HOLD AT ATAKI RIGHT TURN INBOUNDCOURSE 188 ALT 3000 SPEED 230 LEGTIME 1 FAF BAQ MAP ML05"
            },
            "transitions": [
                {
                    "name": "BAQ",
                    "fixes": {
                        "BAQ": "BAQ RIGHT TURN INBOUNDCOURSE 048 ALT 3100 LEGDIST 5"
                    }
                }
            ]
        },
        {
            "name": "RNAV05",
            "fixes": {
                "EROLA": "EROLA AT OR ABOVE 3000",
                "NUVUP": "NUVUP 2000",
                "BQ402": "BQ402 AT OR ABOVE 1000 RNW 05 TRK 048 UNTIL 1200",
                "OPSUR": "OVERFLY OPSUR 4000 SPEED 185 HOLD AT OPSUR RIGHT TURN INBOUNDCOURSE 214 ALT 4000 SPEED 230 LEGTIME 1 FAF NUVUP MAP RNW 05"
            },
            "transitions": [
                {
                    "name": "EROLA",
                    "fixes": {
                        "EROLA": "EROLA RIGHT TURN INBOUNDCOURSE 048 ALT 3000 SPEED 230 LEGTIME 1"
                    }
                },
                {
                    "name": "GIKTI",
                    "fixes": {
                        "GIKTI": "GIKTI AT OR ABOVE 4000"
                    }
                },
                {
                    "name": "VALOP",
                    "fixes": {
                        "VALOP": "VALOP AT OR ABOVE 4000"
                    }
                }
            ]
        },
        {
            "name": "RNAV23",
            "fixes": {
                "MIKID": "MIKID AT OR ABOVE 2400",
                "SAVRI": "SAVRI 1690",
                "SD23": "SD23 AT OR ABOVE 900 RNW 23 TRK 228 UNTIL 660 TURN RIGHT DIRECT",
                "KOSVA": "OVERFLY KOSVA AT OR ABOVE 5000 HOLD AT KOSVA RIGHT TURN INBOUNDCOURSE 139 ALT 5000 SPEED 230 LEGTIME 1 FAF SAVRI MAP RNW 23"
            },
            "transitions": [
                {
                    "name": "ASIVI",
                    "fixes": {
                        "ASIVI": "ASIVI AT OR ABOVE 4000"
                    }
                },
                {
                    "name": "UKEKI",
                    "fixes": {
                        "UKEKI": "UKEKI AT OR ABOVE 4000"
                    }
                },
                {
                    "name": "VUBON",
                    "fixes": {
                        "VUBON": "VUBON AT OR ABOVE 4000"
                    }
                }
            ]
        },
        {
            "name": "VORA05",
            "fixes": {
                "BAQ": "BAQ 2500",
                "MA032": "MA032 1460 RNW 05 HDG 338 INTERCEPT RADIAL 008 TO",
                "ATAKI": "ATAKI SPEED 185 ATAKI 3000 HOLD AT ATAKI RIGHT TURN INBOUNDCOURSE 188 ALT 3000 SPEED 230 LEGTIME 1 FAF BAQ MAP MA032"
            },
            "transitions": [
                {
                    "name": "BAQ",
                    "fixes": {
                        "BAQ": "BAQ RIGHT TURN INBOUNDCOURSE 048 ALT 3100 LEGDIST 5"
                    }
                }
            ]
        },
        {
            "name": "VORB05",
            "fixes": {
                "BAQ": "BAQ 2500 BAQ SPEED 185 BAQ AT OR ABOVE 5000 HOLD AT BAQ RIGHT TURN INBOUNDCOURSE 048 ALT 5000 SPEED 230 LEGTIME 1 FAF BAQ MAP MA063",
                "MA063": "MA063 1040 RNW 05 HDG 063 UNTIL 4000 TURN RIGHT HDG 227 INTERCEPT RADIAL 257 TO"
            },
            "transitions": [
                {
                    "name": "BAQ",
                    "fixes": {
                        "BAQ": "BAQ RIGHT TURN INBOUNDCOURSE 048 ALT 3100 LEGDIST 5"
                    }
                }
            ]
        },
        {
            "name": "VORA23",
            "fixes": {
                "BAQ": "BAQ 2500",
                "MA032": "MA032 1460 RNW 23 HDG 338 INTERCEPT RADIAL 008 TO",
                "ATAKI": "ATAKI SPEED 185 ATAKI 3000 HOLD AT ATAKI RIGHT TURN INBOUNDCOURSE 188 ALT 3000 SPEED 230 LEGTIME 1 FAF BAQ MAP MA032"
            },
            "transitions": [
                {
                    "name": "BAQ",
                    "fixes": {
                        "BAQ": "BAQ RIGHT TURN INBOUNDCOURSE 048 ALT 3100 LEGDIST 5"
                    }
                }
            ]
        },
        {
            "name": "VORB23",
            "fixes": {
                "BAQ": "BAQ 2500 BAQ SPEED 185 BAQ AT OR ABOVE 5000 HOLD AT BAQ RIGHT TURN INBOUNDCOURSE 048 ALT 5000 SPEED 230 LEGTIME 1 FAF BAQ MAP MA063",
                "MA063": "MA063 1040 RNW 23 HDG 063 UNTIL 4000 TURN RIGHT HDG 227 INTERCEPT RADIAL 257 TO"
            },
            "transitions": [
                {
                    "name": "BAQ",
                    "fixes": {
                        "BAQ": "BAQ RIGHT TURN INBOUNDCOURSE 048 ALT 3100 LEGDIST 5"
                    }
                }
            ]
        }
    ]
}