{
    "fixes": [
        {
            "name": "37VOR",
            "lat": 3.4618638833333333,
            "lon": 76.3958
        },
        {
            "name": "AF001",
            "lat": 3.2217423333333333,
            "lon": 76.58111236666667
        },
        {
            "name": "AF002",
            "lat": 3.189976316666667,
            "lon": 76.54092195
        },
        {
            "name": "AF003",
            "lat": 3.16704555,
            "lon": 76.49509688333333
        },
        {
            "name": "AF004",
            "lat": 3.4204166333333332,
            "lon": 76.2911735
        },
        {
            "name": "AF005",
            "lat": 3.3832464333333334,
            "lon": 76.29085298333334
        },
        {
            "name": "AF006",
            "lat": 3.3478622,
            "lon": 76.30226043333333
        },
        {
            "name": "AF007",
            "lat": 3.3178555333333333,
            "lon": 76.32423676666667
        },
        {
            "name": "AF008",
            "lat": 3.2962719666666667,
            "lon": 76.35455068333333
        },
        {
            "name": "AF009",
            "lat": 3.338143383333333,
            "lon": 76.30782601666667
        },
        {
            "name": "AF010",
            "lat": 3.3127808666666665,
            "lon": 76.32972058333333
        },
        {
            "name": "AF011",
            "lat": 3.2946699833333333,
            "lon": 76.35792793333333
        },
        {
            "name": "ANKAS",
            "lat": 2.445,
            "lon": 76.84777778333333
        },
        {
            "name": "ASIKO",
            "lat": 4.241388883333333,
            "lon": 76.88944443333334
        },
        {
            "name": "BISUL",
            "lat": 3.9375,
            "lon": 76.15781111666666
        },
        {
            "name": "BUN",
            "lat": 3.825277783333333,
            "lon": 76.99527778333334
        },
        {
            "name": "BUN34",
            "lat": 3.7148888833333333,
            "lon": 76.43980556666666
        },
        {
            "name": "BURPA",
            "lat": 3.2097222166666666,
            "lon": 77.43805556666666
        },
        {
            "name": "CF02",
            "lat": 3.3525,
            "lon": 76.41361111666667
        },
        {
            "name": "CL400",
            "lat": 3.8771694333333335,
            "lon": 75.92989721666666
        },
        {
            "name": "CL401",
            "lat": 3.8807916666666666,
            "lon": 76.11318888333334
        },
        {
            "name": "CL402",
            "lat": 3.8832777833333334,
            "lon": 76.23905833333333
        },
        {
            "name": "CL403",
            "lat": 3.8028222166666668,
            "lon": 76.33662221666667
        },
        {
            "name": "CL405",
            "lat": 3.5869166666666668,
            "lon": 76.37411111666667
        },
        {
            "name": "CL801",
            "lat": 2.9112999999999998,
            "lon": 76.33693333333333
        },
        {
            "name": "CL802",
            "lat": 2.9472972166666667,
            "lon": 76.49966666666667
        },
        {
            "name": "CL803",
            "lat": 3.204441666666667,
            "lon": 76.32566666666666
        },
        {
            "name": "CL804",
            "lat": 3.2471861166666667,
            "lon": 76.34101666666666
        },
        {
            "name": "CL805",
            "lat": 3.266561116666667,
            "lon": 76.42969443333334
        },
        {
            "name": "CL806",
            "lat": 3.2665583333333332,
            "lon": 76.49635
        },
        {
            "name": "CL807",
            "lat": 3.266555566666667,
            "lon": 76.56300556666666
        },
        {
            "name": "CL808",
            "lat": 3.5533916666666667,
            "lon": 76.16399166666666
        },
        {
            "name": "CL809",
            "lat": 3.8282638833333333,
            "lon": 76.487225
        },
        {
            "name": "CLO",
            "lat": 3.4008333333333334,
            "lon": 76.40638888333334
        },
        {
            "name": "CLO25",
            "lat": 3.813030566666667,
            "lon": 76.31907221666667
        },
        {
            "name": "D015F",
            "lat": 3.501025,
            "lon": 76.38885833333333
        },
        {
            "name": "D015O",
            "lat": 3.649972216666667,
            "lon": 76.36580278333334
        },
        {
            "name": "D015R",
            "lat": 3.6995777833333334,
            "lon": 76.35785
        },
        {
            "name": "D021K",
            "lat": 3.5799083333333335,
            "lon": 76.35776111666667
        },
        {
            "name": "D068G",
            "lat": 3.455555566666667,
            "lon": 76.30166666666666
        },
        {
            "name": "D112G",
            "lat": 3.3688583333333333,
            "lon": 76.29363611666666
        },
        {
            "name": "D178G",
            "lat": 3.285833333333333,
            "lon": 76.38972221666667
        },
        {
            "name": "D196G",
            "lat": 3.2864833333333334,
            "lon": 76.42601111666667
        },
        {
            "name": "D196O",
            "lat": 3.154166666666667,
            "lon": 76.44638888333333
        },
        {
            "name": "D198J",
            "lat": 3.238375,
            "lon": 76.44138333333333
        },
        {
            "name": "D198K",
            "lat": 3.2219444333333334,
            "lon": 76.445
        },
        {
            "name": "D198U",
            "lat": 3.0589472166666667,
            "lon": 76.480675
        },
        {
            "name": "D205S",
            "lat": 3.787886116666667,
            "lon": 76.32749721666667
        },
        {
            "name": "D211K",
            "lat": 3.235,
            "lon": 76.48277778333333
        },
        {
            "name": "D211R",
            "lat": 3.128611116666667,
            "lon": 76.53194443333334
        },
        {
            "name": "D242J",
            "lat": 3.308477783333333,
            "lon": 76.54384443333333
        },
        {
            "name": "D242O",
            "lat": 3.2616666666666667,
            "lon": 76.61305556666667
        },
        {
            "name": "DAKOP",
            "lat": 2.8127777833333334,
            "lon": 77.27638888333334
        },
        {
            "name": "EDPES",
            "lat": 3.3233333333333333,
            "lon": 76.13972221666667
        },
        {
            "name": "ESARO",
            "lat": 2.865,
            "lon": 76.1281
        },
        {
            "name": "ETALO",
            "lat": 4.178611116666667,
            "lon": 76.61305556666667
        },
        {
            "name": "ISADI",
            "lat": 3.203333333333333,
            "lon": 75.73361111666667
        },
        {
            "name": "ISKUN",
            "lat": 3.0330555666666665,
            "lon": 77.38888888333334
        },
        {
            "name": "ISOPA",
            "lat": 3.0319444333333334,
            "lon": 76.57666666666667
        },
        {
            "name": "KADIT",
            "lat": 3.6733333333333333,
            "lon": 76.26388888333334
        },
        {
            "name": "KIKUM",
            "lat": 4.508055566666666,
            "lon": 76.24694443333334
        },
        {
            "name": "KOGLO",
            "lat": 3.4477527833333332,
            "lon": 76.39824721666666
        },
        {
            "name": "LIXES",
            "lat": 3.6053194333333334,
            "lon": 76.05406943333334
        },
        {
            "name": "LOKET",
            "lat": 3.950555566666667,
            "lon": 76.43583333333333
        },
        {
            "name": "LOMIM",
            "lat": 3.3655555666666666,
            "lon": 76.41251111666666
        },
        {
            "name": "MANGA",
            "lat": 3.5611111166666665,
            "lon": 76.09611111666666
        },
        {
            "name": "MASLA",
            "lat": 4.042777783333333,
            "lon": 76.50805556666667
        },
        {
            "name": "MINIV",
            "lat": 3.737825,
            "lon": 76.44939721666667
        },
        {
            "name": "MUDRO",
            "lat": 3.8192527833333334,
            "lon": 76.33376943333333
        },
        {
            "name": "MUKIX",
            "lat": 3.204647216666667,
            "lon": 76.44044166666667
        },
        {
            "name": "MUNOL",
            "lat": 3.0615,
            "lon": 76.51749166666667
        },
        {
            "name": "NIGRU",
            "lat": 3.4957611166666664,
            "lon": 76.28598611666666
        },
        {
            "name": "NINDU",
            "lat": 3.4061944333333334,
            "lon": 76.84794443333334
        },
        {
            "name": "OPLOV",
            "lat": 3.2041861166666665,
            "lon": 76.19180278333333
        },
        {
            "name": "OREGA",
            "lat": 3.8686111166666666,
            "lon": 75.49666666666667
        },
        {
            "name": "PALOV",
            "lat": 3.3158083333333335,
            "lon": 76.325775
        },
        {
            "name": "PORLU",
            "lat": 3.061594433333333,
            "lon": 76.47336388333333
        },
        {
            "name": "PPN",
            "lat": 2.4488888833333333,
            "lon": 76.61416666666666
        },
        {
            "name": "PULMA",
            "lat": 4.002777783333333,
            "lon": 76.06079721666667
        },
        {
            "name": "PUPRI",
            "lat": 3.1128555666666666,
            "lon": 76.63625278333333
        },
        {
            "name": "RF001",
            "lat": 3.879785083333333,
            "lon": 76.26610351666666
        },
        {
            "name": "RF002",
            "lat": 3.869248933333333,
            "lon": 76.29097898333333
        },
        {
            "name": "RF003",
            "lat": 3.8522794333333334,
            "lon": 76.31197921666667
        },
        {
            "name": "RF004",
            "lat": 3.830191666666667,
            "lon": 76.32747703333334
        },
        {
            "name": "SIGIR",
            "lat": 3.745555566666667,
            "lon": 76.60388888333334
        },
        {
            "name": "SIPAR",
            "lat": 4.114722216666666,
            "lon": 75.89444443333333
        },
        {
            "name": "SIPOG",
            "lat": 3.720725,
            "lon": 76.35087221666667
        },
        {
            "name": "SUNSO",
            "lat": 3.6386194333333335,
            "lon": 76.36512221666666
        },
        {
            "name": "ULQ",
            "lat": 4.092222216666666,
            "lon": 76.22333333333333
        },
        {
            "name": "ULQ25",
            "lat": 3.6733333333333333,
            "lon": 76.26388888333334
        },
        {
            "name": "USEVU",
            "lat": 3.512408333333333,
            "lon": 76.59851111666667
        },
        {
            "name": "VOR12",
            "lat": 3.59635,
            "lon": 76.37246111666667
        },
        {
            "name": "VOR17",
            "lat": 3.6737333333333333,
            "lon": 76.35902778333333
        },
        {
            "name": "VULSU",
            "lat": 4.118888883333334,
            "lon": 76.29583333333333
        },
        {
            "name": "VUSRU",
            "lat": 3.628611116666667,
            "lon": 76.72666666666667
        }
    ],
    "rnws": [
        "RNW 02",
        "RNW 20"
    ],
    "sids": [
        {
            "name": "BUN2C",
            "rnw": "02",
            "fixes": {
                "D015R": "D015R AT OR ABOVE 6500",
                "BUN34": "BUN34 AT OR ABOVE 8400 SPEED 220",
                "SIGIR": "SIGIR AT OR ABOVE 11000",
                "BUN": "BUN"
            },
            "sub_fixes": [],
            "transitions": []
        },
        {
            "name": "CLO9C",
            "rnw": "02",
            "fixes": {
                "D015O": "OVERFLY D015O AT OR ABOVE 5500 TURN RIGHT DIRECT",
                "CLO": "CLO"
            },
            "sub_fixes": [],
            "transitions": [
                {
                    "name": "DAKOP",
                    "fixes": [
                        "D242J",
                        "DAKOP"
                    ]
                },
                {
                    "name": "EDPES",
                    "fixes": [
                        "D112G",
                        "EDPES"
                    ]
                },
                {
                    "name": "ISOPA",
                    "fixes": [
                        "ISOPA"
                    ]
                },
                {
                    "name": "PPN",
                    "fixes": [
                        "D198J",
                        "PPN"
                    ]
                },
                {
                    "name": "SIGIR",
                    "fixes": [
                        "SIGIR"
                    ]
                },
                {
                    "name": "VUSRU",
                    "fixes": [
                        "VUSRU"
                    ]
                }
            ]
        },
        {
            "name": "CLO9D",
            "rnw": "02",
            "fixes": {
                "D015R": "OVERFLY D015R AT OR ABOVE 6500 TURN LEFT DIRECT",
                "CLO": "CLO"
            },
            "sub_fixes": [],
            "transitions": [
                {
                    "name": "DAKOP",
                    "fixes": [
                        "D242J",
                        "DAKOP"
                    ]
                },
                {
                    "name": "EDPES",
                    "fixes": [
                        "D112G",
                        "EDPES"
                    ]
                },
                {
                    "name": "ISOPA",
                    "fixes": [
                        "ISOPA"
                    ]
                },
                {
                    "name": "PPN",
                    "fixes": [
                        "D198J",
                        "PPN"
                    ]
                },
                {
                    "name": "VUSRU",
                    "fixes": [
                        "VUSRU"
                    ]
                }
            ]
        },
        {
            "name": "ISOP4B",
            "rnw": "20",
            "fixes": {
                "CLO": "CLO AT OR ABOVE 5700",
                "D211K": "D211K AT OR ABOVE 9000",
                "ISOPA": "ISOPA AT OR ABOVE 10000"
            },
            "sub_fixes": [],
            "transitions": []
        },
        {
            "name": "KIKU4A",
            "rnw": "02",
            "fixes": {
                "D015R": "D015R AT OR ABOVE 6700",
                "D205S": "D205S AT OR ABOVE 9000",
                "ULQ": "ULQ AT OR ABOVE 17000",
                "KIKUM": "KIKUM AT OR ABOVE 21000"
            },
            "sub_fixes": [],
            "transitions": []
        },
        {
            "name": "KIKU4B",
            "rnw": "20",
            "fixes": {
                "D015F": "OVERFLY D015F AT OR ABOVE 3870 TURN LEFT DIRECT",
                "D021K": "D021K AT OR ABOVE 6300",
                "ULQ": "ULQ AT OR ABOVE 17000",
                "KIKUM": "KIKUM AT OR ABOVE 21000"
            },
            "sub_fixes": [],
            "transitions": []
        },
        {
            "name": "PPN8B",
            "rnw": "20",
            "fixes": {
                "CLO": "CLO AT OR ABOVE 5700",
                "D198K": "D198K AT OR ABOVE 9000",
                "D198U": "D198U AT OR ABOVE 11000",
                "PPN": "PPN"
            },
            "sub_fixes": [],
            "transitions": []
        },
        {
            "name": "SIGI5C",
            "rnw": "02",
            "fixes": {
                "D015R": "D015R AT OR ABOVE 6500",
                "BUN34": "BUN34 AT OR ABOVE 8400 SPEED 220",
                "SIGIR": "SIGIR AT OR ABOVE 11000"
            },
            "sub_fixes": [],
            "transitions": []
        },
        {
            "name": "ULQ9B",
            "rnw": "02",
            "fixes": {
                "D015R": "D015R AT OR ABOVE 5900",
                "D205S": "D205S AT OR ABOVE 7500",
                "ULQ": "ULQ AT OR ABOVE 13000"
            },
            "sub_fixes": [],
            "transitions": []
        },
        {
            "name": "ULQ9C",
            "rnw": "20",
            "fixes": {
                "D015F": "OVERFLY D015F AT OR ABOVE 3700 TURN LEFT DIRECT",
                "D021K": "D021K AT OR ABOVE 5900",
                "ULQ": "ULQ AT OR ABOVE 13000"
            },
            "sub_fixes": [],
            "transitions": []
        }
    ],
    "stars": [
        {
            "name": "ANKA3A",
            "runway": "RNW 02",
            "fixes": {
                "ANKAS": "ANKAS AT OR ABOVE 10000",
                "MUNOL": "MUNOL AT OR ABOVE 10000",
                "MUKIX": "MUKIX AT OR ABOVE 9000 SPEED 200",
                "LOMIM": "LOMIM AT OR ABOVE 6000 SPEED 200"
            }
        },
        {
            "name": "ASIK1C",
            "runway": "RNW 02",
            "fixes": {
                "ASIKO": "ASIKO AT OR ABOVE 11000",
                "USEVU": "USEVU AT OR ABOVE 10000",
                "CL807": "CL807 AT OR ABOVE 9700 SPEED 190",
                "CL806": "CL806 AT OR ABOVE 9000",
                "CL805": "CL805 AT OR ABOVE 7800 SPEED 190",
                "LOMIM": "LOMIM AT OR ABOVE 6000"
            }
        },
        {
            "name": "ASIK3B",
            "runway": "RNW 20",
            "fixes": {
                "ASIKO": "ASIKO AT OR ABOVE 11000",
                "SIGIR": "SIGIR AT OR ABOVE 11000",
                "MINIV": "MINIV AT OR ABOVE 7900 SPEED 200",
                "SIPOG": "SIPOG AT OR ABOVE 6400"
            }
        },
        {
            "name": "BUN1F",
            "runway": "RNW 02",
            "fixes": {
                "BUN": "BUN AT OR ABOVE 10000",
                "USEVU": "USEVU AT OR ABOVE 10000",
                "CL807": "CL807 AT OR ABOVE 9700 SPEED 190",
                "CL806": "CL806 AT OR ABOVE 9000",
                "CL805": "CL805 AT OR ABOVE 7800 SPEED 190",
                "LOMIM": "LOMIM AT OR ABOVE 6000"
            }
        },
        {
            "name": "BUN4E",
            "runway": "RNW 20",
            "fixes": {
                "BUN": "BUN AT OR ABOVE 10000",
                "SIGIR": "SIGIR AT OR ABOVE 9000",
                "MINIV": "MINIV AT OR ABOVE 7900 SPEED 200",
                "SIPOG": "SIPOG AT OR ABOVE 6400"
            }
        },
        {
            "name": "BURP3A",
            "runway": "RNW 20",
            "fixes": {
                "BURPA": "BURPA AT OR ABOVE 9000",
                "SIGIR": "SIGIR AT OR ABOVE 9000",
                "MINIV": "MINIV AT OR ABOVE 7900 SPEED 200",
                "SIPOG": "SIPOG AT OR ABOVE 6400"
            }
        },
        {
            "name": "DAKO3B",
            "runway": "RNW 02",
            "fixes": {
                "DAKOP": "DAKOP AT OR ABOVE 14000",
                "PUPRI": "PUPRI AT OR ABOVE 13000",
                "MUKIX": "MUKIX AT OR ABOVE 9000 SPEED 200",
                "LOMIM": "LOMIM AT OR ABOVE 6000 SPEED 200"
            }
        },
        {
            "name": "DAKO3C",
            "runway": "RNW 20",
            "fixes": {
                "DAKOP": "DAKOP AT OR ABOVE 14000",
                "NINDU": "NINDU AT OR ABOVE 14000",
                "SIGIR": "SIGIR AT OR ABOVE 9000",
                "MINIV": "MINIV AT OR ABOVE 7900 SPEED 200",
                "SIPOG": "SIPOG AT OR ABOVE 6400"
            }
        },
        {
            "name": "DAKO7A",
            "runway": "RNW 02",
            "fixes": {
                "DAKOP": "DAKOP",
                "D242O": "D242O AT OR ABOVE 14000",
                "AF001": "AF001",
                "AF002": "AF002",
                "AF003": "AF003",
                "D196O": "D196O AT OR ABOVE 10000",
                "CF02": "CF02 AT OR ABOVE 6000"
            }
        },
        {
            "name": "ESAR1A",
            "runway": "RNW 02",
            "fixes": {
                "ESARO": "ESARO AT OR ABOVE 20000",
                "CL801": "CL801 AT OR ABOVE 15000",
                "CL802": "CL802 AT OR ABOVE 12000 SPEED 240 TURN RIGHT DIRECT",
                "PORLU": "PORLU AT OR ABOVE 11000",
                "MUKIX": "MUKIX AT OR ABOVE 9000 SPEED 200"
            }
        },
        {
            "name": "ETAL3A",
            "runway": "RNW 20",
            "fixes": {
                "ETALO": "ETALO AT OR ABOVE 15000",
                "MASLA": "MASLA AT OR ABOVE 15000",
                "LOKET": "LOKET AT OR ABOVE 12000",
                "MUDRO": "MUDRO AT OR ABOVE 8000 SPEED 200"
            }
        },
        {
            "name": "ISAD3A",
            "runway": "RNW 02",
            "fixes": {
                "ISADI": "ISADI AT OR ABOVE 16000",
                "OPLOV": "OPLOV AT OR ABOVE 15500",
                "CL803": "CL803 AT OR ABOVE 11500",
                "MUKIX": "MUKIX AT OR ABOVE 9000 SPEED 200"
            }
        },
        {
            "name": "ISKU3A",
            "runway": "RNW 20",
            "fixes": {
                "ISKUN": "ISKUN AT OR ABOVE 9000",
                "SIGIR": "SIGIR AT OR ABOVE 9000",
                "MINIV": "MINIV AT OR ABOVE 7900 SPEED 200",
                "SIPOG": "SIPOG AT OR ABOVE 6400"
            }
        },
        {
            "name": "ISOP3A",
            "runway": "RNW 02",
            "fixes": {
                "ISOPA": "ISOPA AT OR ABOVE 10000",
                "D211R": "D211R",
                "D196O": "D196O AT OR ABOVE 9000",
                "CF02": "CF02 AT OR ABOVE 6000",
                "CLO": "CLO 5700"
            }
        },
        {
            "name": "KIKU1D",
            "runway": "RNW 02",
            "fixes": {
                "KIKUM": "KIKUM AT OR ABOVE 21000",
                "CL809": "CL809 AT OR ABOVE 11000",
                "USEVU": "USEVU AT OR ABOVE 10000",
                "CL807": "CL807 AT OR ABOVE 9700 SPEED 190",
                "CL806": "CL806 AT OR ABOVE 9000",
                "CL805": "CL805 AT OR ABOVE 7800 SPEED 190",
                "LOMIM": "LOMIM AT OR ABOVE 6000"
            }
        },
        {
            "name": "KIKU3C",
            "runway": "RNW 20",
            "fixes": {
                "KIKUM": "KIKUM AT OR ABOVE 20000",
                "VULSU": "VULSU AT OR ABOVE 10000",
                "MUDRO": "MUDRO AT OR ABOVE 8000 SPEED 200"
            }
        },
        {
            "name": "MANGA9",
            "runway": "RNW 02",
            "fixes": {
                "MANGA": "MANGA AT OR ABOVE 17000",
                "D068G": "D068G AT OR ABOVE 12000",
                "AF004": "AF004",
                "AF005": "AF005",
                "AF006": "AF006",
                "AF007": "AF007",
                "AF008": "AF008",
                "D178G": "D178G AT OR ABOVE 7000 SPEED 190",
                "D196G": "D196G",
                "CLO": "CLO 5700"
            }
        },
        {
            "name": "OREG2C",
            "runway": "RNW 02",
            "fixes": {
                "OREGA": "OREGA AT OR ABOVE 17000",
                "LIXES": "LIXES AT OR ABOVE 15800",
                "CL808": "CL808 AT OR ABOVE 13100",
                "NIGRU": "NIGRU AT OR ABOVE 10000",
                "PALOV": "PALOV AT OR ABOVE 7000 SPEED 190",
                "CL804": "CL804 AT OR ABOVE 6700",
                "CL805": "CL805 AT OR ABOVE 6400 SPEED 190",
                "LOMIM": "LOMIM AT OR ABOVE 6000"
            }
        },
        {
            "name": "OREG5A",
            "runway": "RNW 02",
            "fixes": {
                "OREGA": "OREGA AT OR ABOVE 17000",
                "LIXES": "LIXES AT OR ABOVE 15800",
                "CL808": "CL808 AT OR ABOVE 13100",
                "NIGRU": "NIGRU AT OR ABOVE 10000",
                "PALOV": "PALOV AT OR ABOVE 7000 SPEED 190 TURN RIGHT DIRECT",
                "LOMIM": "LOMIM 6000"
            }
        },
        {
            "name": "PPN3C",
            "runway": "RNW 02",
            "fixes": {
                "PPN": "PPN AT OR ABOVE 11000",
                "PORLU": "PORLU AT OR ABOVE 11000",
                "MUKIX": "MUKIX AT OR ABOVE 9000 SPEED 200",
                "LOMIM": "LOMIM AT OR ABOVE 6000 SPEED 200"
            }
        },
        {
            "name": "SIPA3A",
            "runway": "RNW 20",
            "fixes": {
                "SIPAR": "SIPAR AT OR ABOVE 15000",
                "PULMA": "PULMA AT OR ABOVE 15000",
                "BISUL": "BISUL AT OR ABOVE 12000",
                "MUDRO": "MUDRO AT OR ABOVE 8000 SPEED 200"
            }
        },
        {
            "name": "ULQ1A",
            "runway": "RNW 20",
            "fixes": {
                "ULQ": "ULQ AT OR BELOW 16000 AT OR ABOVE 14000",
                "CLO25": "CLO25 AT OR ABOVE 8000",
                "SIPOG": "SIPOG AT OR ABOVE 6400"
            }
        },
        {
            "name": "ULQ2G",
            "runway": "RNW 02",
            "fixes": {
                "ULQ": "ULQ AT OR ABOVE 16000",
                "KADIT": "KADIT AT OR ABOVE 13000",
                "NIGRU": "NIGRU AT OR ABOVE 10000",
                "PALOV": "PALOV AT OR ABOVE 7000 SPEED 190",
                "CL804": "CL804 AT OR ABOVE 6700",
                "CL805": "CL805 AT OR ABOVE 6400 SPEED 190",
                "LOMIM": "LOMIM AT OR ABOVE 6000"
            }
        },
        {
            "name": "ULQ4E",
            "runway": "RNW 02",
            "fixes": {
                "ULQ": "ULQ AT OR ABOVE 16000",
                "KADIT": "KADIT AT OR ABOVE 13000",
                "NIGRU": "NIGRU AT OR ABOVE 10000",
                "PALOV": "PALOV AT OR ABOVE 7000 SPEED 190 TURN RIGHT DIRECT",
                "LOMIM": "LOMIM 6000"
            }
        },
        {
            "name": "ULQ4F",
            "runway": "RNW 20",
            "fixes": {
                "ULQ": "ULQ AT OR ABOVE 10000",
                "MUDRO": "MUDRO AT OR ABOVE 8000 SPEED 200"
            }
        },
        {
            "name": "ULQ6D",
            "runway": "RNW 02",
            "fixes": {
                "ULQ": "ULQ",
                "ULQ25": "ULQ25 AT OR ABOVE 13000",
                "D112G": "D112G AT OR ABOVE 8000",
                "AF009": "AF009",
                "AF010": "AF010",
                "AF011": "AF011",
                "D178G": "D178G AT OR ABOVE 7000 SPEED 190",
                "D196G": "D196G",
                "CLO": "CLO AT OR ABOVE 5700"
            }
        }
    ],
    "approaches": [
        {
            "name": "VORD02",
            "fixes": {
                "CF02": "CF02 AT OR ABOVE 6000",
                "CLO": "CLO 5700",
                "37VOR": "37VOR AT OR ABOVE 4500 RNW 02",
                "SIPOG": "SIPOG AT OR ABOVE 6400 HOLD AT SIPOG RIGHT TURN INBOUNDCOURSE 016 ALT 7000 SPEED 200 LEGTIME 1 FAF CLO MAP RNW 02"
            },
            "transitions": [
                {
                    "name": "CLO",
                    "fixes": {
                        "CLO": "CLO RIGHT TURN INBOUNDCOURSE 016 ALT 6000 LEGTIME 1"
                    }
                }
            ]
        },
        {
            "name": "VORD20",
            "fixes": {
                "SIPOG": "SIPOG AT OR ABOVE 6400",
                "VOR17": "VOR17 AT OR ABOVE 5500",
                "SUNSO": "SUNSO 4800",
                "VOR12": "VOR12 AT OR ABOVE 4000 RNW 20",
                "CLO": "CLO AT OR ABOVE 6000 HOLD AT CLO RIGHT TURN INBOUNDCOURSE 016 ALT 6000 LEGTIME 1 FAF SUNSO MAP RNW 20"
            },
            "transitions": [
                {
                    "name": "SIPOG",
                    "fixes": {
                        "SIPOG": "SIPOG RIGHT TURN INBOUNDCOURSE 196 ALT 7500 LEGTIME 1"
                    }
                }
            ]
        },
        {
            "name": "ILSY02",
            "fixes": {
                "LOMIM": "LOMIM AT OR ABOVE 6000",
                "KOGLO": "KOGLO 4800 RNW 02",
                "SIPOG": "OVERFLY SIPOG AT OR ABOVE 6400 HOLD AT SIPOG RIGHT TURN INBOUNDCOURSE 016 ALT 7000 SPEED 200 LEGTIME 1 FAF KOGLO MAP RNW 02"
            },
            "transitions": [
                {
                    "name": "LOMIM",
                    "fixes": {
                        "LOMIM": "LOMIM RIGHT TURN INBOUNDCOURSE 016 ALT 6000 SPEED 200 LEGTIME 1"
                    }
                },
                {
                    "name": "MUKIX",
                    "fixes": {
                        "MUKIX": "MUKIX AT OR ABOVE 9000"
                    }
                }
            ]
        },
        {
            "name": "ILSZ02",
            "fixes": {
                "CF02": "CF02 AT OR ABOVE 6000",
                "CLO": "CLO 5700 RNW 02",
                "SIPOG": "SIPOG AT OR ABOVE 6400 HOLD AT SIPOG RIGHT TURN INBOUNDCOURSE 016 ALT 7000 SPEED 200 LEGTIME 1 FAF CLO MAP RNW 02"
            },
            "transitions": [
                {
                    "name": "CLO",
                    "fixes": {
                        "CLO": "CLO RIGHT TURN INBOUNDCOURSE 016 ALT 6000 LEGTIME 1"
                    }
                }
            ]
        },
        {
            "name": "LOC02",
            "fixes": {
                "CF02": "CF02 AT OR ABOVE 6000",
                "CLO": "CLO 5700",
                "37VOR": "37VOR AT OR ABOVE 4500 RNW 02",
                "SIPOG": "SIPOG AT OR ABOVE 6400 HOLD AT SIPOG RIGHT TURN INBOUNDCOURSE 016 ALT 7000 SPEED 200 LEGTIME 1 FAF CLO MAP RNW 02"
            },
            "transitions": [
                {
                    "name": "CLO",
                    "fixes": {
                        "CLO": "CLO RIGHT TURN INBOUNDCOURSE 016 ALT 6000 LEGTIME 1"
                    }
                }
            ]
        },
        {
            "name": "RNAV02",
            "fixes": {
                "LOMIM": "LOMIM AT OR ABOVE 6000",
                "KOGLO": "KOGLO 4800 RNW 02",
                "SIPOG": "OVERFLY SIPOG AT OR ABOVE 6400 HOLD AT SIPOG RIGHT TURN INBOUNDCOURSE 016 ALT 7000 SPEED 200 LEGTIME 1 FAF KOGLO MAP RNW 02"
            },
            "transitions": [
                {
                    "name": "LOMIM",
                    "fixes": {
                        "LOMIM": "LOMIM RIGHT TURN INBOUNDCOURSE 016 ALT 6000 SPEED 200 LEGTIME 1"
                    }
                },
                {
                    "name": "MUKIX",
                    "fixes": {
                        "MUKIX": "MUKIX AT OR ABOVE 9000"
                    }
                }
            ]
        },
        {
            "name": "RNAVY20",
            "fixes": {
                "SIPOG": "SIPOG AT OR ABOVE 6400",
                "SUNSO": "SUNSO 4800 RNW 20",
                "LOMIM": "OVERFLY LOMIM AT OR ABOVE 6000 SPEED 200 HOLD AT LOMIM RIGHT TURN INBOUNDCOURSE 016 ALT 6000 SPEED 200 LEGDIST 4 FAF SUNSO MAP RNW 20"
            },
            "transitions": [
                {
                    "name": "OREGA",
                    "fixes": {
                        "OREGA": "OREGA AT OR ABOVE 17000",
                        "CL400": "CL400 AT OR ABOVE 16000 SPEED 210",
                        "CL401": "CL401 AT OR ABOVE 13000",
                        "CL402": "CL402 AT OR ABOVE 10500 SPEED 190",
                        "RF001": "RF001",
                        "RF002": "RF002",
                        "RF003": "RF003",
                        "RF004": "RF004",
                        "CL403": "CL403 AT OR ABOVE 7500"
                    }
                }
            ]
        },
        {
            "name": "RNAVZ20",
            "fixes": {
                "SIPOG": "SIPOG AT OR ABOVE 6400",
                "SUNSO": "SUNSO 4800",
                "CL405": "CL405 AT OR ABOVE 3800 RNW 20",
                "LOMIM": "OVERFLY LOMIM AT OR ABOVE 6000 HOLD AT LOMIM RIGHT TURN INBOUNDCOURSE 016 ALT 6000 SPEED 200 LEGTIME 1 FAF SUNSO MAP RNW 20"
            },
            "transitions": [
                {
                    "name": "MUDRO",
                    "fixes": {
                        "MUDRO": "MUDRO AT OR ABOVE 8000"
                    }
                },
                {
                    "name": "SIPOG",
                    "fixes": {
                        "SIPOG": "SIPOG RIGHT TURN INBOUNDCOURSE 196 ALT 8000 SPEED 200 LEGTIME 1"
                    }
                }
            ]
        }
    ]
}