{
    "fixes": [
        {
            "name": "AKPAM",
            "lat": 9.493333333333334,
            "lon": 75.49138888333333
        },
        {
            "name": "BUTAL",
            "lat": 7.8536111166666664,
            "lon": 75.45722221666666
        },
        {
            "name": "CZ900",
            "lat": 9.246427783333333,
            "lon": 75.31725833333333
        },
        {
            "name": "CZ901",
            "lat": 9.279141666666666,
            "lon": 75.40930556666666
        },
        {
            "name": "CZ902",
            "lat": 9.216652783333334,
            "lon": 75.24030556666666
        },
        {
            "name": "CZ903",
            "lat": 9.459172216666667,
            "lon": 75.12568333333333
        },
        {
            "name": "CZ922",
            "lat": 8.861108333333334,
            "lon": 75.10948333333333
        },
        {
            "name": "CZ930",
            "lat": 9.346352783333334,
            "lon": 75.37668888333333
        },
        {
            "name": "CZ932",
            "lat": 9.495188883333334,
            "lon": 75.22472778333334
        },
        {
            "name": "CZ934",
            "lat": 9.137333333333334,
            "lon": 75.26798888333333
        },
        {
            "name": "CZ936",
            "lat": 9.195338883333333,
            "lon": 75.42606111666667
        },
        {
            "name": "CZ938",
            "lat": 9.166344433333334,
            "lon": 75.34701943333333
        },
        {
            "name": "CZ940",
            "lat": 9.244886116666667,
            "lon": 75.31783333333334
        },
        {
            "name": "CZU",
            "lat": 9.335833333333333,
            "lon": 75.2825
        },
        {
            "name": "CZU06",
            "lat": 9.247972216666666,
            "lon": 75.32003611666667
        },
        {
            "name": "CZU08",
            "lat": 9.209902783333334,
            "lon": 75.24172221666667
        },
        {
            "name": "FF03",
            "lat": 9.258202783333333,
            "lon": 75.31406943333333
        },
        {
            "name": "GEKIM",
            "lat": 9.503611116666667,
            "lon": 75.32527778333333
        },
        {
            "name": "GERNA",
            "lat": 7.631666666666667,
            "lon": 74.86111111666666
        },
        {
            "name": "LOLUD",
            "lat": 9.96455,
            "lon": 74.94345833333334
        },
        {
            "name": "MA03",
            "lat": 9.309438883333334,
            "lon": 75.29323333333333
        },
        {
            "name": "MGN",
            "lat": 9.287222216666667,
            "lon": 74.84694443333333
        },
        {
            "name": "MTR",
            "lat": 8.833888883333334,
            "lon": 75.82972221666667
        },
        {
            "name": "NIMVI",
            "lat": 9.037444433333333,
            "lon": 75.42186111666666
        },
        {
            "name": "SUGDI",
            "lat": 8.748491666666666,
            "lon": 75.64365278333334
        },
        {
            "name": "UGALU",
            "lat": 7.6825,
            "lon": 74.74944443333334
        },
        {
            "name": "VUKRA",
            "lat": 9.503055566666667,
            "lon": 75.23444443333334
        },
        {
            "name": "XOGEN",
            "lat": 7.7938888833333335,
            "lon": 74.50027778333333
        }
    ],
    "rnws": [
        "RNW 03",
        "RNW 21"
    ],
    "sids": [
        {
            "name": "AKPA1M",
            "rnw": "21",
            "fixes": {
                "CZ900": "CZ900 AT OR ABOVE 1900 SPEED 185",
                "CZ901": "CZ901 AT OR ABOVE 3000 SPEED 185",
                "AKPAM": "AKPAM AT OR ABOVE 5000"
            },
            "sub_fixes": [],
            "transitions": []
        },
        {
            "name": "LOLU1B",
            "rnw": "21",
            "fixes": {
                "CZ900": "CZ900 AT OR ABOVE 1900 SPEED 185",
                "CZ902": "CZ902 AT OR ABOVE 3000 SPEED 185",
                "CZ903": "CZ903 AT OR ABOVE 6000",
                "LOLUD": "LOLUD AT OR ABOVE 8000"
            },
            "sub_fixes": [],
            "transitions": []
        },
        {
            "name": "MGN1E",
            "rnw": "21",
            "fixes": {
                "CZ900": "CZ900 AT OR ABOVE 1900 SPEED 185",
                "CZ902": "CZ902 AT OR ABOVE 3000 SPEED 185",
                "MGN": "MGN AT OR ABOVE 7000"
            },
            "sub_fixes": [],
            "transitions": []
        },
        {
            "name": "NIMV1A",
            "rnw": "21",
            "fixes": {
                "CZ900": "CZ900 AT OR ABOVE 2000",
                "CZ938": "CZ938 AT OR ABOVE 3000",
                "NIMVI": "NIMVI AT OR ABOVE 4800"
            },
            "sub_fixes": [],
            "transitions": [
                {
                    "name": "BUTAL",
                    "fixes": [
                        "BUTAL"
                    ]
                },
                {
                    "name": "MTR",
                    "fixes": [
                        "MTR"
                    ]
                },
                {
                    "name": "SUGDI",
                    "fixes": [
                        "SUGDI"
                    ]
                },
                {
                    "name": "UGALU",
                    "fixes": [
                        "UGALU"
                    ]
                }
            ]
        },
        {
            "name": "UGAL1B",
            "rnw": "21",
            "fixes": {
                "CZU06": "CZU06 AT OR ABOVE 2000",
                "CZU08": "CZU08 AT OR ABOVE 3500",
                "UGALU": "UGALU AT OR ABOVE 10000"
            },
            "sub_fixes": [],
            "transitions": []
        }
    ],
    "stars": [
        {
            "name": "BUTA1G",
            "runway": "RNW 03",
            "fixes": {
                "BUTAL": "BUTAL AT OR ABOVE 12000",
                "CZ938": "CZ938 AT OR ABOVE 4000 SPEED 190"
            }
        },
        {
            "name": "GEKI1A",
            "runway": "RNW 03",
            "fixes": {
                "GEKIM": "GEKIM AT OR ABOVE 5000",
                "CZ930": "CZ930",
                "CZ936": "CZ936 AT OR ABOVE 5000 SPEED 210"
            }
        },
        {
            "name": "GERN1B",
            "runway": "RNW 03",
            "fixes": {
                "GERNA": "GERNA AT OR ABOVE 10000",
                "CZ938": "CZ938 AT OR ABOVE 4000 SPEED 190"
            }
        },
        {
            "name": "MGN1F",
            "runway": "RNW 03",
            "fixes": {
                "MGN": "MGN AT OR ABOVE 7000",
                "CZ934": "CZ934 AT OR ABOVE 5000 SPEED 210"
            }
        },
        {
            "name": "MTR1B",
            "runway": "RNW 03",
            "fixes": {
                "MTR": "MTR AT OR ABOVE 5000",
                "CZ938": "CZ938 AT OR ABOVE 4000 SPEED 190"
            }
        },
        {
            "name": "VUKR1A",
            "runway": "RNW 03",
            "fixes": {
                "VUKRA": "VUKRA AT OR ABOVE 5000",
                "CZ930": "CZ930",
                "CZ936": "CZ936 AT OR ABOVE 5000 SPEED 210"
            }
        },
        {
            "name": "XOGE1B",
            "runway": "RNW 03",
            "fixes": {
                "XOGEN": "XOGEN AT OR ABOVE 25000",
                "CZ922": "CZ922 AT OR ABOVE 6000",
                "CZ934": "CZ934 AT OR ABOVE 5000 SPEED 210"
            }
        }
    ],
    "approaches": [
        {
            "name": "VORD03",
            "fixes": {
                "FF03": "FF03 2200",
                "MA03": "MA03 939 RNW 03",
                "CZU": "CZU HOLD AT CZU RIGHT TURN INBOUNDCOURSE 030 ALT 3000 LEGDIST 5 FAF FF03 MAP MA03"
            },
            "transitions": []
        },
        {
            "name": "RNAV03",
            "fixes": {
                "CZ938": "CZ938 AT OR ABOVE 4000 SPEED 190",
                "CZ940": "CZ940 2450 RNW 03",
                "CZ932": "OVERFLY CZ932 AT OR ABOVE 4000 HOLD AT CZ932 LEFT TURN INBOUNDCOURSE 243 ALT 4000 SPEED 230 LEGTIME 1 FAF CZ940 MAP RNW 03"
            },
            "transitions": [
                {
                    "name": "CZ934",
                    "fixes": {
                        "CZ934": "CZ934 AT OR ABOVE 5000 SPEED 210"
                    }
                },
                {
                    "name": "CZ936",
                    "fixes": {
                        "CZ936": "CZ936 AT OR ABOVE 5000 SPEED 210"
                    }
                },
                {
                    "name": "CZ938",
                    "fixes": {
                        "CZ938": "CZ938 RIGHT TURN INBOUNDCOURSE 028 ALT 4000 SPEED 230 LEGTIME 1"
                    }
                }
            ]
        }
    ]
}