{
    "fixes": [
        {
            "name": "AUC",
            "lat": 7.067222216666667,
            "lon": 70.73277778333333
        },
        {
            "name": "D068G",
            "lat": 6.511697216666667,
            "lon": 71.65628888333333
        },
        {
            "name": "D247J",
            "lat": 6.3643888833333335,
            "lon": 71.89194443333334
        },
        {
            "name": "D247P",
            "lat": 6.304655566666667,
            "lon": 71.98489721666667
        },
        {
            "name": "FF07",
            "lat": 6.412452783333333,
            "lon": 71.82709721666667
        },
        {
            "name": "ISROD",
            "lat": 6.215277783333334,
            "lon": 72.12388888333334
        },
        {
            "name": "REMIB",
            "lat": 6.215,
            "lon": 71.88777778333333
        },
        {
            "name": "TME",
            "lat": 6.4530555666666665,
            "lon": 71.75388888333333
        },
        {
            "name": "UTNUS",
            "lat": 6.971538883333333,
            "lon": 71.864625
        }
    ],
    "rnws": [
        "RNW 07",
        "RNW 25"
    ],
    "sids": [
        {
            "name": "AUC3A",
            "rnw": "07",
            "fixes": {
                "D068G": "D068G AT OR ABOVE 2500",
                "AUC": "AUC"
            },
            "sub_fixes": [],
            "transitions": []
        },
        {
            "name": "ISRO1A",
            "rnw": "07",
            "fixes": {
                "D068G": "OVERFLY D068G AT OR ABOVE 3400 TURN LEFT DIRECT",
                "TME": "TME AT OR ABOVE 7000",
                "D247J": "D247J AT OR ABOVE 10300",
                "D247P": "D247P AT OR ABOVE 12600",
                "ISROD": "ISROD AT OR ABOVE 16000"
            },
            "sub_fixes": [],
            "transitions": []
        },
        {
            "name": "REMI2A",
            "rnw": "07",
            "fixes": {
                "D068G": "OVERFLY D068G AT OR ABOVE 2500 TURN LEFT DIRECT",
                "TME": "TME AT OR ABOVE 4800",
                "REMIB": "REMIB AT OR ABOVE 7000"
            },
            "sub_fixes": [],
            "transitions": []
        },
        {
            "name": "UTNU1D",
            "rnw": "07",
            "fixes": {
                "D068G": "D068G AT OR ABOVE 2500 TURN LEFT DIRECT",
                "TME": "TME AT OR ABOVE 4800 TURN RIGHT DIRECT",
                "UTNUS": "UTNUS AT OR ABOVE 10000"
            },
            "sub_fixes": [],
            "transitions": []
        }
    ],
    "stars": [],
    "approaches": [
        {
            "name": "VORD07",
            "fixes": {
                "FF07": "FF07 2600 RNW 07",
                "TME": "TME HOLD AT TME LEFT TURN INBOUNDCOURSE 228 ALT 3000 LEGTIME 1 FAF FF07 MAP RNW 07"
            },
            "transitions": [
                {
                    "name": "TME",
                    "fixes": {
                        "TME": "TME AT OR ABOVE 3000 TRK 228 UNTIL 5.0 FROM TME"
                    }
                }
            ]
        }
    ]
}