{
    "fixes": [
        {
            "name": "BIXIN",
            "lat": 11.115402783333334,
            "lon": 65.93113888333333
        },
        {
            "name": "EDNAX",
            "lat": 11.065308333333334,
            "lon": 65.99904721666667
        },
        {
            "name": "ILMAD",
            "lat": 11.048766666666667,
            "lon": 65.87983611666667
        },
        {
            "name": "RAXOD",
            "lat": 10.985130566666667,
            "lon": 66.10765
        },
        {
            "name": "RIXON",
            "lat": 11.182027783333334,
            "lon": 65.98246388333334
        },
        {
            "name": "SEKBA",
            "lat": 10.965333333333334,
            "lon": 66.27590833333333
        }
    ],
    "rnws": [
        "RNW 14",
        "RNW 32"
    ],
    "sids": [],
    "stars": [],
    "approaches": [
        {
            "name": "RNAVZ32",
            "fixes": {
                "BIXIN": "BIXIN AT OR ABOVE 3700",
                "EDNAX": "EDNAX 2100 RNW 32",
                "RAXOD": "RAXOD",
                "SEKBA": "OVERFLY SEKBA AT OR ABOVE 4000 HOLD AT SEKBA LEFT TURN INBOUNDCOURSE 106 LEGTIME 1 FAF EDNAX MAP RNW 32"
            },
            "transitions": [
                {
                    "name": "ILMAD",
                    "fixes": {
                        "ILMAD": "ILMAD AT OR ABOVE 5000"
                    }
                },
                {
                    "name": "RIXON",
                    "fixes": {
                        "RIXON": "RIXON AT OR ABOVE 5000"
                    }
                }
            ]
        }
    ]
}