{
    "fixes": [
        {
            "name": "AF001",
            "lat": 8.402600733333333,
            "lon": 62.880149716666665
        },
        {
            "name": "AF002",
            "lat": 8.384026,
            "lon": 62.89428831666667
        },
        {
            "name": "AF003",
            "lat": 8.130052916666667,
            "lon": 62.71895495
        },
        {
            "name": "AF004",
            "lat": 8.127087366666666,
            "lon": 62.74027911666667
        },
        {
            "name": "AF005",
            "lat": 8.129671966666667,
            "lon": 62.78512428333333
        },
        {
            "name": "AF006",
            "lat": 8.135687633333333,
            "lon": 62.80781293333333
        },
        {
            "name": "AF007",
            "lat": 8.162528316666666,
            "lon": 62.85743045
        },
        {
            "name": "AF008",
            "lat": 8.185385116666666,
            "lon": 62.8813562
        },
        {
            "name": "AF009",
            "lat": 8.328606933333333,
            "lon": 62.917607866666664
        },
        {
            "name": "AF010",
            "lat": 8.28887965,
            "lon": 62.92136836666667
        },
        {
            "name": "AF011",
            "lat": 8.249406416666666,
            "lon": 62.91547906666667
        },
        {
            "name": "ASUDO",
            "lat": 8.247516666666666,
            "lon": 62.978802783333336
        },
        {
            "name": "ATOGO",
            "lat": 8.307197216666667,
            "lon": 62.721833333333336
        },
        {
            "name": "BOKEM",
            "lat": 8.39635,
            "lon": 62.62048611666667
        },
        {
            "name": "CBL",
            "lat": 8.121277783333333,
            "lon": 63.532888883333335
        },
        {
            "name": "CMA",
            "lat": 6.25025,
            "lon": 62.85755556666667
        },
        {
            "name": "D115T",
            "lat": 8.234952783333334,
            "lon": 62.42192778333333
        },
        {
            "name": "D221J",
            "lat": 8.144063883333333,
            "lon": 62.82929443333333
        },
        {
            "name": "D255J",
            "lat": 8.212063883333334,
            "lon": 62.900005566666664
        },
        {
            "name": "D271J",
            "lat": 8.255561116666666,
            "lon": 62.916786116666664
        },
        {
            "name": "D309T",
            "lat": 8.437105566666666,
            "lon": 63.0567
        },
        {
            "name": "D333J",
            "lat": 8.419125,
            "lon": 62.863922216666666
        },
        {
            "name": "D333T",
            "lat": 8.544941666666666,
            "lon": 62.974916666666665
        },
        {
            "name": "D359T",
            "lat": 8.616291666666667,
            "lon": 62.841847216666665
        },
        {
            "name": "DALVA",
            "lat": 8.135833333333334,
            "lon": 62.69555556666667
        },
        {
            "name": "EDMAS",
            "lat": 8.142875,
            "lon": 62.92778611666667
        },
        {
            "name": "EGAXI",
            "lat": 8.126111116666667,
            "lon": 62.76194443333333
        },
        {
            "name": "EPANA",
            "lat": 7.7997499999999995,
            "lon": 62.775333333333336
        },
        {
            "name": "ESDUL",
            "lat": 8.269866666666667,
            "lon": 62.79899721666666
        },
        {
            "name": "ESUNO",
            "lat": 8.248841666666667,
            "lon": 62.568002783333334
        },
        {
            "name": "FF08",
            "lat": 8.228311116666667,
            "lon": 62.87060833333334
        },
        {
            "name": "FF224",
            "lat": 8.351283333333333,
            "lon": 62.719369433333334
        },
        {
            "name": "GEKEN",
            "lat": 8.221511116666667,
            "lon": 62.89890833333333
        },
        {
            "name": "GIDLO",
            "lat": 8.252561116666667,
            "lon": 62.83476111666667
        },
        {
            "name": "GNA",
            "lat": 8.293277783333334,
            "lon": 62.753
        },
        {
            "name": "IRILA",
            "lat": 8.292597216666667,
            "lon": 62.75202221666667
        },
        {
            "name": "ISEDI",
            "lat": 7.035555566666667,
            "lon": 62.31333333333333
        },
        {
            "name": "ISEKO",
            "lat": 8.364166666666666,
            "lon": 62.90555556666666
        },
        {
            "name": "ISLIM",
            "lat": 8.607444433333333,
            "lon": 62.836761116666665
        },
        {
            "name": "ITAMA",
            "lat": 8.956388883333334,
            "lon": 63.33861111666667
        },
        {
            "name": "KADUR",
            "lat": 8.433508333333334,
            "lon": 62.59428333333334
        },
        {
            "name": "KILOM",
            "lat": 8.217777783333334,
            "lon": 63.08055556666667
        },
        {
            "name": "LIVEM",
            "lat": 8.328863883333334,
            "lon": 62.543275
        },
        {
            "name": "LODAR",
            "lat": 8.354883333333333,
            "lon": 62.62318056666667
        },
        {
            "name": "MA08",
            "lat": 8.281097216666666,
            "lon": 62.77505278333334
        },
        {
            "name": "MIGED",
            "lat": 8.608083333333333,
            "lon": 63.41866666666667
        },
        {
            "name": "MIGEK",
            "lat": 8.32385,
            "lon": 62.68739166666667
        },
        {
            "name": "MUN",
            "lat": 9.743444433333334,
            "lon": 63.153166666666664
        },
        {
            "name": "OBGOL",
            "lat": 8.284497216666667,
            "lon": 62.76875278333333
        },
        {
            "name": "PI001",
            "lat": 8.343794833333334,
            "lon": 62.72352131666667
        },
        {
            "name": "PI002",
            "lat": 8.413019083333333,
            "lon": 62.74227178333334
        },
        {
            "name": "PI003",
            "lat": 8.437606466666667,
            "lon": 62.668754916666664
        },
        {
            "name": "RAVIE",
            "lat": 7.104722216666667,
            "lon": 62.80861111666667
        },
        {
            "name": "SOM",
            "lat": 8.941055566666666,
            "lon": 64.15775
        },
        {
            "name": "TOBLA",
            "lat": 8.058333333333334,
            "lon": 61.42916666666667
        }
    ],
    "rnws": [
        "RNW 08",
        "RNW 26"
    ],
    "sids": [
        {
            "name": "CBL1",
            "rnw": "01",
            "fixes": {},
            "sub_fixes": [
                {
                    "rwy": "RNW 08",
                    "fixes": {
                        "RNW 08": "RNW 08",
                        "ATOGO": "OVERFLY ATOGO TURN LEFT DIRECT",
                        "CBL": "CBL AT OR ABOVE 2500"
                    }
                },
                {
                    "rwy": "RNW 26",
                    "fixes": {
                        "RNW 26": "RNW 26",
                        "ESDUL": "OVERFLY ESDUL",
                        "CBL": "CBL AT OR ABOVE 2500"
                    }
                }
            ],
            "transitions": []
        },
        {
            "name": "EPAN1A",
            "rnw": "01",
            "fixes": {},
            "sub_fixes": [
                {
                    "rwy": "RNW 08",
                    "fixes": {
                        "RNW 08": "RNW 08",
                        "ATOGO": "OVERFLY ATOGO TURN RIGHT DIRECT",
                        "EPANA": "EPANA AT OR ABOVE 2200"
                    }
                },
                {
                    "rwy": "RNW 26",
                    "fixes": {
                        "RNW 26": "RNW 26",
                        "ESDUL": "OVERFLY ESDUL",
                        "EPANA": "EPANA AT OR ABOVE 2200"
                    }
                }
            ],
            "transitions": [
                {
                    "name": "CMA",
                    "fixes": [
                        "CMA"
                    ]
                }
            ]
        },
        {
            "name": "EPANA1",
            "rnw": "08",
            "fixes": {
                "GNA": "GNA TURN RIGHT HDG 226 INTERCEPT RADIAL 197 TO",
                "EPANA": "EPANA",
                "RAVIE": "RAVIE"
            },
            "sub_fixes": [],
            "transitions": []
        },
        {
            "name": "GNA1",
            "rnw": "08",
            "fixes": {
                "GNA": "GNA AT OR ABOVE 7000"
            },
            "sub_fixes": [],
            "transitions": [
                {
                    "name": "CBL",
                    "fixes": [
                        "CBL"
                    ]
                },
                {
                    "name": "ITAMA",
                    "fixes": [
                        "ITAMA"
                    ]
                },
                {
                    "name": "MIGED",
                    "fixes": [
                        "MIGED"
                    ]
                },
                {
                    "name": "MUN",
                    "fixes": [
                        "MUN"
                    ]
                }
            ]
        },
        {
            "name": "MIGED1",
            "rnw": "08",
            "fixes": {},
            "sub_fixes": [
                {
                    "rwy": "RNW 08",
                    "fixes": {
                        "RNW 08": "RNW 08",
                        "ATOGO": "OVERFLY ATOGO TURN LEFT DIRECT",
                        "MIGED": "MIGED AT OR ABOVE 2000"
                    }
                },
                {
                    "rwy": "RNW 26",
                    "fixes": {
                        "RNW 26": "RNW 26",
                        "ESDUL": "OVERFLY ESDUL",
                        "MIGED": "MIGED AT OR ABOVE 2000"
                    }
                }
            ],
            "transitions": [
                {
                    "name": "SOM",
                    "fixes": [
                        "SOM"
                    ]
                }
            ]
        },
        {
            "name": "TOBLA1",
            "rnw": "08",
            "fixes": {
                "GNA": "GNA HDG 146 INTERCEPT RADIAL 115 TO",
                "D115T": "D115T AT OR BELOW 5000",
                "TOBLA": "TOBLA"
            },
            "sub_fixes": [],
            "transitions": []
        }
    ],
    "stars": [
        {
            "name": "DALVA1",
            "runway": "RNW 08",
            "fixes": {
                "ISEDI": "ISEDI",
                "DALVA": "DALVA AT OR ABOVE 5000"
            }
        },
        {
            "name": "EGAXI1",
            "runway": "RNW 08",
            "fixes": {
                "RAVIE": "RAVIE",
                "EPANA": "EPANA AT OR ABOVE 6000",
                "EGAXI": "EGAXI AT OR ABOVE 5000"
            }
        },
        {
            "name": "ITAMA1",
            "runway": "RNW 08",
            "fixes": {
                "ITAMA": "ITAMA",
                "D333T": "D333T AT OR ABOVE 4000",
                "D333J": "D333J",
                "AF001": "AF001",
                "AF002": "AF002",
                "ISEKO": "ISEKO AT OR ABOVE 3000"
            }
        },
        {
            "name": "KILOM1",
            "runway": "RNW 08",
            "fixes": {
                "CBL": "CBL",
                "KILOM": "KILOM AT OR ABOVE 4000"
            }
        },
        {
            "name": "MIGED1",
            "runway": "RNW 08",
            "fixes": {
                "MIGED": "MIGED",
                "D309T": "D309T AT OR ABOVE 4000",
                "ISEKO": "ISEKO AT OR ABOVE 3000"
            }
        },
        {
            "name": "MUN1",
            "runway": "RNW 08",
            "fixes": {
                "MUN": "MUN",
                "D359T": "D359T",
                "GNA": "GNA AT OR ABOVE 4000"
            }
        },
        {
            "name": "TOBLA1",
            "runway": "RNW 08",
            "fixes": {
                "TOBLA": "TOBLA",
                "D115T": "D115T AT OR ABOVE 6000",
                "GNA": "GNA AT OR ABOVE 5000"
            }
        }
    ],
    "approaches": [
        {
            "name": "VORD08",
            "fixes": {
                "FF08": "FF08 2500",
                "MA08": "MA08 630 RNW 08",
                "GNA": "GNA",
                "BOKEM": "BOKEM AT OR ABOVE 4000 FAF FF08 MAP MA08"
            },
            "transitions": [
                {
                    "name": "DALVA",
                    "fixes": {
                        "DALVA": "DALVA",
                        "AF003": "AF003",
                        "AF004": "AF004",
                        "EGAXI": "EGAXI AT OR ABOVE 5000",
                        "AF005": "AF005",
                        "AF006": "AF006",
                        "D221J": "D221J AT OR ABOVE 3000",
                        "AF007": "AF007",
                        "AF008": "AF008",
                        "D255J": "D255J AT OR ABOVE 2500"
                    }
                },
                {
                    "name": "ITAMA",
                    "fixes": {
                        "ITAMA": "ITAMA AT OR ABOVE 4000",
                        "D333J": "D333J",
                        "AF001": "AF001",
                        "AF002": "AF002",
                        "ISEKO": "ISEKO AT OR ABOVE 3000",
                        "AF009": "AF009",
                        "AF010": "AF010",
                        "AF011": "AF011",
                        "D255J": "D255J AT OR ABOVE 2500"
                    }
                },
                {
                    "name": "KILOM",
                    "fixes": {
                        "KILOM": "KILOM AT OR ABOVE 4000",
                        "D271J": "D271J AT OR ABOVE 3000",
                        "D255J": "D255J AT OR ABOVE 2500"
                    }
                },
                {
                    "name": "MIGED",
                    "fixes": {
                        "MIGED": "MIGED AT OR ABOVE 4000",
                        "ISEKO": "ISEKO AT OR ABOVE 4000",
                        "AF009": "AF009",
                        "AF010": "AF010",
                        "AF011": "AF011",
                        "D255J": "D255J AT OR ABOVE 2500"
                    }
                },
                {
                    "name": "MUN",
                    "fixes": {
                        "MUN": "MUN",
                        "GNA": "GNA AT OR ABOVE 4000 TRK 279 UNTIL 8.0 FROM GNA"
                    }
                }
            ]
        },
        {
            "name": "RNAVY08",
            "fixes": {
                "GEKEN": "GEKEN AT OR ABOVE 3300",
                "GIDLO": "GIDLO 1900 RNW 08",
                "IRILA": "OVERFLY IRILA TURN LEFT DIRECT",
                "ASUDO": "OVERFLY ASUDO AT OR ABOVE 4300 HOLD AT ASUDO RIGHT TURN INBOUNDCOURSE 122 LEGDIST 4 FAF GIDLO MAP RNW 08"
            },
            "transitions": [
                {
                    "name": "EPANA",
                    "fixes": {
                        "EPANA": "EPANA",
                        "EDMAS": "EDMAS AT OR ABOVE 3300"
                    }
                },
                {
                    "name": "SOM",
                    "fixes": {
                        "SOM": "SOM",
                        "MIGED": "MIGED AT OR ABOVE 3300",
                        "ASUDO": "ASUDO AT OR ABOVE 3300"
                    }
                }
            ]
        },
        {
            "name": "RNAVZ08",
            "fixes": {
                "GEKEN": "GEKEN AT OR ABOVE 3300",
                "GIDLO": "GIDLO 1900 RNW 08",
                "IRILA": "OVERFLY IRILA TURN LEFT DIRECT",
                "ASUDO": "OVERFLY ASUDO AT OR ABOVE 4300 HOLD AT ASUDO RIGHT TURN INBOUNDCOURSE 122 LEGDIST 4 FAF GIDLO MAP RNW 08"
            },
            "transitions": [
                {
                    "name": "EPANA",
                    "fixes": {
                        "EPANA": "EPANA",
                        "EDMAS": "EDMAS AT OR ABOVE 3300"
                    }
                },
                {
                    "name": "SOM",
                    "fixes": {
                        "SOM": "SOM",
                        "MIGED": "MIGED AT OR ABOVE 3300",
                        "ASUDO": "ASUDO AT OR ABOVE 3300"
                    }
                }
            ]
        },
        {
            "name": "RNAVY26",
            "fixes": {
                "LODAR": "LODAR AT OR ABOVE 3300",
                "MIGEK": "MIGEK 1900 RNW 26",
                "OBGOL": "OVERFLY OBGOL TURN RIGHT DIRECT",
                "KADUR": "OVERFLY KADUR AT OR ABOVE 4300 HOLD AT KADUR RIGHT TURN INBOUNDCOURSE 214 LEGDIST 4 FAF MIGEK MAP RNW 26"
            },
            "transitions": [
                {
                    "name": "EPANA",
                    "fixes": {
                        "EPANA": "EPANA",
                        "ESUNO": "ESUNO AT OR ABOVE 3300",
                        "LIVEM": "LIVEM AT OR ABOVE 3300"
                    }
                },
                {
                    "name": "SOM",
                    "fixes": {
                        "SOM": "SOM",
                        "MIGED": "MIGED AT OR ABOVE 3300",
                        "ISLIM": "ISLIM AT OR ABOVE 3300",
                        "KADUR": "KADUR AT OR ABOVE 3300"
                    }
                }
            ]
        },
        {
            "name": "RNAVZ26",
            "fixes": {
                "LODAR": "LODAR AT OR ABOVE 3300",
                "MIGEK": "MIGEK 1900 RNW 26",
                "OBGOL": "OVERFLY OBGOL TURN RIGHT DIRECT",
                "KADUR": "OVERFLY KADUR AT OR ABOVE 4300 HOLD AT KADUR RIGHT TURN INBOUNDCOURSE 214 LEGDIST 4 FAF MIGEK MAP RNW 26"
            },
            "transitions": [
                {
                    "name": "EPANA",
                    "fixes": {
                        "EPANA": "EPANA",
                        "ESUNO": "ESUNO AT OR ABOVE 3300",
                        "LIVEM": "LIVEM AT OR ABOVE 3300"
                    }
                },
                {
                    "name": "SOM",
                    "fixes": {
                        "SOM": "SOM",
                        "MIGED": "MIGED AT OR ABOVE 3300",
                        "ISLIM": "ISLIM AT OR ABOVE 3300",
                        "KADUR": "KADUR AT OR ABOVE 3300"
                    }
                }
            ]
        },
        {
            "name": "VORC08",
            "fixes": {
                "FF224": "FF224 1500",
                "GNA": "GNA 1250 RNW 08 TRK 224 UNTIL 1250 TURN LEFT DIRECT GNA 3000 HOLD AT GNA RIGHT TURN INBOUNDCOURSE 044 ALT 3000 LEGTIME 1 FAF FF224 MAP GNA"
            },
            "transitions": [
                {
                    "name": "GNA",
                    "fixes": {
                        "GNA": "GNA AT OR ABOVE 3000",
                        "PI001": "PI001 AT OR ABOVE 1500 SPEED 210",
                        "PI002": "OVERFLY PI002 AT OR ABOVE 1500 SPEED 210",
                        "PI003": "PI003 AT OR ABOVE 1500 SPEED 210"
                    }
                }
            ]
        },
        {
            "name": "VORC26",
            "fixes": {
                "FF224": "FF224 1500",
                "GNA": "GNA 1250 RNW 26 TRK 224 UNTIL 1250 TURN LEFT DIRECT GNA 3000 HOLD AT GNA RIGHT TURN INBOUNDCOURSE 044 ALT 3000 LEGTIME 1 FAF FF224 MAP GNA"
            },
            "transitions": [
                {
                    "name": "GNA",
                    "fixes": {
                        "GNA": "GNA AT OR ABOVE 3000",
                        "PI001": "PI001 AT OR ABOVE 1500 SPEED 210",
                        "PI002": "OVERFLY PI002 AT OR ABOVE 1500 SPEED 210",
                        "PI003": "PI003 AT OR ABOVE 1500 SPEED 210"
                    }
                }
            ]
        }
    ]
}