{
    "fixes": [
        {
            "name": "6NM",
            "lat": 13.537775,
            "lon": 61.180444433333335
        },
        {
            "name": "BNENB",
            "lat": 13.73365,
            "lon": 60.977386116666665
        },
        {
            "name": "DERMI",
            "lat": 13.961875,
            "lon": 61.21401388333334
        },
        {
            "name": "FN09",
            "lat": 14.010783333333332,
            "lon": 61.103963883333336
        },
        {
            "name": "FOF",
            "lat": 14.590747216666667,
            "lon": 61.02280833333333
        },
        {
            "name": "ILOGO",
            "lat": 13.833683333333333,
            "lon": 61.21387778333333
        },
        {
            "name": "KISES",
            "lat": 14.186388883333333,
            "lon": 61.001111116666664
        },
        {
            "name": "LIDOG",
            "lat": 13.632811116666666,
            "lon": 61.213661116666664
        },
        {
            "name": "NUKAK",
            "lat": 14.146983333333333,
            "lon": 61.17511388333333
        },
        {
            "name": "OMTIN",
            "lat": 14.042680566666666,
            "lon": 61.236347216666665
        },
        {
            "name": "PUREX",
            "lat": 14.011583333333334,
            "lon": 61.025086116666664
        },
        {
            "name": "RIBOR",
            "lat": 13.380555566666667,
            "lon": 61.12555556666667
        },
        {
            "name": "SAVEL",
            "lat": 13.994472216666667,
            "lon": 61.09018888333333
        },
        {
            "name": "SLUNB",
            "lat": 14.014141666666667,
            "lon": 61.006058333333335
        },
        {
            "name": "TUBED",
            "lat": 13.733247216666667,
            "lon": 61.21376943333333
        },
        {
            "name": "UMENU",
            "lat": 13.416369433333333,
            "lon": 61.20431943333333
        }
    ],
    "rnws": [
        "RNW 09",
        "RNW 27"
    ],
    "sids": [],
    "stars": [],
    "approaches": [
        {
            "name": "NDB09",
            "fixes": {
                "FN09": "FN09 2000",
                "SLUNB": "SLUNB 201 RNW 09 TRK 103 UNTIL 430 HDG 000 UNTIL 4200 TURN LEFT DIRECT SLUNB HOLD AT SLUNB RIGHT TURN INBOUNDCOURSE 263 ALT 4200 LEGTIME 1 FAF FN09 MAP SLU"
            },
            "transitions": [
                {
                    "name": "SLU",
                    "fixes": {
                        "SLUNB": "SLUNB AT OR ABOVE 4200 TRK 263 UNTIL 7.0 FROM SLUNB"
                    }
                }
            ]
        },
        {
            "name": "RNAV09",
            "fixes": {
                "DERMI": "DERMI AT OR ABOVE 2000 OVERFLY DERMI 2000 HOLD AT DERMI RIGHT TURN INBOUNDCOURSE 090 SPEED 170 LEGDIST 4 FAF SAVEL MAP PUREX",
                "SAVEL": "SAVEL 1800",
                "PUREX": "OVERFLY PUREX 548 RNW 09 TURN LEFT DIRECT"
            },
            "transitions": [
                {
                    "name": "BNE",
                    "fixes": {
                        "BNENB": "BNENB AT OR ABOVE 4000",
                        "ILOGO": "ILOGO AT OR ABOVE 4000"
                    }
                },
                {
                    "name": "DERMI",
                    "fixes": {
                        "DERMI": "DERMI RIGHT TURN INBOUNDCOURSE 090 ALT 2000 SPEED 170 LEGDIST 4"
                    }
                },
                {
                    "name": "FOF",
                    "fixes": {
                        "FOF": "FOF",
                        "NUKAK": "NUKAK AT OR ABOVE 3000",
                        "OMTIN": "OMTIN AT OR ABOVE 2000"
                    }
                },
                {
                    "name": "KISES",
                    "fixes": {
                        "KISES": "KISES AT OR ABOVE 6100",
                        "OMTIN": "OMTIN AT OR ABOVE 2000"
                    }
                },
                {
                    "name": "RIBOR",
                    "fixes": {
                        "RIBOR": "RIBOR AT OR ABOVE 6000",
                        "6NM": "6NM AT OR ABOVE 4000",
                        "LIDOG": "LIDOG AT OR ABOVE 3000",
                        "TUBED": "TUBED AT OR ABOVE 2000",
                        "ILOGO": "ILOGO AT OR ABOVE 2000"
                    }
                },
                {
                    "name": "UMENU",
                    "fixes": {
                        "UMENU": "UMENU AT OR ABOVE 6000",
                        "LIDOG": "LIDOG AT OR ABOVE 3000",
                        "TUBED": "TUBED AT OR ABOVE 2000",
                        "ILOGO": "ILOGO AT OR ABOVE 2000"
                    }
                }
            ]
        }
    ]
}