{
    "fixes": [
        {
            "name": "BAMEN",
            "lat": 58.90027778333334,
            "lon": 91.84777778333333
        },
        {
            "name": "BORKI",
            "lat": 58.03027778333333,
            "lon": 92.24944443333334
        },
        {
            "name": "D013I",
            "lat": 58.34555556666667,
            "lon": 92.01333333333334
        },
        {
            "name": "D017H",
            "lat": 58.586666666666666,
            "lon": 92.21666666666667
        },
        {
            "name": "D255D",
            "lat": 58.504269433333334,
            "lon": 92.243375
        },
        {
            "name": "DOBAL",
            "lat": 58.90861111666667,
            "lon": 92.32333333333334
        },
        {
            "name": "EKSEL",
            "lat": 58.508888883333334,
            "lon": 91.25861111666667
        },
        {
            "name": "ENS",
            "lat": 58.4675,
            "lon": 92.12
        },
        {
            "name": "FN17",
            "lat": 58.542777783333335,
            "lon": 92.08944443333333
        },
        {
            "name": "FN35",
            "lat": 58.39,
            "lon": 92.13833333333334
        },
        {
            "name": "GORIP",
            "lat": 58.03722221666666,
            "lon": 91.91083333333333
        },
        {
            "name": "KORON",
            "lat": 58.468611116666665,
            "lon": 92.97027778333333
        },
        {
            "name": "MN17",
            "lat": 58.509933333333336,
            "lon": 92.100425
        },
        {
            "name": "MN35",
            "lat": 58.42969721666667,
            "lon": 92.12741111666666
        },
        {
            "name": "MOLUR",
            "lat": 58.26555556666667,
            "lon": 91.35583333333334
        },
        {
            "name": "NERIM",
            "lat": 58.868888883333334,
            "lon": 91.70555556666666
        },
        {
            "name": "RD",
            "lat": 58.493888883333334,
            "lon": 92.10583333333334
        },
        {
            "name": "SUPIT",
            "lat": 58.65055556666667,
            "lon": 92.9025
        }
    ],
    "rnws": [
        "RNW 17",
        "RNW 35"
    ],
    "sids": [
        {
            "name": "BAMEN1",
            "rnw": "17",
            "fixes": {
                "ENS": "ENS TURN LEFT DIRECT",
                "BAMEN": "BAMEN AT OR ABOVE 7000"
            },
            "sub_fixes": [],
            "transitions": []
        },
        {
            "name": "BAMEN3",
            "rnw": "35",
            "fixes": {
                "BAMEN": "BAMEN AT OR ABOVE 7000"
            },
            "sub_fixes": [],
            "transitions": []
        },
        {
            "name": "BORKI1",
            "rnw": "17",
            "fixes": {
                "BORKI": "BORKI AT OR ABOVE 7000"
            },
            "sub_fixes": [],
            "transitions": []
        },
        {
            "name": "BORKI3",
            "rnw": "35",
            "fixes": {
                "BORKI": "BORKI AT OR ABOVE 7000"
            },
            "sub_fixes": [],
            "transitions": []
        },
        {
            "name": "DOBAL1",
            "rnw": "17",
            "fixes": {
                "ENS": "ENS TURN LEFT DIRECT",
                "DOBAL": "DOBAL AT OR ABOVE 7000"
            },
            "sub_fixes": [],
            "transitions": []
        },
        {
            "name": "DOBAL3",
            "rnw": "35",
            "fixes": {
                "DOBAL": "DOBAL AT OR ABOVE 7000"
            },
            "sub_fixes": [],
            "transitions": []
        },
        {
            "name": "EKSEL1",
            "rnw": "17",
            "fixes": {
                "EKSEL": "EKSEL AT OR ABOVE 7000"
            },
            "sub_fixes": [],
            "transitions": []
        },
        {
            "name": "EKSEL3",
            "rnw": "35",
            "fixes": {
                "EKSEL": "EKSEL AT OR ABOVE 7000"
            },
            "sub_fixes": [],
            "transitions": []
        },
        {
            "name": "GORIP1",
            "rnw": "17",
            "fixes": {
                "GORIP": "GORIP AT OR ABOVE 7000"
            },
            "sub_fixes": [],
            "transitions": []
        },
        {
            "name": "GORIP3",
            "rnw": "35",
            "fixes": {
                "GORIP": "GORIP AT OR ABOVE 7000"
            },
            "sub_fixes": [],
            "transitions": []
        },
        {
            "name": "KORON1",
            "rnw": "17",
            "fixes": {
                "ENS": "ENS",
                "KORON": "KORON AT OR ABOVE 7000"
            },
            "sub_fixes": [],
            "transitions": []
        },
        {
            "name": "KORON3",
            "rnw": "35",
            "fixes": {
                "KORON": "KORON AT OR ABOVE 7000"
            },
            "sub_fixes": [],
            "transitions": []
        },
        {
            "name": "MOLUR1",
            "rnw": "17",
            "fixes": {
                "MOLUR": "MOLUR AT OR ABOVE 7000"
            },
            "sub_fixes": [],
            "transitions": []
        },
        {
            "name": "MOLUR3",
            "rnw": "35",
            "fixes": {
                "MOLUR": "MOLUR AT OR ABOVE 7000"
            },
            "sub_fixes": [],
            "transitions": []
        },
        {
            "name": "NERIM1",
            "rnw": "17",
            "fixes": {
                "ENS": "ENS TURN LEFT DIRECT",
                "NERIM": "NERIM AT OR ABOVE 7000"
            },
            "sub_fixes": [],
            "transitions": []
        },
        {
            "name": "NERIM3",
            "rnw": "35",
            "fixes": {
                "NERIM": "NERIM AT OR ABOVE 7000"
            },
            "sub_fixes": [],
            "transitions": []
        },
        {
            "name": "SUPIT1",
            "rnw": "17",
            "fixes": {
                "ENS": "ENS TURN LEFT DIRECT",
                "SUPIT": "SUPIT AT OR ABOVE 7000"
            },
            "sub_fixes": [],
            "transitions": []
        },
        {
            "name": "SUPIT3",
            "rnw": "35",
            "fixes": {
                "SUPIT": "SUPIT AT OR ABOVE 7000"
            },
            "sub_fixes": [],
            "transitions": []
        }
    ],
    "stars": [
        {
            "name": "BAMEN2",
            "runway": "RNW 17 RNW 35",
            "fixes": {
                "BAMEN": "BAMEN AT OR ABOVE 7000",
                "RD": "RD 4000"
            }
        },
        {
            "name": "DOBAL2",
            "runway": "RNW 17 RNW 35",
            "fixes": {
                "DOBAL": "DOBAL AT OR ABOVE 7000",
                "RD": "RD 4000"
            }
        },
        {
            "name": "EKSEL2",
            "runway": "RNW 17 RNW 35",
            "fixes": {
                "EKSEL": "EKSEL AT OR ABOVE 7000",
                "RD": "RD 4000"
            }
        },
        {
            "name": "GORIP2",
            "runway": "RNW 17 RNW 35",
            "fixes": {
                "GORIP": "GORIP AT OR ABOVE 7000",
                "RD": "RD 4000"
            }
        },
        {
            "name": "KORON2",
            "runway": "RNW 17 RNW 35",
            "fixes": {
                "KORON": "KORON AT OR ABOVE 7000",
                "RD": "RD 4000"
            }
        },
        {
            "name": "MOLUR2",
            "runway": "RNW 17 RNW 35",
            "fixes": {
                "MOLUR": "MOLUR AT OR ABOVE 7000",
                "RD": "RD 4000"
            }
        },
        {
            "name": "NERIM2",
            "runway": "RNW 17 RNW 35",
            "fixes": {
                "NERIM": "NERIM AT OR ABOVE 7000",
                "RD": "RD 4000"
            }
        },
        {
            "name": "SUPIT2",
            "runway": "RNW 17 RNW 35",
            "fixes": {
                "SUPIT": "SUPIT AT OR ABOVE 7000",
                "RD": "RD 4000"
            }
        }
    ],
    "approaches": [
        {
            "name": "NDB17",
            "fixes": {
                "FN17": "FN17 1570",
                "MN17": "MN17 855 RNW 17 TRK 165 UNTIL 910 TURN LEFT DIRECT",
                "D255D": "D255D 1900",
                "D017H": "D017H 1900 FAF FN17 MAP MN17"
            },
            "transitions": []
        },
        {
            "name": "NDB35",
            "fixes": {
                "FN35": "FN35 1570",
                "MN35": "MN35 911 RNW 35 TRK 345 UNTIL 911 TURN LEFT DIRECT",
                "D013I": "D013I 1890 FAF FN35 MAP MN35"
            },
            "transitions": []
        }
    ]
}