{
    "fixes": [
        {
            "name": "BASKO",
            "lat": 46.2,
            "lon": 46.84861111666667
        },
        {
            "name": "CF09",
            "lat": 46.295330566666664,
            "lon": 47.847155566666665
        },
        {
            "name": "CF27",
            "lat": 46.26935833333334,
            "lon": 48.17266111666667
        },
        {
            "name": "D087I",
            "lat": 46.265,
            "lon": 48.22833333333333
        },
        {
            "name": "D098J",
            "lat": 46.233333333333334,
            "lon": 48.235
        },
        {
            "name": "D116J",
            "lat": 46.185,
            "lon": 48.203888883333335
        },
        {
            "name": "D120I",
            "lat": 46.18333333333333,
            "lon": 48.18333333333333
        },
        {
            "name": "D143E",
            "lat": 46.20333333333333,
            "lon": 48.07
        },
        {
            "name": "D239I",
            "lat": 46.22666666666667,
            "lon": 47.81
        },
        {
            "name": "D244G",
            "lat": 46.252541666666666,
            "lon": 47.78046388333333
        },
        {
            "name": "D255G",
            "lat": 46.273325,
            "lon": 47.7615
        },
        {
            "name": "D258J",
            "lat": 46.27166666666667,
            "lon": 47.775
        },
        {
            "name": "D266I",
            "lat": 46.29333333333334,
            "lon": 47.79333333333334
        },
        {
            "name": "D268G",
            "lat": 46.30076111666666,
            "lon": 47.77300833333334
        },
        {
            "name": "D271I",
            "lat": 46.306666666666665,
            "lon": 47.79666666666667
        },
        {
            "name": "D294V",
            "lat": 46.475,
            "lon": 47.568333333333335
        },
        {
            "name": "FF09",
            "lat": 46.291666666666664,
            "lon": 47.895
        },
        {
            "name": "G",
            "lat": 46.285555566666666,
            "lon": 47.97847221666667
        },
        {
            "name": "GVNB",
            "lat": 46.28869443333333,
            "lon": 47.940361116666665
        },
        {
            "name": "OMIRA",
            "lat": 46.695,
            "lon": 47.071944433333336
        },
        {
            "name": "UPNB",
            "lat": 45.927222216666664,
            "lon": 47.06027778333333
        },
        {
            "name": "ZGNB",
            "lat": 46.19,
            "lon": 48.600833333333334
        }
    ],
    "rnws": [
        "RNW 09",
        "RNW 27"
    ],
    "sids": [
        {
            "name": "BASK1A",
            "rnw": "09",
            "fixes": {
                "GVNB": "GVNB",
                "BASKO": "BASKO AT OR ABOVE 12000"
            },
            "sub_fixes": [],
            "transitions": []
        },
        {
            "name": "BASK1B",
            "rnw": "09",
            "fixes": {
                "BASKO": "BASKO AT OR ABOVE 12000"
            },
            "sub_fixes": [],
            "transitions": []
        },
        {
            "name": "BASK3A",
            "rnw": "27",
            "fixes": {
                "BASKO": "BASKO AT OR ABOVE 12000"
            },
            "sub_fixes": [],
            "transitions": []
        },
        {
            "name": "OMIR1A",
            "rnw": "09",
            "fixes": {
                "GVNB": "GVNB",
                "OMIRA": "OMIRA AT OR ABOVE 6000"
            },
            "sub_fixes": [],
            "transitions": []
        },
        {
            "name": "OMIR3A",
            "rnw": "27",
            "fixes": {
                "OMIRA": "OMIRA AT OR ABOVE 6000"
            },
            "sub_fixes": [],
            "transitions": []
        },
        {
            "name": "OMIR3B",
            "rnw": "27",
            "fixes": {
                "OMIRA": "OMIRA AT OR ABOVE 6000"
            },
            "sub_fixes": [],
            "transitions": []
        },
        {
            "name": "UP1A",
            "rnw": "09",
            "fixes": {
                "UPNB": "UPNB AT OR ABOVE 6000"
            },
            "sub_fixes": [],
            "transitions": []
        },
        {
            "name": "UP1B",
            "rnw": "09",
            "fixes": {
                "UPNB": "UPNB AT OR ABOVE 6000"
            },
            "sub_fixes": [],
            "transitions": []
        },
        {
            "name": "UP3A",
            "rnw": "27",
            "fixes": {
                "UPNB": "UPNB AT OR ABOVE 6000"
            },
            "sub_fixes": [],
            "transitions": []
        },
        {
            "name": "ZG1A",
            "rnw": "09",
            "fixes": {
                "ZGNB": "ZGNB AT OR ABOVE 7000"
            },
            "sub_fixes": [],
            "transitions": []
        },
        {
            "name": "ZG3A",
            "rnw": "27",
            "fixes": {
                "ZGNB": "ZGNB AT OR ABOVE 7000"
            },
            "sub_fixes": [],
            "transitions": []
        }
    ],
    "stars": [
        {
            "name": "OMIR2A",
            "runway": "RNW 27",
            "fixes": {
                "OMIRA": "OMIRA",
                "D294V": "D294V AT OR BELOW 13000 AT OR ABOVE 5000",
                "G": "G 5000"
            }
        },
        {
            "name": "OMIR2B",
            "runway": "RNW 27",
            "fixes": {
                "OMIRA": "OMIRA",
                "D294V": "D294V AT OR BELOW 13000 AT OR ABOVE 5000",
                "G": "G",
                "D143E": "OVERFLY D143E 1900",
                "D120I": "OVERFLY D120I 1900",
                "D098J": "OVERFLY D098J 1580",
                "CF27": "CF27 1250"
            }
        },
        {
            "name": "OMIR4A",
            "runway": "RNW 09",
            "fixes": {
                "OMIRA": "OMIRA",
                "D294V": "D294V AT OR BELOW 13000 AT OR ABOVE 5000",
                "GVNB": "GVNB 5000"
            }
        },
        {
            "name": "OMIR4B",
            "runway": "RNW 09",
            "fixes": {
                "OMIRA": "OMIRA",
                "D294V": "D294V AT OR BELOW 7000 AT OR ABOVE 5000",
                "D271I": "OVERFLY D271I 1570",
                "CF09": "CF09 1250"
            }
        },
        {
            "name": "UP2A",
            "runway": "RNW 27",
            "fixes": {
                "UPNB": "UPNB AT OR BELOW 20000 AT OR ABOVE 5000",
                "G": "G 5000"
            }
        },
        {
            "name": "UP2B",
            "runway": "RNW 27",
            "fixes": {
                "UPNB": "UPNB AT OR BELOW 20000 AT OR ABOVE 5000",
                "D116J": "OVERFLY D116J 1900",
                "D098J": "OVERFLY D098J 1580",
                "CF27": "CF27 1250"
            }
        },
        {
            "name": "UP4A",
            "runway": "RNW 09",
            "fixes": {
                "UPNB": "UPNB AT OR BELOW 20000 AT OR ABOVE 5000",
                "GVNB": "GVNB 5000"
            }
        },
        {
            "name": "UP4B",
            "runway": "RNW 09",
            "fixes": {
                "UPNB": "UPNB AT OR BELOW 18000 AT OR ABOVE 5000",
                "D266I": "OVERFLY D266I 1570",
                "CF09": "CF09 1250"
            }
        },
        {
            "name": "ZG2A",
            "runway": "RNW 27",
            "fixes": {
                "ZGNB": "ZGNB AT OR BELOW 9000 AT OR ABOVE 5000",
                "D087I": "D087I 1900",
                "CF27": "CF27 1250"
            }
        },
        {
            "name": "ZG2B",
            "runway": "RNW 27",
            "fixes": {
                "ZGNB": "ZGNB AT OR BELOW 9000 AT OR ABOVE 5000",
                "D087I": "D087I 1580",
                "CF27": "CF27 1250"
            }
        },
        {
            "name": "ZG4A",
            "runway": "RNW 09",
            "fixes": {
                "ZGNB": "ZGNB AT OR BELOW 17000 AT OR ABOVE 5000",
                "GVNB": "GVNB 5000"
            }
        },
        {
            "name": "ZG4B",
            "runway": "RNW 09",
            "fixes": {
                "ZGNB": "ZGNB AT OR BELOW 17000 AT OR ABOVE 5000",
                "D239I": "OVERFLY D239I 1900 TURN RIGHT DIRECT",
                "D258J": "OVERFLY D258J 1570",
                "CF09": "CF09 1250"
            }
        }
    ],
    "approaches": [
        {
            "name": "NDBDX09",
            "fixes": {
                "FF09": "FF09 1250",
                "GVNB": "GVNB 650",
                "G": "G 134 RNW 09 TRK 088 UNTIL 590",
                "ZGNB": "ZGNB 5000 FAF FF09 MAP G"
            },
            "transitions": [
                {
                    "name": "GV1",
                    "fixes": {
                        "GVNB": "GVNB 5000",
                        "D255G": "OVERFLY D255G AT OR ABOVE 1900 TURN RIGHT DIRECT",
                        "D268G": "D268G AT OR ABOVE 1900"
                    }
                }
            ]
        },
        {
            "name": "NDBDY09",
            "fixes": {
                "FF09": "FF09 1250",
                "GVNB": "GVNB 650",
                "G": "G 134 RNW 09 TRK 088 UNTIL 590",
                "ZGNB": "ZGNB 5000 FAF FF09 MAP G"
            },
            "transitions": [
                {
                    "name": "GV1",
                    "fixes": {
                        "GVNB": "GVNB 5000",
                        "D244G": "OVERFLY D244G AT OR ABOVE 1900 TURN RIGHT DIRECT",
                        "D268G": "D268G AT OR ABOVE 1900"
                    }
                }
            ]
        },
        {
            "name": "NDBDZ09",
            "fixes": {
                "FF09": "FF09 1250",
                "GVNB": "GVNB 650",
                "G": "G 134 RNW 09 TRK 088 UNTIL 590 TRK 268 UNTIL 1900 HDG 268 VECTORS FAF FF09 MAP G"
            },
            "transitions": [
                {
                    "name": "D239I",
                    "fixes": {
                        "D239I": "D239I 1900 TURN RIGHT DIRECT",
                        "D258J": "OVERFLY D258J 1570"
                    }
                }
            ]
        }
    ]
}