{
    "fixes": [
        {
            "name": "34DME",
            "lat": 22.278952783333335,
            "lon": 113.84450278333334
        },
        {
            "name": "45DME",
            "lat": 22.331125,
            "lon": 114.00644721666667
        },
        {
            "name": "46DME",
            "lat": 22.356016666666665,
            "lon": 113.989225
        },
        {
            "name": "92DME",
            "lat": 22.356791666666666,
            "lon": 114.08635278333334
        },
        {
            "name": "93DME",
            "lat": 22.381683333333335,
            "lon": 114.06910833333333
        },
        {
            "name": "ABBEY",
            "lat": 22.26972221666667,
            "lon": 114.92386666666667
        },
        {
            "name": "ALAPI",
            "lat": 22.164688883333334,
            "lon": 114.20363611666667
        },
        {
            "name": "ARGON",
            "lat": 22.197933333333335,
            "lon": 113.72990833333333
        },
        {
            "name": "ATENA",
            "lat": 22.411069433333335,
            "lon": 114.38663333333334
        },
        {
            "name": "BEKOL",
            "lat": 22.543333333333333,
            "lon": 114.13333333333334
        },
        {
            "name": "BETTY",
            "lat": 21.48633888333333,
            "lon": 114.55886666666666
        },
        {
            "name": "BOKAG",
            "lat": 22.529625,
            "lon": 114.22418333333333
        },
        {
            "name": "BORDA",
            "lat": 21.692325,
            "lon": 113.40805833333333
        },
        {
            "name": "BREAM",
            "lat": 21.77944443333333,
            "lon": 114.05777778333334
        },
        {
            "name": "CANTO",
            "lat": 21.650730566666667,
            "lon": 113.70696943333333
        },
        {
            "name": "COLEY",
            "lat": 22.111397216666667,
            "lon": 114.31045278333333
        },
        {
            "name": "D074S",
            "lat": 22.404566666666668,
            "lon": 114.23548333333333
        },
        {
            "name": "DE07L",
            "lat": 22.332302783333333,
            "lon": 113.91555
        },
        {
            "name": "DE25R",
            "lat": 22.321075,
            "lon": 113.88069721666666
        },
        {
            "name": "FF25L",
            "lat": 22.370975,
            "lon": 114.13056943333333
        },
        {
            "name": "FI25L",
            "lat": 22.32820278333333,
            "lon": 113.99799166666666
        },
        {
            "name": "GOODI",
            "lat": 22.069411116666668,
            "lon": 113.99683056666667
        },
        {
            "name": "GUAVA",
            "lat": 22.160027783333334,
            "lon": 114.06008333333334
        },
        {
            "name": "LAKES",
            "lat": 21.978138883333333,
            "lon": 114.91072221666667
        },
        {
            "name": "LAMMA",
            "lat": 22.282113883333334,
            "lon": 114.08626388333333
        },
        {
            "name": "LIMES",
            "lat": 22.107111116666665,
            "lon": 113.77572221666667
        },
        {
            "name": "LOTUS",
            "lat": 22.388405566666666,
            "lon": 114.18488888333333
        },
        {
            "name": "LUDLA",
            "lat": 22.227997216666665,
            "lon": 114.07465278333333
        },
        {
            "name": "LUSVI",
            "lat": 22.212908333333335,
            "lon": 114.07141666666666
        },
        {
            "name": "MANGO",
            "lat": 21.613611116666668,
            "lon": 114.51472221666667
        },
        {
            "name": "MIRRS",
            "lat": 22.40475,
            "lon": 114.23591666666667
        },
        {
            "name": "ML07R",
            "lat": 22.292125,
            "lon": 113.88532778333334
        },
        {
            "name": "ML25L",
            "lat": 22.311975,
            "lon": 113.94693611666666
        },
        {
            "name": "ML25R",
            "lat": 22.336333333333332,
            "lon": 113.92805556666667
        },
        {
            "name": "MONTY",
            "lat": 22.168405566666667,
            "lon": 114.32102221666666
        },
        {
            "name": "MURRY",
            "lat": 21.757880566666667,
            "lon": 113.81165833333333
        },
        {
            "name": "MUSEL",
            "lat": 22.264997216666668,
            "lon": 114.78114721666667
        },
        {
            "name": "NIXUS",
            "lat": 22.48945833333333,
            "lon": 114.17213888333333
        },
        {
            "name": "NOLIB",
            "lat": 22.427486116666667,
            "lon": 114.01023333333333
        },
        {
            "name": "OCEAN",
            "lat": 21.811944433333334,
            "lon": 114.81333333333333
        },
        {
            "name": "PECAN",
            "lat": 21.43894166666667,
            "lon": 114.0349
        },
        {
            "name": "PORPA",
            "lat": 22.335861116666667,
            "lon": 114.02119443333333
        },
        {
            "name": "PORSH",
            "lat": 22.29455,
            "lon": 114.08432221666666
        },
        {
            "name": "POVEG",
            "lat": 22.295355566666668,
            "lon": 113.80100556666666
        },
        {
            "name": "PRAWN",
            "lat": 22.268166666666666,
            "lon": 113.81113888333333
        },
        {
            "name": "RAMEN",
            "lat": 22.160894433333333,
            "lon": 114.08608056666667
        },
        {
            "name": "RASSE",
            "lat": 21.792916666666667,
            "lon": 115.33030556666667
        },
        {
            "name": "RF001",
            "lat": 22.337612833333335,
            "lon": 114.04335293333334
        },
        {
            "name": "RF002",
            "lat": 22.330073033333335,
            "lon": 114.06403933333333
        },
        {
            "name": "RF003",
            "lat": 22.314666483333333,
            "lon": 114.07876728333333
        },
        {
            "name": "RF004",
            "lat": 22.340253083333334,
            "lon": 114.04938593333334
        },
        {
            "name": "RF005",
            "lat": 22.329884983333333,
            "lon": 114.0684072
        },
        {
            "name": "RF006",
            "lat": 22.313465166666667,
            "lon": 114.08153348333333
        },
        {
            "name": "RF007",
            "lat": 22.322814683333334,
            "lon": 113.85308358333333
        },
        {
            "name": "RF008",
            "lat": 22.342217766666668,
            "lon": 113.83351598333333
        },
        {
            "name": "RF009",
            "lat": 22.368748466666666,
            "lon": 113.83400995
        },
        {
            "name": "ROCCA",
            "lat": 21.532061116666668,
            "lon": 113.58095556666666
        },
        {
            "name": "ROVER",
            "lat": 22.343216666666667,
            "lon": 114.02753333333334
        },
        {
            "name": "RUMSY",
            "lat": 22.082483333333332,
            "lon": 113.80466388333333
        },
        {
            "name": "RUNSU",
            "lat": 22.423044433333335,
            "lon": 114.19821388333334
        },
        {
            "name": "RUSUG",
            "lat": 22.291605566666668,
            "lon": 114.08671111666666
        },
        {
            "name": "RW07R",
            "lat": 22.296675,
            "lon": 113.89944443333333
        },
        {
            "name": "SABOG",
            "lat": 22.354627783333335,
            "lon": 114.25640833333334
        },
        {
            "name": "SAGNI",
            "lat": 22.396286116666666,
            "lon": 114.11463333333333
        },
        {
            "name": "SAMON",
            "lat": 21.906591666666667,
            "lon": 114.20915278333334
        },
        {
            "name": "SAMPU",
            "lat": 22.427552783333333,
            "lon": 114.26136388333333
        },
        {
            "name": "SHELY",
            "lat": 22.090736116666665,
            "lon": 114.65387221666667
        },
        {
            "name": "SIERA",
            "lat": 21.985,
            "lon": 113.55333333333333
        },
        {
            "name": "SILVA",
            "lat": 21.85125,
            "lon": 113.90302221666667
        },
        {
            "name": "SKATE",
            "lat": 21.53194166666667,
            "lon": 115.14442778333333
        },
        {
            "name": "SMT",
            "lat": 22.337619433333334,
            "lon": 113.98207221666667
        },
        {
            "name": "SOKOE",
            "lat": 22.078111116666665,
            "lon": 113.84391666666667
        },
        {
            "name": "STELA",
            "lat": 22.198136116666667,
            "lon": 113.73030833333334
        },
        {
            "name": "TAMAR",
            "lat": 22.25583333333333,
            "lon": 114.51027778333334
        },
        {
            "name": "TD",
            "lat": 22.247894433333332,
            "lon": 114.29313888333333
        },
        {
            "name": "TEDAP",
            "lat": 22.40998056666667,
            "lon": 114.27033333333333
        },
        {
            "name": "TITAN",
            "lat": 21.674277783333334,
            "lon": 114.0507
        },
        {
            "name": "TOPUN",
            "lat": 22.381713883333333,
            "lon": 114.06920833333334
        },
        {
            "name": "TROUT",
            "lat": 21.798611116666667,
            "lon": 114.27027778333333
        },
        {
            "name": "TUNNA",
            "lat": 21.790277783333334,
            "lon": 113.965
        },
        {
            "name": "TUTBA",
            "lat": 22.233838883333334,
            "lon": 113.71247778333333
        },
        {
            "name": "VENGO",
            "lat": 21.987825,
            "lon": 115.26901666666667
        },
        {
            "name": "VEPIK",
            "lat": 22.275372216666668,
            "lon": 113.80560278333333
        },
        {
            "name": "VH505",
            "lat": 22.406711116666667,
            "lon": 114.14718888333333
        },
        {
            "name": "VH506",
            "lat": 22.343608333333332,
            "lon": 114.04229721666667
        },
        {
            "name": "VH507",
            "lat": 22.351961116666665,
            "lon": 114.01839721666667
        },
        {
            "name": "VH508",
            "lat": 22.357744433333334,
            "lon": 113.99459166666666
        },
        {
            "name": "VH509",
            "lat": 22.349983333333334,
            "lon": 113.97046388333334
        },
        {
            "name": "VH510",
            "lat": 22.395658333333333,
            "lon": 114.11268056666667
        },
        {
            "name": "VH515",
            "lat": 22.414963883333332,
            "lon": 114.17297778333334
        },
        {
            "name": "VH519",
            "lat": 22.473069433333333,
            "lon": 114.24509721666666
        },
        {
            "name": "VH522",
            "lat": 22.321411116666667,
            "lon": 113.88174443333334
        },
        {
            "name": "VH523",
            "lat": 22.405697216666667,
            "lon": 113.89969166666667
        },
        {
            "name": "VH524",
            "lat": 22.432397216666665,
            "lon": 113.96940833333333
        },
        {
            "name": "VH525",
            "lat": 22.387605566666668,
            "lon": 113.85451388333334
        },
        {
            "name": "VH526",
            "lat": 22.497891666666668,
            "lon": 114.140875
        },
        {
            "name": "VH528",
            "lat": 22.358855566666666,
            "lon": 113.99804721666666
        },
        {
            "name": "VH530",
            "lat": 21.951627783333333,
            "lon": 113.92672778333333
        },
        {
            "name": "VH533",
            "lat": 22.331519433333334,
            "lon": 114.07686666666666
        },
        {
            "name": "VH536",
            "lat": 22.364319433333332,
            "lon": 114.01505
        },
        {
            "name": "VH541",
            "lat": 22.364994433333333,
            "lon": 114.25043333333333
        },
        {
            "name": "VH543",
            "lat": 22.362063883333335,
            "lon": 114.10272778333334
        },
        {
            "name": "VH544",
            "lat": 22.342963883333333,
            "lon": 114.04324443333333
        },
        {
            "name": "VH545",
            "lat": 22.3304,
            "lon": 114.00416666666666
        },
        {
            "name": "VH547",
            "lat": 22.05455278333333,
            "lon": 113.89076111666667
        },
        {
            "name": "VH701",
            "lat": 22.2808,
            "lon": 113.75596943333333
        },
        {
            "name": "VH702",
            "lat": 22.297241666666668,
            "lon": 113.80684443333334
        },
        {
            "name": "VH703",
            "lat": 22.406616666666668,
            "lon": 113.95581111666667
        },
        {
            "name": "VH704",
            "lat": 22.361794433333333,
            "lon": 113.83921666666667
        },
        {
            "name": "VH708",
            "lat": 22.296161116666667,
            "lon": 113.80350556666667
        },
        {
            "name": "VH715",
            "lat": 22.305191666666666,
            "lon": 113.78659166666667
        },
        {
            "name": "VH716",
            "lat": 22.273119433333335,
            "lon": 113.82643611666667
        },
        {
            "name": "VH717",
            "lat": 22.2786,
            "lon": 113.84341111666667
        },
        {
            "name": "VH720",
            "lat": 22.25165,
            "lon": 113.76098888333334
        },
        {
            "name": "VH721",
            "lat": 22.270188883333333,
            "lon": 113.81801943333333
        },
        {
            "name": "VH726",
            "lat": 22.343413883333334,
            "lon": 113.95005556666666
        },
        {
            "name": "VH727",
            "lat": 22.438505566666667,
            "lon": 114.02755278333333
        },
        {
            "name": "VH754",
            "lat": 22.456752783333332,
            "lon": 114.16963888333333
        }
    ],
    "rnws": [
        "RNW 07L",
        "RNW 07R",
        "RNW 25L",
        "RNW 25R"
    ],
    "sids": [
        {
            "name": "ATEN1X",
            "rnw": "07R",
            "fixes": {
                "PORPA": "PORPA AT OR BELOW 5000 SPEED 205",
                "RF001": "RF001",
                "RF002": "RF002",
                "RF003": "RF003",
                "PORSH": "PORSH",
                "RAMEN": "RAMEN SPEED 220",
                "COLEY": "COLEY",
                "ATENA": "ATENA",
                "BEKOL": "BEKOL AT OR ABOVE 15700"
            },
            "sub_fixes": [],
            "transitions": []
        },
        {
            "name": "ATEN1Z",
            "rnw": "07L",
            "fixes": {
                "DE07L": "OVERFLY DE07L TRK 074 UNTIL 430",
                "ROVER": "ROVER AT OR BELOW 5000 SPEED 205",
                "RF004": "RF004",
                "RF005": "RF005",
                "RF006": "RF006",
                "RUSUG": "RUSUG",
                "RAMEN": "RAMEN SPEED 220",
                "COLEY": "COLEY",
                "ATENA": "ATENA",
                "BEKOL": "BEKOL AT OR ABOVE 15700"
            },
            "sub_fixes": [],
            "transitions": []
        },
        {
            "name": "ATEN2A",
            "rnw": "07R",
            "fixes": {
                "PORPA": "OVERFLY PORPA AT OR BELOW 5000 SPEED 205 TURN RIGHT DIRECT",
                "RAMEN": "RAMEN SPEED 220",
                "COLEY": "COLEY",
                "ATENA": "ATENA",
                "BEKOL": "BEKOL AT OR ABOVE 15700"
            },
            "sub_fixes": [],
            "transitions": []
        },
        {
            "name": "ATEN2E",
            "rnw": "07L",
            "fixes": {
                "DE07L": "OVERFLY DE07L TRK 074 UNTIL 430",
                "ROVER": "OVERFLY ROVER AT OR BELOW 5000 SPEED 205",
                "RAMEN": "RAMEN SPEED 220",
                "COLEY": "COLEY",
                "ATENA": "ATENA",
                "BEKOL": "BEKOL AT OR ABOVE 15700"
            },
            "sub_fixes": [],
            "transitions": []
        },
        {
            "name": "BEKO1E",
            "rnw": "07L",
            "fixes": {
                "DE07L": "OVERFLY DE07L TRK 074 UNTIL 430",
                "ROVER": "OVERFLY ROVER AT OR BELOW 5000 SPEED 205",
                "TD": "TD SPEED 220",
                "ATENA": "ATENA",
                "BEKOL": "BEKOL AT OR ABOVE 15700"
            },
            "sub_fixes": [],
            "transitions": []
        },
        {
            "name": "BEKO1F",
            "rnw": "25R",
            "fixes": {
                "DE25R": "OVERFLY DE25R TRK 254 UNTIL 430",
                "VEPIK": "OVERFLY VEPIK AT OR BELOW 5000 SPEED 205",
                "RUMSY": "RUMSY SPEED 230",
                "TUNNA": "TUNNA",
                "SAMON": "SAMON",
                "BEKOL": "BEKOL AT OR ABOVE 15700"
            },
            "sub_fixes": [],
            "transitions": []
        },
        {
            "name": "BEKO2B",
            "rnw": "25L",
            "fixes": {
                "PRAWN": "OVERFLY PRAWN AT OR BELOW 5000 SPEED 205",
                "RUMSY": "RUMSY SPEED 230",
                "TUNNA": "TUNNA",
                "SAMON": "SAMON",
                "BEKOL": "BEKOL AT OR ABOVE 15700"
            },
            "sub_fixes": [],
            "transitions": []
        },
        {
            "name": "BEKO3A",
            "rnw": "07R",
            "fixes": {
                "PORPA": "OVERFLY PORPA AT OR BELOW 5000 SPEED 205",
                "TD": "TD SPEED 220",
                "ATENA": "ATENA",
                "BEKOL": "BEKOL AT OR ABOVE 15700"
            },
            "sub_fixes": [],
            "transitions": []
        },
        {
            "name": "LAKE1E",
            "rnw": "07L",
            "fixes": {
                "DE07L": "OVERFLY DE07L TRK 074 UNTIL 430",
                "ROVER": "OVERFLY ROVER AT OR BELOW 5000 SPEED 205",
                "TD": "TD SPEED 220",
                "SHELY": "SHELY",
                "LAKES": "LAKES"
            },
            "sub_fixes": [],
            "transitions": []
        },
        {
            "name": "LAKE1F",
            "rnw": "25R",
            "fixes": {
                "DE25R": "OVERFLY DE25R TRK 254 UNTIL 430",
                "VEPIK": "OVERFLY VEPIK AT OR BELOW 5000 SPEED 205",
                "RUMSY": "RUMSY SPEED 230",
                "TUNNA": "TUNNA",
                "TROUT": "TROUT AT OR ABOVE 14000",
                "LAKES": "LAKES"
            },
            "sub_fixes": [],
            "transitions": []
        },
        {
            "name": "LAKE2B",
            "rnw": "25L",
            "fixes": {
                "PRAWN": "OVERFLY PRAWN AT OR BELOW 5000 SPEED 205",
                "RUMSY": "RUMSY SPEED 230",
                "TUNNA": "TUNNA",
                "TROUT": "TROUT AT OR ABOVE 14000",
                "LAKES": "LAKES"
            },
            "sub_fixes": [],
            "transitions": []
        },
        {
            "name": "LAKE3A",
            "rnw": "07R",
            "fixes": {
                "PORPA": "OVERFLY PORPA AT OR BELOW 5000 SPEED 205",
                "TD": "TD SPEED 220",
                "SHELY": "SHELY",
                "LAKES": "LAKES"
            },
            "sub_fixes": [],
            "transitions": []
        },
        {
            "name": "OCEA1E",
            "rnw": "07L",
            "fixes": {
                "DE07L": "OVERFLY DE07L TRK 074 UNTIL 430",
                "ROVER": "OVERFLY ROVER AT OR BELOW 5000 SPEED 205",
                "TD": "TD SPEED 220",
                "OCEAN": "OCEAN"
            },
            "sub_fixes": [],
            "transitions": []
        },
        {
            "name": "OCEA1F",
            "rnw": "25R",
            "fixes": {
                "DE25R": "OVERFLY DE25R TRK 254 UNTIL 430",
                "VEPIK": "OVERFLY VEPIK AT OR BELOW 5000 SPEED 205",
                "RUMSY": "RUMSY SPEED 230",
                "TUNNA": "TUNNA",
                "TROUT": "TROUT AT OR ABOVE 14000",
                "OCEAN": "OCEAN"
            },
            "sub_fixes": [],
            "transitions": []
        },
        {
            "name": "OCEA2A",
            "rnw": "07R",
            "fixes": {
                "PORPA": "OVERFLY PORPA AT OR BELOW 5000 SPEED 205",
                "TD": "TD SPEED 220",
                "OCEAN": "OCEAN"
            },
            "sub_fixes": [],
            "transitions": []
        },
        {
            "name": "OCEA2B",
            "rnw": "25L",
            "fixes": {
                "PRAWN": "OVERFLY PRAWN AT OR BELOW 5000 SPEED 205",
                "RUMSY": "RUMSY SPEED 230",
                "TUNNA": "TUNNA",
                "TROUT": "TROUT AT OR ABOVE 14000",
                "OCEAN": "OCEAN"
            },
            "sub_fixes": [],
            "transitions": []
        },
        {
            "name": "PECA1A",
            "rnw": "07R",
            "fixes": {
                "PORPA": "OVERFLY PORPA AT OR BELOW 5000 SPEED 205 TURN RIGHT DIRECT",
                "RAMEN": "RAMEN SPEED 220",
                "BREAM": "BREAM",
                "TITAN": "TITAN",
                "PECAN": "PECAN"
            },
            "sub_fixes": [],
            "transitions": []
        },
        {
            "name": "PECA1B",
            "rnw": "25L",
            "fixes": {
                "PRAWN": "OVERFLY PRAWN AT OR BELOW 5000 SPEED 205",
                "RUMSY": "RUMSY SPEED 230",
                "TUNNA": "TUNNA",
                "TITAN": "TITAN",
                "PECAN": "PECAN"
            },
            "sub_fixes": [],
            "transitions": []
        },
        {
            "name": "PECA1E",
            "rnw": "07L",
            "fixes": {
                "DE07L": "OVERFLY DE07L TRK 074 UNTIL 430",
                "ROVER": "OVERFLY ROVER AT OR BELOW 5000 SPEED 205",
                "RAMEN": "RAMEN SPEED 220",
                "BREAM": "BREAM",
                "TITAN": "TITAN",
                "PECAN": "PECAN"
            },
            "sub_fixes": [],
            "transitions": []
        },
        {
            "name": "PECA1F",
            "rnw": "25R",
            "fixes": {
                "DE25R": "OVERFLY DE25R TRK 254 UNTIL 430",
                "VEPIK": "OVERFLY VEPIK AT OR BELOW 5000 SPEED 205",
                "RUMSY": "RUMSY SPEED 230",
                "TUNNA": "TUNNA",
                "TITAN": "TITAN",
                "PECAN": "PECAN"
            },
            "sub_fixes": [],
            "transitions": []
        },
        {
            "name": "PECA1X",
            "rnw": "07R",
            "fixes": {
                "PORPA": "PORPA AT OR BELOW 5000 SPEED 205",
                "RF001": "RF001",
                "RF002": "RF002",
                "RF003": "RF003",
                "PORSH": "PORSH",
                "RAMEN": "RAMEN SPEED 220",
                "BREAM": "BREAM",
                "TITAN": "TITAN",
                "PECAN": "PECAN"
            },
            "sub_fixes": [],
            "transitions": []
        },
        {
            "name": "PECA1Z",
            "rnw": "07L",
            "fixes": {
                "DE07L": "OVERFLY DE07L TRK 074 UNTIL 430",
                "ROVER": "ROVER AT OR BELOW 5000 SPEED 205",
                "RF004": "RF004",
                "RF005": "RF005",
                "RF006": "RF006",
                "RUSUG": "RUSUG",
                "RAMEN": "RAMEN SPEED 220",
                "BREAM": "BREAM",
                "TITAN": "TITAN",
                "PECAN": "PECAN"
            },
            "sub_fixes": [],
            "transitions": []
        },
        {
            "name": "RAME1A",
            "rnw": "07R",
            "fixes": {
                "PORPA": "OVERFLY PORPA AT OR BELOW 5000 SPEED 205 TURN RIGHT DIRECT",
                "RAMEN": "RAMEN SPEED 220"
            },
            "sub_fixes": [],
            "transitions": []
        },
        {
            "name": "RAME1E",
            "rnw": "07L",
            "fixes": {
                "SMT": "SMT",
                "ROVER": "OVERFLY ROVER AT OR BELOW 5000 SPEED 205",
                "RAMEN": "RAMEN SPEED 220"
            },
            "sub_fixes": [],
            "transitions": []
        },
        {
            "name": "RASE1X",
            "rnw": "07R",
            "fixes": {
                "PORPA": "PORPA AT OR BELOW 5000 SPEED 205",
                "RF001": "RF001",
                "RF002": "RF002",
                "RF003": "RF003",
                "PORSH": "PORSH",
                "RAMEN": "RAMEN SPEED 220",
                "OCEAN": "OCEAN",
                "RASSE": "RASSE"
            },
            "sub_fixes": [],
            "transitions": []
        },
        {
            "name": "RASE1Z",
            "rnw": "07L",
            "fixes": {
                "DE07L": "OVERFLY DE07L TRK 074 UNTIL 430",
                "ROVER": "ROVER AT OR BELOW 5000 SPEED 205",
                "RF004": "RF004",
                "RF005": "RF005",
                "RF006": "RF006",
                "RUSUG": "RUSUG",
                "RAMEN": "RAMEN SPEED 220",
                "OCEAN": "OCEAN",
                "RASSE": "RASSE"
            },
            "sub_fixes": [],
            "transitions": []
        },
        {
            "name": "RASE2E",
            "rnw": "07L",
            "fixes": {
                "DE07L": "OVERFLY DE07L TRK 074 UNTIL 430",
                "ROVER": "OVERFLY ROVER AT OR BELOW 5000 SPEED 205",
                "RAMEN": "RAMEN SPEED 220",
                "OCEAN": "OCEAN",
                "RASSE": "RASSE"
            },
            "sub_fixes": [],
            "transitions": []
        },
        {
            "name": "RASE3A",
            "rnw": "07R",
            "fixes": {
                "PORPA": "OVERFLY PORPA AT OR BELOW 5000 SPEED 205 TURN RIGHT DIRECT",
                "RAMEN": "RAMEN SPEED 220",
                "OCEAN": "OCEAN",
                "RASSE": "RASSE"
            },
            "sub_fixes": [],
            "transitions": []
        },
        {
            "name": "RUMS1B",
            "rnw": "25L",
            "fixes": {
                "PRAWN": "OVERFLY PRAWN AT OR BELOW 5000 SPEED 205 HDG 185 VECTORS",
                "RUMSY": "RUMSY SPEED 230"
            },
            "sub_fixes": [],
            "transitions": []
        },
        {
            "name": "RUMS1F",
            "rnw": "25R",
            "fixes": {
                "POVEG": "OVERFLY POVEG AT OR BELOW 5000 SPEED 205",
                "RUMSY": "RUMSY SPEED 230"
            },
            "sub_fixes": [],
            "transitions": []
        },
        {
            "name": "SKAT1X",
            "rnw": "07R",
            "fixes": {
                "PORPA": "PORPA AT OR BELOW 5000 SPEED 205",
                "RF001": "RF001",
                "RF002": "RF002",
                "RF003": "RF003",
                "PORSH": "PORSH",
                "RAMEN": "RAMEN SPEED 220",
                "OCEAN": "OCEAN",
                "SKATE": "SKATE"
            },
            "sub_fixes": [],
            "transitions": []
        },
        {
            "name": "SKAT1Z",
            "rnw": "07L",
            "fixes": {
                "DE07L": "OVERFLY DE07L TRK 074 UNTIL 430",
                "ROVER": "ROVER AT OR BELOW 5000 SPEED 205",
                "RF004": "RF004",
                "RF005": "RF005",
                "RF006": "RF006",
                "RUSUG": "RUSUG",
                "RAMEN": "RAMEN SPEED 220",
                "OCEAN": "OCEAN",
                "SKATE": "SKATE"
            },
            "sub_fixes": [],
            "transitions": []
        },
        {
            "name": "SKAT2E",
            "rnw": "07L",
            "fixes": {
                "DE07L": "OVERFLY DE07L TRK 074 UNTIL 430",
                "ROVER": "OVERFLY ROVER AT OR BELOW 5000 SPEED 205",
                "RAMEN": "RAMEN SPEED 220",
                "OCEAN": "OCEAN",
                "SKATE": "SKATE"
            },
            "sub_fixes": [],
            "transitions": []
        },
        {
            "name": "SKAT3A",
            "rnw": "07R",
            "fixes": {
                "PORPA": "OVERFLY PORPA AT OR BELOW 5000 SPEED 205 TURN RIGHT DIRECT",
                "RAMEN": "RAMEN SPEED 220",
                "OCEAN": "OCEAN",
                "SKATE": "SKATE"
            },
            "sub_fixes": [],
            "transitions": []
        },
        {
            "name": "VENG1A",
            "rnw": "07R",
            "fixes": {
                "PORPA": "OVERFLY PORPA AT OR BELOW 5000 SPEED 205 TURN RIGHT DIRECT",
                "RAMEN": "RAMEN SPEED 220",
                "LAKES": "LAKES",
                "VENGO": "VENGO"
            },
            "sub_fixes": [],
            "transitions": []
        },
        {
            "name": "VENG1X",
            "rnw": "07R",
            "fixes": {
                "PORPA": "PORPA AT OR BELOW 5000 SPEED 205",
                "RF001": "RF001",
                "RF002": "RF002",
                "RF003": "RF003",
                "PORSH": "PORSH",
                "RAMEN": "RAMEN SPEED 220",
                "LAKES": "LAKES",
                "VENGO": "VENGO"
            },
            "sub_fixes": [],
            "transitions": []
        },
        {
            "name": "VENG1Z",
            "rnw": "07L",
            "fixes": {
                "DE07L": "OVERFLY DE07L TRK 074 UNTIL 430",
                "ROVER": "ROVER AT OR BELOW 5000 SPEED 205",
                "RF004": "RF004",
                "RF005": "RF005",
                "RF006": "RF006",
                "RUSUG": "RUSUG",
                "RAMEN": "RAMEN SPEED 220",
                "LAKES": "LAKES",
                "VENGO": "VENGO"
            },
            "sub_fixes": [],
            "transitions": []
        },
        {
            "name": "VENG2E",
            "rnw": "07L",
            "fixes": {
                "DE07L": "OVERFLY DE07L TRK 074 UNTIL 430",
                "ROVER": "OVERFLY ROVER AT OR BELOW 5000 SPEED 205",
                "RAMEN": "RAMEN SPEED 220",
                "LAKES": "LAKES",
                "VENGO": "VENGO"
            },
            "sub_fixes": [],
            "transitions": []
        }
    ],
    "stars": [
        {
            "name": "ABEY1G",
            "runway": "RNW 25R RNW 25L",
            "fixes": {
                "ABBEY": "ABBEY",
                "MUSEL": "MUSEL SPEED 280",
                "TAMAR": "TAMAR",
                "MONTY": "MONTY",
                "ALAPI": "ALAPI",
                "GUAVA": "GUAVA 5000"
            }
        },
        {
            "name": "ABEY2B",
            "runway": "RNW 25R RNW 25L",
            "fixes": {
                "ABBEY": "ABBEY",
                "MUSEL": "MUSEL SPEED 280",
                "TAMAR": "TAMAR",
                "TD": "TD"
            }
        },
        {
            "name": "ABEY3A",
            "runway": "RNW 07R RNW 07L",
            "fixes": {
                "ABBEY": "ABBEY",
                "MUSEL": "MUSEL SPEED 280",
                "TAMAR": "TAMAR",
                "TD": "TD",
                "GUAVA": "GUAVA",
                "SOKOE": "SOKOE",
                "LIMES": "LIMES"
            }
        },
        {
            "name": "BETY1G",
            "runway": "RNW 25R RNW 25L",
            "fixes": {
                "BETTY": "BETTY",
                "MANGO": "MANGO SPEED 280",
                "MONTY": "MONTY",
                "ALAPI": "ALAPI",
                "GUAVA": "GUAVA 5000"
            }
        },
        {
            "name": "BETY2A",
            "runway": "RNW 07R RNW 07L",
            "fixes": {
                "BETTY": "BETTY",
                "MANGO": "MANGO SPEED 280",
                "GUAVA": "GUAVA",
                "SOKOE": "SOKOE",
                "LIMES": "LIMES"
            }
        },
        {
            "name": "BETY2B",
            "runway": "RNW 25R RNW 25L",
            "fixes": {
                "BETTY": "BETTY",
                "MANGO": "MANGO SPEED 280",
                "TD": "TD"
            }
        },
        {
            "name": "CANT1G",
            "runway": "RNW 25R RNW 25L",
            "fixes": {
                "CANTO": "CANTO SPEED 280",
                "MURRY": "MURRY",
                "VH530": "VH530",
                "GOODI": "GOODI",
                "GUAVA": "GUAVA 5000"
            }
        },
        {
            "name": "CANT2B",
            "runway": "RNW 25R RNW 25L",
            "fixes": {
                "CANTO": "CANTO SPEED 280",
                "MURRY": "MURRY",
                "GOODI": "GOODI",
                "MONTY": "MONTY",
                "TD": "TD"
            }
        },
        {
            "name": "CANT3A",
            "runway": "RNW 07R RNW 07L",
            "fixes": {
                "CANTO": "CANTO AT OR ABOVE 13000 SPEED 280",
                "MURRY": "MURRY",
                "SILVA": "SILVA",
                "LIMES": "LIMES"
            }
        },
        {
            "name": "SIER1G",
            "runway": "RNW 25R RNW 25L",
            "fixes": {
                "SIERA": "SIERA",
                "CANTO": "CANTO SPEED 280 TURN LEFT DIRECT",
                "MURRY": "MURRY",
                "VH530": "VH530",
                "GOODI": "GOODI",
                "GUAVA": "GUAVA 5000"
            }
        },
        {
            "name": "SIER6B",
            "runway": "RNW 25R RNW 25L",
            "fixes": {
                "SIERA": "SIERA SPEED 280",
                "CANTO": "CANTO TURN LEFT DIRECT",
                "MURRY": "MURRY",
                "GOODI": "GOODI",
                "MONTY": "MONTY",
                "TD": "TD"
            }
        },
        {
            "name": "SIER6D",
            "runway": "RNW 25R RNW 25L",
            "fixes": {
                "SIERA": "SIERA SPEED 280",
                "BORDA": "BORDA SPEED 250",
                "ROCCA": "ROCCA",
                "CANTO": "CANTO",
                "MURRY": "MURRY",
                "GOODI": "GOODI",
                "MONTY": "MONTY",
                "TD": "TD"
            }
        },
        {
            "name": "SIER7A",
            "runway": "RNW 07R RNW 07L",
            "fixes": {
                "SIERA": "SIERA SPEED 280",
                "CANTO": "CANTO AT OR ABOVE 13000 TURN LEFT DIRECT",
                "MURRY": "MURRY",
                "SILVA": "SILVA",
                "LIMES": "LIMES"
            }
        },
        {
            "name": "SIER7C",
            "runway": "RNW 07R RNW 07L",
            "fixes": {
                "SIERA": "SIERA SPEED 280",
                "BORDA": "BORDA SPEED 250",
                "ROCCA": "ROCCA",
                "CANTO": "CANTO AT OR ABOVE 13000",
                "MURRY": "MURRY",
                "SILVA": "SILVA",
                "LIMES": "LIMES"
            }
        }
    ],
    "approaches": [
        {
            "name": "ILS07L",
            "fixes": {
                "VH701": "VH701 AT OR ABOVE 1500 SPEED 180",
                "VH702": "VH702 1500 RNW 07L",
                "VH726": "VH726 SPEED 200",
                "VH727": "VH727 SPEED 200",
                "VH754": "VH754 SPEED 230",
                "SAMPU": "SAMPU 5000 SPEED 230",
                "TD": "TD SPEED 230",
                "GUAVA": "GUAVA SPEED 230",
                "SOKOE": "SOKOE SPEED 230",
                "LIMES": "LIMES SPEED 230 FAF VH702 MAP RNW 07L"
            },
            "transitions": [
                {
                    "name": "LIMES",
                    "fixes": {
                        "LIMES": "LIMES AT OR BELOW 6000 AT OR ABOVE 3000",
                        "TUTBA": "TUTBA AT OR ABOVE 2000 SPEED 180"
                    }
                }
            ]
        },
        {
            "name": "ILS07R",
            "fixes": {
                "VH720": "VH720 AT OR ABOVE 1700 SPEED 180",
                "VH721": "VH721 1600 RNW 07R",
                "PORPA": "OVERFLY PORPA AT OR BELOW 5000 SPEED 210 TURN RIGHT DIRECT",
                "GUAVA": "GUAVA SPEED 210",
                "SOKOE": "SOKOE SPEED 230",
                "LIMES": "LIMES SPEED 230 HOLD AT LIMES RIGHT TURN INBOUNDCOURSE 338 LEGTIME 1 FAF VH721 MAP RNW 07R"
            },
            "transitions": [
                {
                    "name": "LIMES",
                    "fixes": {
                        "LIMES": "LIMES AT OR BELOW 6000 AT OR ABOVE 3000",
                        "STELA": "STELA AT OR ABOVE 2000 SPEED 180"
                    }
                }
            ]
        },
        {
            "name": "ILS25L",
            "fixes": {
                "LOTUS": "LOTUS AT OR ABOVE 4500 SPEED 180",
                "FI25L": "FI25L 1300 SPEED 160 RNW 25L TRK 254 UNTIL 430",
                "PRAWN": "OVERFLY PRAWN SPEED 185 TRK 166 INTERCEPT RADIAL 071 TO",
                "TD": "TD TURN LEFT DIRECT TD 5000 SPEED 230 HOLD AT TD RIGHT TURN INBOUNDCOURSE 344 LEGTIME 1 FAF FI25L MAP RNW 25L"
            },
            "transitions": [
                {
                    "name": "TD1",
                    "fixes": {
                        "TD": "TD AT OR BELOW 8000 AT OR ABOVE 6000",
                        "SABOG": "OVERFLY SABOG"
                    }
                },
                {
                    "name": "TD2",
                    "fixes": {
                        "TD": "TD AT OR ABOVE 8000 TRK 344 INTERCEPT RADIAL 088 FROM",
                        "SMT": "SMT TRK 299 INTERCEPT RADIAL 254 TO",
                        "LOTUS": "LOTUS"
                    }
                }
            ]
        },
        {
            "name": "ILS25R",
            "fixes": {
                "VH536": "VH536 1800",
                "VH528": "VH528 1700 SPEED 160 RNW 25R",
                "VH522": "OVERFLY VH522 TURN RIGHT DIRECT",
                "VH523": "VH523 AT OR BELOW 4000 AT OR ABOVE 3000 SPEED 185",
                "VH526": "VH526 SPEED 230",
                "BOKAG": "BOKAG 5000 SPEED 210 FAF VH528 MAP RNW 25R"
            },
            "transitions": [
                {
                    "name": "BOKAG",
                    "fixes": {
                        "BOKAG": "BOKAG 5000 SPEED 210",
                        "VH519": "VH519 AT OR ABOVE 4500",
                        "RUNSU": "RUNSU AT OR ABOVE 4500 SPEED 180",
                        "VH515": "VH515 AT OR ABOVE 4300 SPEED 180",
                        "SAGNI": "SAGNI 3800 SPEED 180",
                        "TOPUN": "TOPUN AT OR ABOVE 2700 SPEED 180"
                    }
                },
                {
                    "name": "RUNSU",
                    "fixes": {
                        "RUNSU": "RUNSU AT OR ABOVE 4500 SPEED 180",
                        "VH515": "VH515 AT OR ABOVE 4300 SPEED 180",
                        "SAGNI": "SAGNI 3800 SPEED 180",
                        "TOPUN": "TOPUN AT OR ABOVE 2700 SPEED 180"
                    }
                },
                {
                    "name": "TD",
                    "fixes": {
                        "TD": "TD AT OR BELOW 8000 AT OR ABOVE 6000",
                        "TEDAP": "TEDAP AT OR ABOVE 4500",
                        "RUNSU": "RUNSU AT OR ABOVE 4500 SPEED 180",
                        "VH515": "VH515 AT OR ABOVE 4300 SPEED 180",
                        "SAGNI": "SAGNI 3800 SPEED 180",
                        "TOPUN": "TOPUN AT OR ABOVE 2700 SPEED 180"
                    }
                }
            ]
        },
        {
            "name": "LOC07R",
            "fixes": {
                "VH720": "VH720 AT OR ABOVE 1700 SPEED 180",
                "VH721": "VH721 1600",
                "34DME": "34DME AT OR ABOVE 1110",
                "ML07R": "ML07R 342 RNW 07R",
                "RW07R": "OVERFLY RW07R",
                "PORPA": "OVERFLY PORPA AT OR BELOW 5000 SPEED 210 TURN RIGHT DIRECT",
                "GUAVA": "GUAVA SPEED 210",
                "SOKOE": "SOKOE SPEED 230",
                "LIMES": "LIMES SPEED 230 HOLD AT LIMES RIGHT TURN INBOUNDCOURSE 338 LEGTIME 1 FAF VH721 MAP ML07R"
            },
            "transitions": [
                {
                    "name": "LIMES",
                    "fixes": {
                        "LIMES": "LIMES AT OR BELOW 6000 AT OR ABOVE 3000",
                        "STELA": "STELA AT OR ABOVE 2000 SPEED 180"
                    }
                }
            ]
        },
        {
            "name": "LOC25L",
            "fixes": {
                "LOTUS": "LOTUS AT OR ABOVE 4300 SPEED 180",
                "FF25L": "FF25L 3800",
                "92DME": "92DME AT OR ABOVE 2970",
                "45DME": "45DME AT OR ABOVE 1470 SPEED 160",
                "ML25L": "ML25L 344 RNW 25L",
                "PRAWN": "OVERFLY PRAWN SPEED 185 TRK 166 INTERCEPT RADIAL 071 TO",
                "TD": "TD SPEED 230 TURN LEFT DIRECT TD 5000 SPEED 230 HOLD AT TD RIGHT TURN INBOUNDCOURSE 344 LEGTIME 1 FAF FF25L MAP ML25L"
            },
            "transitions": [
                {
                    "name": "TD1",
                    "fixes": {
                        "TD": "TD AT OR BELOW 8000 AT OR ABOVE 6000",
                        "D074S": "D074S AT OR ABOVE 4500"
                    }
                },
                {
                    "name": "TD2",
                    "fixes": {
                        "TD": "TD AT OR ABOVE 8000 TRK 344 INTERCEPT RADIAL 088 FROM",
                        "SMT": "SMT"
                    }
                }
            ]
        },
        {
            "name": "LOC25R",
            "fixes": {
                "RUNSU": "RUNSU AT OR ABOVE 4800 SPEED 180",
                "VH510": "VH510 3800 SPEED 180",
                "93DME": "93DME AT OR ABOVE 2990",
                "46DME": "46DME AT OR ABOVE 1490",
                "ML25R": "ML25R 345 RNW 25R",
                "VH522": "OVERFLY VH522 TURN RIGHT DIRECT",
                "VH523": "VH523 AT OR BELOW 4000 AT OR ABOVE 3000 SPEED 185",
                "VH526": "VH526 SPEED 230",
                "BOKAG": "BOKAG 5000 SPEED 210 FAF VH510 MAP ML25R"
            },
            "transitions": [
                {
                    "name": "BOKAG",
                    "fixes": {
                        "BOKAG": "BOKAG 5000 SPEED 210",
                        "VH519": "VH519 AT OR ABOVE 4800"
                    }
                },
                {
                    "name": "TD",
                    "fixes": {
                        "TD": "TD AT OR BELOW 8000 AT OR ABOVE 6000",
                        "TEDAP": "TEDAP AT OR ABOVE 4800"
                    }
                }
            ]
        },
        {
            "name": "RNAV07L",
            "fixes": {
                "VH701": "VH701 AT OR ABOVE 1500 SPEED 180",
                "VH708": "VH708 1500 SPEED 160 RNW 07L",
                "VH726": "VH726 SPEED 200",
                "VH727": "VH727 SPEED 200",
                "VH754": "VH754 SPEED 230",
                "SAMPU": "SAMPU 5000 SPEED 230",
                "TD": "TD SPEED 230",
                "GUAVA": "GUAVA SPEED 230",
                "SOKOE": "SOKOE SPEED 230",
                "LIMES": "LIMES SPEED 230 FAF VH708 MAP RNW 07L"
            },
            "transitions": [
                {
                    "name": "LIMES",
                    "fixes": {
                        "LIMES": "LIMES AT OR BELOW 6000 AT OR ABOVE 3000",
                        "TUTBA": "TUTBA AT OR ABOVE 2000 SPEED 180"
                    }
                }
            ]
        },
        {
            "name": "RNAV07RY",
            "fixes": {
                "NOLIB": "NOLIB AT OR ABOVE 6300 SPEED 220",
                "VH703": "VH703 AT OR ABOVE 5300",
                "VH704": "VH704 AT OR BELOW 3000 SPEED 180",
                "VH715": "VH715 AT OR ABOVE 1700 SPEED 160",
                "VH716": "VH716 AT OR ABOVE 1100",
                "VH717": "VH717 1100 RNW 07R",
                "PORPA": "OVERFLY PORPA AT OR BELOW 5000 SPEED 220",
                "TD": "TD SPEED 220 FAF VH717 MAP RNW 07R"
            },
            "transitions": [
                {
                    "name": "TD",
                    "fixes": {
                        "TD": "TD AT OR ABOVE 11000",
                        "NIXUS": "NIXUS AT OR ABOVE 8000"
                    }
                }
            ]
        },
        {
            "name": "RNAV07RZ",
            "fixes": {
                "ARGON": "ARGON AT OR ABOVE 2000 SPEED 180",
                "VH720": "VH720 AT OR ABOVE 2000 SPEED 180",
                "VH721": "VH721 1600 SPEED 160 RNW 07R",
                "PORPA": "OVERFLY PORPA AT OR BELOW 5000 SPEED 210 TURN RIGHT DIRECT",
                "GUAVA": "GUAVA SPEED 210",
                "SOKOE": "SOKOE SPEED 230",
                "LIMES": "LIMES SPEED 230 FAF VH721 MAP RNW 07R"
            },
            "transitions": [
                {
                    "name": "LIMES",
                    "fixes": {
                        "LIMES": "LIMES AT OR BELOW 6000 AT OR ABOVE 3000"
                    }
                }
            ]
        },
        {
            "name": "RNAV25LY",
            "fixes": {
                "LAMMA": "LAMMA AT OR ABOVE 3600 SPEED 180",
                "VH533": "VH533 AT OR ABOVE 2700 SPEED 180",
                "VH544": "VH544 AT OR ABOVE 2100",
                "VH545": "VH545 1400 SPEED 160 RNW 25L",
                "PRAWN": "OVERFLY PRAWN AT OR BELOW 5000 SPEED 185 TURN LEFT DIRECT",
                "VH547": "VH547 SPEED 185",
                "GOODI": "GOODI SPEED 230",
                "GUAVA": "GUAVA SPEED 230 FAF VH545 MAP RNW 25L"
            },
            "transitions": [
                {
                    "name": "GUAVA",
                    "fixes": {
                        "GUAVA": "GUAVA 5000",
                        "LUDLA": "LUDLA AT OR BELOW 5000 AT OR ABOVE 3600"
                    }
                }
            ]
        },
        {
            "name": "RNAV25LZ",
            "fixes": {
                "LOTUS": "LOTUS AT OR ABOVE 4500 SPEED 180",
                "VH543": "VH543 AT OR ABOVE 3200 SPEED 180",
                "VH544": "VH544 AT OR ABOVE 2100",
                "VH545": "VH545 1400 SPEED 160 RNW 25L",
                "PRAWN": "OVERFLY PRAWN AT OR BELOW 5000 SPEED 185 TURN LEFT DIRECT",
                "VH547": "VH547 SPEED 185",
                "GOODI": "GOODI SPEED 230",
                "MONTY": "MONTY SPEED 230",
                "TD": "TD SPEED 230 FAF VH545 MAP RNW 25L"
            },
            "transitions": [
                {
                    "name": "MIRRS",
                    "fixes": {
                        "MIRRS": "MIRRS AT OR BELOW 6000 AT OR ABOVE 4500"
                    }
                },
                {
                    "name": "TD",
                    "fixes": {
                        "TD": "TD AT OR BELOW 8000 AT OR ABOVE 6000",
                        "VH541": "VH541 AT OR BELOW 6000 AT OR ABOVE 4500"
                    }
                }
            ]
        },
        {
            "name": "RNAV25RY",
            "fixes": {
                "VH508": "VH508 AT OR ABOVE 1600 SPEED 160",
                "VH509": "VH509 1100 RNW 25R",
                "VH522": "VH522",
                "RF007": "RF007",
                "RF008": "RF008",
                "RF009": "RF009",
                "VH525": "VH525 SPEED 185",
                "VH524": "VH524 4000",
                "VH526": "VH526 SPEED 230",
                "BOKAG": "BOKAG 5000 SPEED 210 FAF VH509 MAP RNW 25R"
            },
            "transitions": [
                {
                    "name": "GUAVA",
                    "fixes": {
                        "GUAVA": "GUAVA 5000",
                        "LUSVI": "LUSVI AT OR BELOW 5000 AT OR ABOVE 3600",
                        "LAMMA": "LAMMA AT OR ABOVE 3600 SPEED 180",
                        "VH533": "VH533 AT OR ABOVE 2700 SPEED 180",
                        "VH506": "VH506 AT OR ABOVE 2000 SPEED 180",
                        "VH507": "VH507 AT OR ABOVE 1800"
                    }
                }
            ]
        },
        {
            "name": "RNAV25RZ",
            "fixes": {
                "RUNSU": "RUNSU AT OR ABOVE 4500 SPEED 180",
                "VH505": "VH505 4300 SPEED 180 RNW 25R",
                "VH522": "OVERFLY VH522 TURN RIGHT DIRECT",
                "VH523": "VH523 AT OR BELOW 4000 AT OR ABOVE 3000 SPEED 185",
                "VH526": "VH526 SPEED 230",
                "BOKAG": "BOKAG 5000 SPEED 210 FAF VH505 MAP RNW 25R"
            },
            "transitions": [
                {
                    "name": "BOKAG",
                    "fixes": {
                        "BOKAG": "BOKAG 5000 SPEED 210",
                        "VH519": "VH519 AT OR ABOVE 4500"
                    }
                },
                {
                    "name": "TD",
                    "fixes": {
                        "TD": "TD AT OR BELOW 8000 AT OR ABOVE 6000",
                        "TEDAP": "TEDAP AT OR ABOVE 4500"
                    }
                }
            ]
        }
    ]
}