{
    "fixes": [
        {
            "name": "30LOC",
            "lat": 28.706997216666668,
            "lon": 77.42791388333333
        },
        {
            "name": "30VOR",
            "lat": 28.70876111666667,
            "lon": 77.42088888333333
        },
        {
            "name": "CF27",
            "lat": 28.706308333333332,
            "lon": 77.49993333333333
        },
        {
            "name": "FD27Z",
            "lat": 28.711186116666667,
            "lon": 77.46059721666667
        },
        {
            "name": "FF27",
            "lat": 28.706675,
            "lon": 77.46202778333334
        },
        {
            "name": "FN270",
            "lat": 28.713594433333334,
            "lon": 77.44826111666667
        },
        {
            "name": "FS27Y",
            "lat": 28.711080566666666,
            "lon": 77.45886943333333
        },
        {
            "name": "HDNB",
            "lat": 28.715,
            "lon": 77.35888888333334
        },
        {
            "name": "HND",
            "lat": 28.705277783333333,
            "lon": 77.36416666666666
        },
        {
            "name": "MD27Z",
            "lat": 28.706441666666667,
            "lon": 77.38307221666666
        },
        {
            "name": "ML27",
            "lat": 28.707344433333333,
            "lon": 77.39000833333333
        }
    ],
    "rnws": [
        "RNW 09",
        "RNW 27"
    ],
    "sids": [],
    "stars": [],
    "approaches": [
        {
            "name": "VORDZ27",
            "fixes": {
                "FD27Z": "FD27Z 2200",
                "30VOR": "30VOR AT OR ABOVE 1540",
                "MD27Z": "MD27Z 924 RNW 27 TRK 265 UNTIL 1110 TRK 320 UNTIL 2600 TURN RIGHT DIRECT",
                "HND": "HND 2600 HOLD AT HND RIGHT TURN INBOUNDCOURSE 265 ALT 2600 SPEED 185 LEGTIME 1 FAF FD27Z MAP MD27Z"
            },
            "transitions": []
        },
        {
            "name": "LOCY27",
            "fixes": {
                "CF27": "CF27 AT OR ABOVE 2200",
                "FF27": "FF27 2200",
                "30LOC": "30LOC AT OR ABOVE 1660",
                "ML27": "ML27 1046 RNW 27 TRK 270 UNTIL 1110 HDG 320 UNTIL 2600 TURN RIGHT DIRECT",
                "HDNB": "HDNB 2600 HOLD AT HDNB RIGHT TURN INBOUNDCOURSE 270 ALT 2600 SPEED 185 LEGTIME 1 FAF FF27 MAP ML27"
            },
            "transitions": []
        },
        {
            "name": "LOCZ27",
            "fixes": {
                "CF27": "CF27 AT OR ABOVE 2200",
                "FF27": "FF27 2200",
                "30LOC": "30LOC AT OR ABOVE 1660",
                "ML27": "ML27 1046 RNW 27 TRK 270 UNTIL 1110 HDG 320 UNTIL 2600 TURN RIGHT DIRECT",
                "HND": "HND 2600 HOLD AT HND RIGHT TURN INBOUNDCOURSE 270 ALT 2600 SPEED 185 LEGTIME 1 FAF FF27 MAP ML27"
            },
            "transitions": []
        },
        {
            "name": "NDBDB09",
            "fixes": {
                "FN270": "FN270 2200",
                "HDNB": "HDNB 1500 RNW 09 TRK 320 UNTIL 2600 TURN RIGHT DIRECT HDNB 2600 HOLD AT HDNB RIGHT TURN INBOUNDCOURSE 270 ALT 2600 SPEED 185 LEGTIME 1 FAF FN270 MAP HD"
            },
            "transitions": []
        },
        {
            "name": "NDBDB27",
            "fixes": {
                "FN270": "FN270 2200",
                "HDNB": "HDNB 1500 RNW 27 TRK 320 UNTIL 2600 TURN RIGHT DIRECT HDNB 2600 HOLD AT HDNB RIGHT TURN INBOUNDCOURSE 270 ALT 2600 SPEED 185 LEGTIME 1 FAF FN270 MAP HD"
            },
            "transitions": []
        },
        {
            "name": "VORY27",
            "fixes": {
                "FS27Y": "FS27Y 2200 RNW 27",
                "HND": "OVERFLY HND TRK 320 UNTIL 2600 TURN RIGHT DIRECT HND 2600 HOLD AT HND RIGHT TURN INBOUNDCOURSE 265 ALT 2600 SPEED 185 LEGTIME 1 FAF FS27Y MAP RNW 27"
            },
            "transitions": []
        }
    ]
}