{
    "fixes": [
        {
            "name": "AF001",
            "lat": 19.501587466666667,
            "lon": 102.92039566666666
        },
        {
            "name": "AF002",
            "lat": 19.439320266666666,
            "lon": 102.91645746666667
        },
        {
            "name": "AF003",
            "lat": 19.238945716666667,
            "lon": 103.04863423333333
        },
        {
            "name": "AF004",
            "lat": 19.255771666666668,
            "lon": 103.02165851666666
        },
        {
            "name": "AF005",
            "lat": 19.306086816666667,
            "lon": 102.96854856666667
        },
        {
            "name": "AF006",
            "lat": 19.340556733333333,
            "lon": 102.9456576
        },
        {
            "name": "D204Q",
            "lat": 19.192236116666667,
            "lon": 103.06763056666667
        },
        {
            "name": "D225O",
            "lat": 19.274880566666667,
            "lon": 102.99744443333333
        },
        {
            "name": "D252L",
            "lat": 19.393847216666668,
            "lon": 102.97963611666667
        },
        {
            "name": "D252O",
            "lat": 19.3784,
            "lon": 102.92931111666667
        },
        {
            "name": "D296Q",
            "lat": 19.578452783333333,
            "lon": 102.91054721666667
        },
        {
            "name": "FF07",
            "lat": 19.414422216666665,
            "lon": 103.04675
        },
        {
            "name": "IBASI",
            "lat": 19.695833333333333,
            "lon": 102.65111111666667
        },
        {
            "name": "JAMPA",
            "lat": 18.77736111666667,
            "lon": 102.88972221666667
        },
        {
            "name": "MA07",
            "lat": 19.436,
            "lon": 103.11723611666666
        },
        {
            "name": "NOKAN",
            "lat": 19.059236116666668,
            "lon": 103.50540278333334
        },
        {
            "name": "ONADO",
            "lat": 18.729722216666666,
            "lon": 103.77361111666667
        },
        {
            "name": "PUBIG",
            "lat": 18.990866666666665,
            "lon": 102.98115556666667
        },
        {
            "name": "SAMNB",
            "lat": 20.419444433333332,
            "lon": 104.06861111666667
        },
        {
            "name": "SAPAI",
            "lat": 19.771388883333334,
            "lon": 103.47027778333333
        },
        {
            "name": "THX",
            "lat": 19.4555,
            "lon": 103.18102778333333
        }
    ],
    "rnws": [
        "RNW 07",
        "RNW 25"
    ],
    "sids": [
        {
            "name": "IBAS1A",
            "rnw": "25",
            "fixes": {
                "IBASI": "IBASI AT OR ABOVE 9500"
            },
            "sub_fixes": [],
            "transitions": []
        },
        {
            "name": "NOKA1A",
            "rnw": "25",
            "fixes": {
                "NOKAN": "NOKAN AT OR ABOVE 11000",
                "ONADO": "ONADO"
            },
            "sub_fixes": [],
            "transitions": []
        },
        {
            "name": "PUBI1A",
            "rnw": "25",
            "fixes": {
                "PUBIG": "PUBIG AT OR ABOVE 11000",
                "JAMPA": "JAMPA"
            },
            "sub_fixes": [],
            "transitions": []
        },
        {
            "name": "SAPA2A",
            "rnw": "25",
            "fixes": {
                "SAPAI": "SAPAI AT OR ABOVE 11000",
                "SAMNB": "SAMNB"
            },
            "sub_fixes": [],
            "transitions": []
        }
    ],
    "stars": [
        {
            "name": "JAMP1C",
            "runway": "RNW 07",
            "fixes": {
                "JAMPA": "JAMPA",
                "D252O": "D252O AT OR ABOVE 7500"
            }
        }
    ],
    "approaches": [
        {
            "name": "VORD07",
            "fixes": {
                "FF07": "FF07 5500",
                "MA07": "MA07 4166 RNW 07",
                "THX": "THX TRK 072 UNTIL 5800 TURN LEFT DIRECT THX AT OR ABOVE 8000 HOLD AT THX RIGHT TURN INBOUNDCOURSE 265 ALT 8000 LEGTIME 1 FAF FF07 MAP MA07"
            },
            "transitions": [
                {
                    "name": "IBASI",
                    "fixes": {
                        "IBASI": "IBASI",
                        "D296Q": "D296Q AT OR ABOVE 10000",
                        "AF001": "AF001",
                        "AF002": "AF002",
                        "D252O": "D252O AT OR ABOVE 7500",
                        "D252L": "D252L AT OR ABOVE 6470"
                    }
                },
                {
                    "name": "JAMPA",
                    "fixes": {
                        "JAMPA": "JAMPA",
                        "D204Q": "D204Q AT OR ABOVE 11000",
                        "AF003": "AF003",
                        "AF004": "AF004",
                        "D225O": "D225O AT OR ABOVE 9200",
                        "AF005": "AF005",
                        "AF006": "AF006",
                        "D252O": "D252O AT OR ABOVE 7500",
                        "D252L": "D252L AT OR ABOVE 6470"
                    }
                },
                {
                    "name": "THX",
                    "fixes": {
                        "THX": "THX AT OR ABOVE 8000 TRK 265 UNTIL 8.0 FROM THX"
                    }
                }
            ]
        }
    ]
}