{
    "fixes": [
        {
            "name": "AF001",
            "lat": 27.115613816666666,
            "lon": 85.20024458333333
        },
        {
            "name": "AF002",
            "lat": 27.170967633333333,
            "lon": 85.20689343333333
        },
        {
            "name": "AF003",
            "lat": 27.22580785,
            "lon": 85.19613263333333
        },
        {
            "name": "AF004",
            "lat": 27.634412216666668,
            "lon": 84.97490016666667
        },
        {
            "name": "AF005",
            "lat": 27.59625845,
            "lon": 84.98262568333334
        },
        {
            "name": "BAISE",
            "lat": 27.495833333333334,
            "lon": 85.02777778333333
        },
        {
            "name": "BATAU",
            "lat": 27.063611116666667,
            "lon": 85.17611111666666
        },
        {
            "name": "CD01",
            "lat": 27.0182,
            "lon": 84.94158888333334
        },
        {
            "name": "D202Z",
            "lat": 27.27565,
            "lon": 85.16871666666667
        },
        {
            "name": "D250T",
            "lat": 27.558838883333333,
            "lon": 84.99617221666666
        },
        {
            "name": "DUMSI",
            "lat": 27.673055566666665,
            "lon": 84.97305556666667
        },
        {
            "name": "FF01",
            "lat": 27.083075,
            "lon": 84.95963333333333
        },
        {
            "name": "HETAU",
            "lat": 27.413055566666667,
            "lon": 85.01638888333333
        },
        {
            "name": "KAFLE",
            "lat": 27.215555566666666,
            "lon": 85.05583333333334
        },
        {
            "name": "MA01",
            "lat": 27.138216666666665,
            "lon": 84.97498888333334
        },
        {
            "name": "MAKWA",
            "lat": 27.374444433333334,
            "lon": 85.13527778333334
        },
        {
            "name": "RATAN",
            "lat": 27.301666666666666,
            "lon": 85.18027778333334
        },
        {
            "name": "SMR",
            "lat": 27.164166666666667,
            "lon": 84.98222221666667
        },
        {
            "name": "THAPA",
            "lat": 27.247222216666668,
            "lon": 84.99361111666667
        },
        {
            "name": "THULO",
            "lat": 27.444444433333334,
            "lon": 85.18638888333334
        }
    ],
    "rnws": [
        "RNW 01",
        "RNW 19"
    ],
    "sids": [
        {
            "name": "BATA1A",
            "rnw": "19",
            "fixes": {
                "BATAU": "BATAU RIGHT TURN INBOUNDCOURSE 300 ALT 8000 SPEED 170 LEGTIME 1",
                "AF001": "AF001",
                "AF002": "AF002",
                "AF003": "AF003",
                "D202Z": "D202Z",
                "RATAN": "RATAN AT OR ABOVE 11500"
            },
            "sub_fixes": [],
            "transitions": []
        },
        {
            "name": "KAFL1A",
            "rnw": "19",
            "fixes": {
                "SMR": "SMR AT OR ABOVE 5000 SPEED 180",
                "KAFLE": "KAFLE LEFT TURN INBOUNDCOURSE 053 ALT 8000 SPEED 170 LEGTIME 1",
                "RATAN": "RATAN AT OR ABOVE 11500"
            },
            "sub_fixes": [],
            "transitions": []
        },
        {
            "name": "THAP1A",
            "rnw": "19",
            "fixes": {
                "SMR": "SMR AT OR ABOVE 5000 SPEED 180",
                "THAPA": "THAPA LEFT TURN INBOUNDCOURSE 007 ALT 6000 SPEED 170 LEGTIME 1",
                "BAISE": "BAISE AT OR ABOVE 10500"
            },
            "sub_fixes": [],
            "transitions": []
        }
    ],
    "stars": [
        {
            "name": "DUMS1A",
            "runway": "RNW 01 RNW 19",
            "fixes": {
                "DUMSI": "DUMSI",
                "AF004": "AF004",
                "AF005": "AF005",
                "D250T": "D250T",
                "BAISE": "BAISE AT OR ABOVE 9500",
                "HETAU": "HETAU AT OR ABOVE 7500",
                "SMR": "SMR AT OR ABOVE 4000"
            }
        },
        {
            "name": "THUL2A",
            "runway": "RNW 01 RNW 19",
            "fixes": {
                "THULO": "THULO AT OR ABOVE 10000",
                "MAKWA": "MAKWA AT OR ABOVE 8000",
                "SMR": "SMR AT OR ABOVE 4000"
            }
        }
    ],
    "approaches": [
        {
            "name": "VORDY01",
            "fixes": {
                "FF01": "FF01 2100",
                "MA01": "MA01 831 RNW 01",
                "SMR": "OVERFLY SMR TURN RIGHT TRK 150 INTERCEPT RADIAL 120 TO",
                "BATAU": "BATAU SPEED 150 BATAU AT OR ABOVE 3000 HOLD AT BATAU RIGHT TURN INBOUNDCOURSE 300 ALT 3000 SPEED 170 LEGTIME 1 FAF FF01 MAP MA01"
            },
            "transitions": [
                {
                    "name": "SMR",
                    "fixes": {
                        "SMR": "SMR AT OR ABOVE 4000 TRK 174 UNTIL 5.0 FROM SMR SPEED 150"
                    }
                }
            ]
        },
        {
            "name": "VORDZ01",
            "fixes": {
                "CD01": "CD01 AT OR ABOVE 2100",
                "FF01": "FF01 2100",
                "MA01": "MA01 831 RNW 01",
                "SMR": "OVERFLY SMR TURN RIGHT TRK 150 INTERCEPT RADIAL 120 TO",
                "BATAU": "BATAU SPEED 150 BATAU AT OR ABOVE 3000 HOLD AT BATAU RIGHT TURN INBOUNDCOURSE 300 ALT 3000 SPEED 170 LEGTIME 1 FAF FF01 MAP MA01"
            },
            "transitions": [
                {
                    "name": "BATAU",
                    "fixes": {
                        "BATAU": "BATAU AT OR ABOVE 3000"
                    }
                }
            ]
        }
    ]
}