{
    "fixes": [
        {
            "name": "AF001",
            "lat": 14.187792833333333,
            "lon": 108.0871356
        },
        {
            "name": "AF002",
            "lat": 14.168558883333333,
            "lon": 108.12915993333333
        },
        {
            "name": "AF003",
            "lat": 14.140339,
            "lon": 108.16538336666666
        },
        {
            "name": "AF004",
            "lat": 14.16041425,
            "lon": 108.14152313333334
        },
        {
            "name": "AF005",
            "lat": 14.13507155,
            "lon": 108.17051686666667
        },
        {
            "name": "AF006",
            "lat": 14.083929866666667,
            "lon": 108.20492818333334
        },
        {
            "name": "AF007",
            "lat": 14.062003566666666,
            "lon": 108.21335961666666
        },
        {
            "name": "AF008",
            "lat": 13.841298516666667,
            "lon": 108.12533401666667
        },
        {
            "name": "AF009",
            "lat": 13.874062333333333,
            "lon": 108.16761361666667
        },
        {
            "name": "AF010",
            "lat": 13.916733633333333,
            "lon": 108.19915776666667
        },
        {
            "name": "AF011",
            "lat": 13.829924833333333,
            "lon": 108.10232356666667
        },
        {
            "name": "AF012",
            "lat": 13.862454066666666,
            "lon": 108.15521768333333
        },
        {
            "name": "AF013",
            "lat": 13.9094227,
            "lon": 108.1949756
        },
        {
            "name": "BANSU",
            "lat": 14.286111116666667,
            "lon": 108.15972221666667
        },
        {
            "name": "BMT",
            "lat": 12.6665,
            "lon": 108.123
        },
        {
            "name": "CF09",
            "lat": 14.005944433333333,
            "lon": 107.81011388333333
        },
        {
            "name": "CF27Y",
            "lat": 13.989180566666667,
            "lon": 108.22078888333333
        },
        {
            "name": "CF27Z",
            "lat": 13.991388883333334,
            "lon": 108.195175
        },
        {
            "name": "CI27Y",
            "lat": 14.001063883333334,
            "lon": 108.22148333333334
        },
        {
            "name": "CI27Z",
            "lat": 14.0015,
            "lon": 108.19577221666667
        },
        {
            "name": "CQNB",
            "lat": 15.412277783333334,
            "lon": 108.70447221666667
        },
        {
            "name": "D006N",
            "lat": 14.230777783333334,
            "lon": 108.04861943333333
        },
        {
            "name": "D026N",
            "lat": 14.209125,
            "lon": 108.12595
        },
        {
            "name": "D060L",
            "lat": 14.102227783333333,
            "lon": 108.19521111666667
        },
        {
            "name": "D081L",
            "lat": 14.036075,
            "lon": 108.21915278333333
        },
        {
            "name": "D103L",
            "lat": 13.962658333333334,
            "lon": 108.21646388333333
        },
        {
            "name": "D104J",
            "lat": 13.965486116666666,
            "lon": 108.19071666666666
        },
        {
            "name": "D105J",
            "lat": 13.962658333333334,
            "lon": 108.18996666666666
        },
        {
            "name": "D122J",
            "lat": 13.917288883333333,
            "lon": 108.16973333333334
        },
        {
            "name": "D123J",
            "lat": 13.914827783333333,
            "lon": 108.168125
        },
        {
            "name": "D166N",
            "lat": 13.786763883333334,
            "lon": 108.08034166666667
        },
        {
            "name": "D166O",
            "lat": 13.770519433333334,
            "lon": 108.08448056666667
        },
        {
            "name": "D176N",
            "lat": 13.780605566666667,
            "lon": 108.04053333333333
        },
        {
            "name": "D176O",
            "lat": 13.763908333333333,
            "lon": 108.04172778333333
        },
        {
            "name": "D249M",
            "lat": 13.930969433333333,
            "lon": 107.82441111666667
        },
        {
            "name": "D262M",
            "lat": 13.976825,
            "lon": 107.812225
        },
        {
            "name": "DAKAM",
            "lat": 14.456388883333334,
            "lon": 108.0625
        },
        {
            "name": "DAN",
            "lat": 16.052777783333333,
            "lon": 108.19819443333333
        },
        {
            "name": "DUGOD",
            "lat": 14.422222216666666,
            "lon": 107.84361111666666
        },
        {
            "name": "ENGIM",
            "lat": 13.340555566666666,
            "lon": 108.13916666666667
        },
        {
            "name": "FF09",
            "lat": 14.006013883333333,
            "lon": 107.91297221666667
        },
        {
            "name": "FF27",
            "lat": 13.998727783333333,
            "lon": 108.10979166666667
        },
        {
            "name": "FI27",
            "lat": 14.002577783333333,
            "lon": 108.13112221666667
        },
        {
            "name": "FN09",
            "lat": 14.006636116666666,
            "lon": 107.88888333333334
        },
        {
            "name": "FN27",
            "lat": 13.998916666666666,
            "lon": 108.0994
        },
        {
            "name": "GIALI",
            "lat": 13.569722216666667,
            "lon": 108.14416666666666
        },
        {
            "name": "LATOM",
            "lat": 14.879444433333333,
            "lon": 107.84361111666666
        },
        {
            "name": "MA09",
            "lat": 14.006033333333333,
            "lon": 107.96954721666667
        },
        {
            "name": "MA27",
            "lat": 14.003555566666666,
            "lon": 108.05343611666666
        },
        {
            "name": "MADEN",
            "lat": 13.555277783333333,
            "lon": 108.05777778333334
        },
        {
            "name": "OMGON",
            "lat": 14.458055566666667,
            "lon": 108.01861111666666
        },
        {
            "name": "PATMA",
            "lat": 12.336388883333333,
            "lon": 107.81
        },
        {
            "name": "PATNO",
            "lat": 15.965,
            "lon": 107.885
        },
        {
            "name": "PK711",
            "lat": 14.002555566666667,
            "lon": 108.13188888333333
        },
        {
            "name": "PK712",
            "lat": 14.001083333333334,
            "lon": 108.21797221666667
        },
        {
            "name": "PK713",
            "lat": 13.883888883333332,
            "lon": 108.21611111666667
        },
        {
            "name": "PK714",
            "lat": 14.118055566666667,
            "lon": 108.22027778333333
        },
        {
            "name": "PK715",
            "lat": 13.863333333333333,
            "lon": 108.09277778333333
        },
        {
            "name": "PK716",
            "lat": 14.2175,
            "lon": 108.15833333333333
        },
        {
            "name": "PK717",
            "lat": 13.820555566666666,
            "lon": 107.84
        },
        {
            "name": "PK720",
            "lat": 13.897222216666666,
            "lon": 107.86777778333334
        },
        {
            "name": "PK780",
            "lat": 14.006111116666666,
            "lon": 107.91166666666666
        },
        {
            "name": "PK781",
            "lat": 13.9225,
            "lon": 107.91
        },
        {
            "name": "PK782",
            "lat": 14.089722216666667,
            "lon": 107.91277778333334
        },
        {
            "name": "PK783",
            "lat": 13.815,
            "lon": 107.97194443333333
        },
        {
            "name": "PK785",
            "lat": 13.731944433333334,
            "lon": 108.02
        },
        {
            "name": "PK800",
            "lat": 13.735,
            "lon": 108.06
        },
        {
            "name": "PK911",
            "lat": 14.006333333333334,
            "lon": 107.89927778333333
        },
        {
            "name": "PK912",
            "lat": 14.008194433333333,
            "lon": 107.77927778333333
        },
        {
            "name": "PK913",
            "lat": 13.891111116666666,
            "lon": 107.77722221666667
        },
        {
            "name": "PK914",
            "lat": 14.125277783333333,
            "lon": 107.78111111666666
        },
        {
            "name": "PK916",
            "lat": 14.165833333333333,
            "lon": 107.94694443333333
        },
        {
            "name": "PK918",
            "lat": 14.208611116666667,
            "lon": 108.12222221666667
        },
        {
            "name": "PK980",
            "lat": 14.002777783333332,
            "lon": 108.11333333333333
        },
        {
            "name": "PK981",
            "lat": 13.833333333333334,
            "lon": 108.12555556666666
        },
        {
            "name": "PK982",
            "lat": 14.086666666666666,
            "lon": 108.115
        },
        {
            "name": "PK984",
            "lat": 14.303611116666668,
            "lon": 108.01527778333333
        },
        {
            "name": "PKNB",
            "lat": 14.006666666666666,
            "lon": 108.00888888333333
        },
        {
            "name": "PLK",
            "lat": 14.006038883333334,
            "lon": 108.02440556666667
        },
        {
            "name": "RUXIK",
            "lat": 14.931111116666667,
            "lon": 108.47083333333333
        },
        {
            "name": "SADAS",
            "lat": 13.32,
            "lon": 107.82944443333334
        },
        {
            "name": "SADIN",
            "lat": 15.08,
            "lon": 108.17722221666666
        },
        {
            "name": "TALAP",
            "lat": 14.415,
            "lon": 108.22111111666666
        },
        {
            "name": "TEDIG",
            "lat": 13.593611116666667,
            "lon": 107.83527778333334
        },
        {
            "name": "TORUT",
            "lat": 14.437222216666667,
            "lon": 108.16305556666667
        },
        {
            "name": "VILOT",
            "lat": 15.038611116666667,
            "lon": 108.11166666666666
        },
        {
            "name": "XAQUA",
            "lat": 14.919444433333334,
            "lon": 108.10166666666667
        }
    ],
    "rnws": [
        "RNW 09",
        "RNW 27"
    ],
    "sids": [
        {
            "name": "BMT1A",
            "rnw": "09",
            "fixes": {
                "PK980": "PK980",
                "PK981": "PK981 AT OR ABOVE 7000 SPEED 240",
                "GIALI": "GIALI AT OR ABOVE 10000",
                "ENGIM": "ENGIM",
                "BMT": "BMT"
            },
            "sub_fixes": [],
            "transitions": []
        },
        {
            "name": "BMT1B",
            "rnw": "27",
            "fixes": {
                "PK780": "PK780",
                "PK781": "PK781 SPEED 240",
                "PK783": "PK783 AT OR ABOVE 7000",
                "PK785": "PK785 AT OR BELOW 8000",
                "GIALI": "GIALI AT OR ABOVE 10000",
                "ENGIM": "ENGIM",
                "BMT": "BMT"
            },
            "sub_fixes": [],
            "transitions": []
        },
        {
            "name": "CQ1M",
            "rnw": "09",
            "fixes": {
                "PK980": "PK980",
                "PK982": "PK982 SPEED 240",
                "PK984": "PK984 AT OR BELOW 8000",
                "OMGON": "OMGON AT OR BELOW 12000 AT OR ABOVE 10000",
                "RUXIK": "RUXIK",
                "CQNB": "CQNB"
            },
            "sub_fixes": [],
            "transitions": []
        },
        {
            "name": "CQ1N",
            "rnw": "27",
            "fixes": {
                "PK780": "PK780",
                "PK782": "PK782 SPEED 240",
                "OMGON": "OMGON AT OR BELOW 12000 AT OR ABOVE 10000",
                "RUXIK": "RUXIK",
                "CQNB": "CQNB"
            },
            "sub_fixes": [],
            "transitions": []
        },
        {
            "name": "DAKA1A",
            "rnw": "09",
            "fixes": {
                "PLK": "PLK TURN LEFT HDG 336 INTERCEPT RADIAL 006 TO",
                "DAKAM": "DAKAM AT OR ABOVE 12000"
            },
            "sub_fixes": [],
            "transitions": []
        },
        {
            "name": "DAKA1B",
            "rnw": "27",
            "fixes": {
                "PLK": "PLK TURN RIGHT HDG 036 INTERCEPT RADIAL 006 TO",
                "DAKAM": "DAKAM AT OR ABOVE 12000"
            },
            "sub_fixes": [],
            "transitions": []
        },
        {
            "name": "DAKA1C",
            "rnw": "27",
            "fixes": {
                "DAKAM": "DAKAM AT OR ABOVE 12000"
            },
            "sub_fixes": [],
            "transitions": []
        },
        {
            "name": "DAKA1D",
            "rnw": "09",
            "fixes": {
                "DAKAM": "DAKAM AT OR ABOVE 12000"
            },
            "sub_fixes": [],
            "transitions": []
        },
        {
            "name": "DAN1M",
            "rnw": "09",
            "fixes": {
                "PK980": "PK980",
                "PK982": "PK982 SPEED 240",
                "PK984": "PK984 AT OR BELOW 8000",
                "OMGON": "OMGON AT OR BELOW 12000 AT OR ABOVE 10000",
                "XAQUA": "XAQUA AT OR ABOVE 12000",
                "VILOT": "VILOT",
                "DAN": "DAN"
            },
            "sub_fixes": [],
            "transitions": []
        },
        {
            "name": "DAN1N",
            "rnw": "27",
            "fixes": {
                "PK780": "PK780",
                "PK782": "PK782 SPEED 240",
                "OMGON": "OMGON AT OR BELOW 12000 AT OR ABOVE 10000",
                "XAQUA": "XAQUA AT OR ABOVE 12000",
                "VILOT": "VILOT",
                "DAN": "DAN"
            },
            "sub_fixes": [],
            "transitions": []
        },
        {
            "name": "GIAL1A",
            "rnw": "09",
            "fixes": {
                "PLK": "PLK TURN RIGHT HDG 196 INTERCEPT RADIAL 166 TO",
                "GIALI": "OVERFLY GIALI AT OR ABOVE 9000"
            },
            "sub_fixes": [],
            "transitions": []
        },
        {
            "name": "GIAL1B",
            "rnw": "27",
            "fixes": {
                "PLK": "PLK TURN LEFT HDG 136 INTERCEPT RADIAL 166 TO",
                "GIALI": "GIALI AT OR ABOVE 9000"
            },
            "sub_fixes": [],
            "transitions": []
        },
        {
            "name": "GIAL1C",
            "rnw": "27",
            "fixes": {
                "GIALI": "GIALI AT OR ABOVE 9000"
            },
            "sub_fixes": [],
            "transitions": []
        },
        {
            "name": "GIAL1D",
            "rnw": "09",
            "fixes": {
                "GIALI": "GIALI AT OR ABOVE 9000"
            },
            "sub_fixes": [],
            "transitions": []
        },
        {
            "name": "MADE1A",
            "rnw": "09",
            "fixes": {
                "PLK": "PLK TURN RIGHT HDG 206 INTERCEPT RADIAL 176 TO",
                "MADEN": "MADEN AT OR ABOVE 9000"
            },
            "sub_fixes": [],
            "transitions": []
        },
        {
            "name": "MADE1B",
            "rnw": "27",
            "fixes": {
                "PLK": "PLK TURN LEFT HDG 146 INTERCEPT RADIAL 176 TO",
                "MADEN": "MADEN AT OR ABOVE 9000"
            },
            "sub_fixes": [],
            "transitions": []
        },
        {
            "name": "MADE1C",
            "rnw": "27",
            "fixes": {
                "MADEN": "MADEN AT OR ABOVE 9000"
            },
            "sub_fixes": [],
            "transitions": []
        },
        {
            "name": "MADE1D",
            "rnw": "09",
            "fixes": {
                "MADEN": "MADEN AT OR ABOVE 9000"
            },
            "sub_fixes": [],
            "transitions": []
        },
        {
            "name": "PATN1M",
            "rnw": "09",
            "fixes": {
                "PK980": "PK980",
                "PK982": "PK982 SPEED 240",
                "PK984": "PK984 AT OR BELOW 8000",
                "DUGOD": "DUGOD AT OR ABOVE 10000",
                "LATOM": "LATOM",
                "PATNO": "PATNO AT OR ABOVE 29000"
            },
            "sub_fixes": [],
            "transitions": []
        },
        {
            "name": "PATN1N",
            "rnw": "27",
            "fixes": {
                "PK780": "PK780",
                "PK782": "PK782 SPEED 240",
                "DUGOD": "DUGOD AT OR ABOVE 10000",
                "LATOM": "LATOM",
                "PATNO": "PATNO AT OR ABOVE 29000"
            },
            "sub_fixes": [],
            "transitions": []
        },
        {
            "name": "TALA1A",
            "rnw": "09",
            "fixes": {
                "PLK": "PLK TURN LEFT HDG 356 INTERCEPT RADIAL 026 TO",
                "TALAP": "TALAP AT OR ABOVE 10000"
            },
            "sub_fixes": [],
            "transitions": []
        },
        {
            "name": "TALA1B",
            "rnw": "27",
            "fixes": {
                "PLK": "PLK TURN RIGHT HDG 056 INTERCEPT RADIAL 026 TO",
                "TALAP": "TALAP AT OR ABOVE 10000"
            },
            "sub_fixes": [],
            "transitions": []
        },
        {
            "name": "TALA1C",
            "rnw": "27",
            "fixes": {
                "TALAP": "TALAP AT OR ABOVE 10000"
            },
            "sub_fixes": [],
            "transitions": []
        },
        {
            "name": "TALA1D",
            "rnw": "09",
            "fixes": {
                "TALAP": "TALAP AT OR ABOVE 10000"
            },
            "sub_fixes": [],
            "transitions": []
        },
        {
            "name": "TORU1A",
            "rnw": "09",
            "fixes": {
                "PLK": "PLK TURN LEFT HDG 348 INTERCEPT RADIAL 018 TO",
                "TORUT": "TORUT AT OR ABOVE 12000"
            },
            "sub_fixes": [],
            "transitions": []
        },
        {
            "name": "TORU1B",
            "rnw": "27",
            "fixes": {
                "PLK": "PLK TURN RIGHT HDG 048 INTERCEPT RADIAL 018 TO",
                "TORUT": "TORUT AT OR ABOVE 12000"
            },
            "sub_fixes": [],
            "transitions": []
        },
        {
            "name": "TORU1C",
            "rnw": "27",
            "fixes": {
                "TORUT": "TORUT AT OR ABOVE 12000"
            },
            "sub_fixes": [],
            "transitions": []
        },
        {
            "name": "TORU1D",
            "rnw": "09",
            "fixes": {
                "TORUT": "TORUT AT OR ABOVE 12000"
            },
            "sub_fixes": [],
            "transitions": []
        }
    ],
    "stars": [
        {
            "name": "BMT1C",
            "runway": "RNW 09",
            "fixes": {
                "BMT": "BMT",
                "SADAS": "SADAS",
                "TEDIG": "TEDIG AT OR ABOVE 11000",
                "PK913": "PK913 AT OR ABOVE 7000"
            }
        },
        {
            "name": "BMT1D",
            "runway": "RNW 27",
            "fixes": {
                "BMT": "BMT",
                "SADAS": "SADAS",
                "TEDIG": "TEDIG AT OR ABOVE 11000",
                "PK717": "PK717",
                "PK715": "PK715 AT OR ABOVE 9000",
                "PK713": "PK713 AT OR ABOVE 7000"
            }
        },
        {
            "name": "CQ1P",
            "runway": "RNW 09",
            "fixes": {
                "CQNB": "CQNB",
                "TALAP": "TALAP AT OR ABOVE 13000",
                "PK918": "PK918",
                "PK916": "PK916 AT OR ABOVE 9000",
                "PK914": "PK914 AT OR ABOVE 7000"
            }
        },
        {
            "name": "CQ1Q",
            "runway": "RNW 27",
            "fixes": {
                "CQNB": "CQNB",
                "TALAP": "TALAP AT OR ABOVE 13000",
                "PK716": "PK716",
                "PK714": "PK714 AT OR ABOVE 7000"
            }
        },
        {
            "name": "DAKA1A",
            "runway": "RNW 09 RNW 27",
            "fixes": {
                "DAKAM": "DAKAM AT OR ABOVE 12000",
                "PLK": "PLK AT OR ABOVE 6900"
            }
        },
        {
            "name": "DAKA1B",
            "runway": "RNW 27",
            "fixes": {
                "DAKAM": "DAKAM AT OR ABOVE 12000",
                "D006N": "D006N AT OR ABOVE 7700"
            }
        },
        {
            "name": "DAKA1C",
            "runway": "RNW 09 RNW 27",
            "fixes": {
                "DAKAM": "DAKAM AT OR ABOVE 12000",
                "PKNB": "PKNB AT OR ABOVE 6900"
            }
        },
        {
            "name": "DAN1P",
            "runway": "RNW 09",
            "fixes": {
                "DAN": "DAN",
                "SADIN": "SADIN",
                "TORUT": "TORUT AT OR ABOVE 13000",
                "PK918": "PK918",
                "PK916": "PK916 AT OR ABOVE 9000",
                "PK914": "PK914 AT OR ABOVE 7000"
            }
        },
        {
            "name": "DAN1Q",
            "runway": "RNW 27",
            "fixes": {
                "DAN": "DAN",
                "SADIN": "SADIN",
                "TORUT": "TORUT AT OR ABOVE 13000",
                "PK716": "PK716",
                "PK714": "PK714 AT OR ABOVE 7000"
            }
        },
        {
            "name": "GIAL1A",
            "runway": "RNW 09 RNW 27",
            "fixes": {
                "GIALI": "GIALI AT OR ABOVE 9000",
                "PLK": "PLK AT OR ABOVE 6900"
            }
        },
        {
            "name": "GIAL1B",
            "runway": "RNW 27",
            "fixes": {
                "GIALI": "GIALI AT OR ABOVE 9000",
                "D166N": "D166N AT OR ABOVE 7700"
            }
        },
        {
            "name": "GIAL1C",
            "runway": "RNW 09 RNW 27",
            "fixes": {
                "GIALI": "GIALI AT OR ABOVE 9000",
                "PKNB": "PKNB AT OR ABOVE 6900"
            }
        },
        {
            "name": "GIAL1D",
            "runway": "RNW 09",
            "fixes": {
                "GIALI": "GIALI AT OR ABOVE 9000",
                "D166O": "D166O AT OR ABOVE 8000"
            }
        },
        {
            "name": "MADE1A",
            "runway": "RNW 09 RNW 27",
            "fixes": {
                "MADEN": "MADEN AT OR ABOVE 9000",
                "PLK": "PLK AT OR ABOVE 6900"
            }
        },
        {
            "name": "MADE1B",
            "runway": "RNW 27",
            "fixes": {
                "MADEN": "MADEN AT OR ABOVE 9000",
                "D176N": "D176N AT OR ABOVE 7700"
            }
        },
        {
            "name": "MADE1C",
            "runway": "RNW 09 RNW 27",
            "fixes": {
                "MADEN": "MADEN AT OR ABOVE 9000",
                "PKNB": "PKNB AT OR ABOVE 6900"
            }
        },
        {
            "name": "MADE1D",
            "runway": "RNW 09",
            "fixes": {
                "MADEN": "MADEN AT OR ABOVE 9000",
                "D176O": "D176O AT OR ABOVE 8000"
            }
        },
        {
            "name": "PATM1C",
            "runway": "RNW 09",
            "fixes": {
                "PATMA": "PATMA",
                "SADAS": "SADAS",
                "TEDIG": "TEDIG AT OR ABOVE 11000",
                "PK913": "PK913 AT OR ABOVE 7000"
            }
        },
        {
            "name": "PATM1D",
            "runway": "RNW 27",
            "fixes": {
                "PATMA": "PATMA",
                "SADAS": "SADAS",
                "TEDIG": "TEDIG AT OR ABOVE 11000",
                "PK717": "PK717",
                "PK715": "PK715 AT OR ABOVE 9000",
                "PK713": "PK713 AT OR ABOVE 7000"
            }
        },
        {
            "name": "TALA1A",
            "runway": "RNW 09 RNW 27",
            "fixes": {
                "TALAP": "TALAP AT OR ABOVE 10000",
                "PLK": "PLK AT OR ABOVE 6900"
            }
        },
        {
            "name": "TALA1B",
            "runway": "RNW 27",
            "fixes": {
                "TALAP": "TALAP AT OR ABOVE 10000",
                "BANSU": "BANSU AT OR ABOVE 9000",
                "D026N": "D026N AT OR ABOVE 7700"
            }
        },
        {
            "name": "TALA1C",
            "runway": "RNW 09 RNW 27",
            "fixes": {
                "TALAP": "TALAP AT OR ABOVE 10000",
                "PKNB": "PKNB AT OR ABOVE 6900"
            }
        },
        {
            "name": "TORU1A",
            "runway": "RNW 09 RNW 27",
            "fixes": {
                "TORUT": "TORUT AT OR ABOVE 12000",
                "PLK": "PLK AT OR ABOVE 6900"
            }
        },
        {
            "name": "TORU1B",
            "runway": "RNW 27",
            "fixes": {
                "TORUT": "TORUT AT OR ABOVE 12000",
                "BANSU": "BANSU AT OR ABOVE 9000",
                "D026N": "D026N AT OR ABOVE 7700"
            }
        },
        {
            "name": "TORU1C",
            "runway": "RNW 09 RNW 27",
            "fixes": {
                "TORUT": "TORUT AT OR ABOVE 12000",
                "PKNB": "PKNB AT OR ABOVE 6900"
            }
        }
    ],
    "approaches": [
        {
            "name": "VORDY09",
            "fixes": {
                "CF09": "CF09 AT OR ABOVE 5600",
                "FF09": "FF09 4170",
                "MA09": "MA09 3125 RNW 09",
                "PLK": "PLK TRK 090 UNTIL 4000 TURN RIGHT DIRECT PLK 6900 HOLD AT PLK LEFT TURN INBOUNDCOURSE 248 ALT 6900 LEGTIME 1 FAF FF09 MAP MA09"
            },
            "transitions": [
                {
                    "name": "D166O",
                    "fixes": {
                        "D166O": "D166O AT OR ABOVE 8000"
                    }
                },
                {
                    "name": "D176O",
                    "fixes": {
                        "D176O": "D176O AT OR ABOVE 8000"
                    }
                }
            ]
        },
        {
            "name": "VORDZ09",
            "fixes": {
                "CF09": "CF09 AT OR ABOVE 5600",
                "FF09": "FF09 4170",
                "MA09": "MA09 3125 RNW 09",
                "PLK": "PLK TRK 090 UNTIL 4000 TURN RIGHT DIRECT PLK 6900 HOLD AT PLK LEFT TURN INBOUNDCOURSE 248 ALT 6900 LEGTIME 1 FAF FF09 MAP MA09"
            },
            "transitions": [
                {
                    "name": "PLK1",
                    "fixes": {
                        "PLK": "PLK AT OR ABOVE 6900",
                        "D249M": "OVERFLY D249M AT OR ABOVE 5600"
                    }
                },
                {
                    "name": "PLK2",
                    "fixes": {
                        "PLK": "PLK AT OR ABOVE 6900",
                        "D262M": "OVERFLY D262M AT OR ABOVE 5600"
                    }
                }
            ]
        },
        {
            "name": "VORDY27",
            "fixes": {
                "CF27Y": "CF27Y AT OR ABOVE 5610",
                "FF27": "FF27 4030",
                "MA27": "MA27 2972 RNW 27",
                "PLK": "PLK TRK 275 UNTIL 4000 TURN LEFT DIRECT PLK 6900 HOLD AT PLK RIGHT TURN INBOUNDCOURSE 122 ALT 6900 LEGTIME 1 FAF FF27 MAP MA27"
            },
            "transitions": [
                {
                    "name": "D006N",
                    "fixes": {
                        "D006N": "D006N AT OR ABOVE 7700",
                        "AF001": "AF001",
                        "AF002": "AF002",
                        "AF003": "AF003",
                        "D060L": "D060L AT OR ABOVE 7000"
                    }
                },
                {
                    "name": "D026N",
                    "fixes": {
                        "D026N": "D026N AT OR ABOVE 7700",
                        "AF004": "AF004",
                        "AF005": "AF005",
                        "D060L": "D060L AT OR ABOVE 7000"
                    }
                },
                {
                    "name": "D166N",
                    "fixes": {
                        "D166N": "D166N AT OR ABOVE 7700"
                    }
                },
                {
                    "name": "D176N",
                    "fixes": {
                        "D176N": "D176N AT OR ABOVE 7700"
                    }
                }
            ]
        },
        {
            "name": "VORDZ27",
            "fixes": {
                "CF27Z": "CF27Z AT OR ABOVE 5100",
                "FF27": "FF27 4030",
                "MA27": "MA27 2972 RNW 27",
                "PLK": "PLK TRK 275 UNTIL 4000 TURN LEFT DIRECT PLK 6900 HOLD AT PLK RIGHT TURN INBOUNDCOURSE 122 ALT 6900 LEGTIME 1 FAF FF27 MAP MA27"
            },
            "transitions": [
                {
                    "name": "PLK1",
                    "fixes": {
                        "PLK": "PLK AT OR ABOVE 6900",
                        "D122J": "OVERFLY D122J AT OR ABOVE 5100"
                    }
                },
                {
                    "name": "PLK2",
                    "fixes": {
                        "PLK": "PLK AT OR ABOVE 6900",
                        "D105J": "OVERFLY D105J AT OR ABOVE 5100"
                    }
                }
            ]
        },
        {
            "name": "ILSW27",
            "fixes": {
                "PK712": "PK712 5400",
                "PK711": "PK711 4429 RNW 27 TRK 272 UNTIL 3400",
                "PK720": "PK720 SPEED 230 TURN LEFT DIRECT",
                "PK800": "PK800 6000 HOLD AT PK800 RIGHT TURN INBOUNDCOURSE 047 ALT 6000 LEGTIME 1 FAF PK711 MAP RNW 27"
            },
            "transitions": [
                {
                    "name": "PK800",
                    "fixes": {
                        "PK800": "PK800 AT OR ABOVE 6000",
                        "PK713": "PK713"
                    }
                }
            ]
        },
        {
            "name": "ILSX27",
            "fixes": {
                "PK712": "PK712 5400",
                "PK711": "PK711 4429 RNW 27 TRK 272 UNTIL 3400",
                "PK720": "PK720 SPEED 230 TURN LEFT DIRECT",
                "PK800": "PK800 6000 HOLD AT PK800 RIGHT TURN INBOUNDCOURSE 047 ALT 6000 LEGTIME 1 FAF PK711 MAP RNW 27"
            },
            "transitions": [
                {
                    "name": "PK713",
                    "fixes": {
                        "PK713": "PK713 AT OR ABOVE 7000"
                    }
                },
                {
                    "name": "PK714",
                    "fixes": {
                        "PK714": "PK714 AT OR ABOVE 7000"
                    }
                }
            ]
        },
        {
            "name": "ILSY27",
            "fixes": {
                "CI27Y": "CI27Y AT OR ABOVE 5600",
                "FI27": "FI27 4403 RNW 27 HDG 272 UNTIL 4000 TURN LEFT DIRECT",
                "PLK": "PLK 6900 HOLD AT PLK RIGHT TURN INBOUNDCOURSE 122 ALT 6900 LEGTIME 1 FAF FI27 MAP RNW 27"
            },
            "transitions": [
                {
                    "name": "D006N",
                    "fixes": {
                        "D006N": "D006N AT OR ABOVE 7700",
                        "AF001": "AF001",
                        "AF002": "AF002",
                        "AF003": "AF003",
                        "D060L": "D060L AT OR ABOVE 7000",
                        "AF006": "AF006",
                        "AF007": "AF007",
                        "D081L": "D081L AT OR ABOVE 5600"
                    }
                },
                {
                    "name": "D026N",
                    "fixes": {
                        "D026N": "D026N AT OR ABOVE 7700",
                        "AF004": "AF004",
                        "AF005": "AF005",
                        "D060L": "D060L AT OR ABOVE 7000",
                        "AF006": "AF006",
                        "AF007": "AF007",
                        "D081L": "D081L AT OR ABOVE 5600"
                    }
                },
                {
                    "name": "D166N",
                    "fixes": {
                        "D166N": "D166N AT OR ABOVE 7700",
                        "AF008": "AF008",
                        "AF009": "AF009",
                        "AF010": "AF010",
                        "D103L": "D103L AT OR ABOVE 5600"
                    }
                },
                {
                    "name": "D176N",
                    "fixes": {
                        "D176N": "D176N AT OR ABOVE 7700",
                        "AF011": "AF011",
                        "AF012": "AF012",
                        "AF013": "AF013",
                        "D103L": "D103L AT OR ABOVE 5600"
                    }
                }
            ]
        },
        {
            "name": "ILSZ27",
            "fixes": {
                "CI27Z": "CI27Z AT OR ABOVE 5100",
                "FI27": "FI27 4403 RNW 27 HDG 272 UNTIL 4000 TURN LEFT DIRECT",
                "PLK": "PLK AT OR ABOVE 6900 HOLD AT PLK RIGHT TURN INBOUNDCOURSE 122 ALT 6900 LEGTIME 1 FAF FI27 MAP RNW 27"
            },
            "transitions": [
                {
                    "name": "PLK1",
                    "fixes": {
                        "PLK": "PLK AT OR ABOVE 6900",
                        "D123J": "OVERFLY D123J AT OR ABOVE 5100"
                    }
                },
                {
                    "name": "PLK2",
                    "fixes": {
                        "PLK": "PLK AT OR ABOVE 6900",
                        "D104J": "OVERFLY D104J AT OR ABOVE 5100"
                    }
                }
            ]
        },
        {
            "name": "NDB09",
            "fixes": {
                "FN09": "FN09 5190 RNW 09",
                "PKNB": "OVERFLY PKNB TRK 090 UNTIL 4000 TURN RIGHT DIRECT PKNB 6900 HOLD AT PKNB RIGHT TURN INBOUNDCOURSE 240 ALT 6900 LEGTIME 1 FAF FN09 MAP RNW 09"
            },
            "transitions": [
                {
                    "name": "PK1",
                    "fixes": {
                        "PKNB": "PKNB AT OR ABOVE 6900 TRK 240 UNTIL 7.0 FROM PKNB"
                    }
                },
                {
                    "name": "PK2",
                    "fixes": {
                        "PKNB": "PKNB AT OR ABOVE 6900 TRK 255 UNTIL 7.5 FROM PKNB"
                    }
                }
            ]
        },
        {
            "name": "NDB27",
            "fixes": {
                "FN27": "FN27 5200 RNW 27",
                "PKNB": "OVERFLY PKNB TRK 275 UNTIL 4000 TURN LEFT DIRECT PKNB 6900 HOLD AT PKNB LEFT TURN INBOUNDCOURSE 134 ALT 6900 LEGTIME 1 FAF FN27 MAP RNW 27"
            },
            "transitions": [
                {
                    "name": "PK1",
                    "fixes": {
                        "PKNB": "PKNB AT OR ABOVE 6900 TRK 134 UNTIL 5.3 FROM PKNB"
                    }
                },
                {
                    "name": "PK2",
                    "fixes": {
                        "PKNB": "PKNB AT OR ABOVE 6900 TRK 109 UNTIL 7.5 FROM PKNB"
                    }
                }
            ]
        },
        {
            "name": "RNAVY09",
            "fixes": {
                "PK912": "PK912 6000",
                "PK911": "PK911 4430 RNW 09 TRK 092 UNTIL 3600 TURN RIGHT DIRECT",
                "PK800": "PK800 6000 HOLD AT PK800 LEFT TURN INBOUNDCOURSE 300 ALT 6000 LEGTIME 1 FAF PK911 MAP RNW 09"
            },
            "transitions": [
                {
                    "name": "PK800",
                    "fixes": {
                        "PK800": "PK800 AT OR ABOVE 6000",
                        "PK913": "PK913"
                    }
                }
            ]
        },
        {
            "name": "RNAVZ09",
            "fixes": {
                "PK912": "PK912 6000",
                "PK911": "PK911 4430 RNW 09 TRK 092 UNTIL 3600 TURN RIGHT DIRECT",
                "PK800": "PK800 6000 HOLD AT PK800 LEFT TURN INBOUNDCOURSE 300 ALT 6000 LEGTIME 1 FAF PK911 MAP RNW 09"
            },
            "transitions": [
                {
                    "name": "PK913",
                    "fixes": {
                        "PK913": "PK913 AT OR ABOVE 7000"
                    }
                },
                {
                    "name": "PK914",
                    "fixes": {
                        "PK914": "PK914 AT OR ABOVE 7000"
                    }
                }
            ]
        },
        {
            "name": "RNAVY27",
            "fixes": {
                "PK712": "PK712 5400",
                "PK711": "PK711 4430 RNW 27 TRK 272 UNTIL 3400",
                "PK720": "PK720 SPEED 230 TURN LEFT DIRECT",
                "PK800": "PK800 6000 HOLD AT PK800 RIGHT TURN INBOUNDCOURSE 047 ALT 6000 LEGTIME 1 FAF PK711 MAP RNW 27"
            },
            "transitions": [
                {
                    "name": "PK800",
                    "fixes": {
                        "PK800": "PK800 AT OR ABOVE 6000",
                        "PK713": "PK713"
                    }
                }
            ]
        },
        {
            "name": "RNAVZ27",
            "fixes": {
                "PK712": "PK712 5400",
                "PK711": "PK711 4430 RNW 27 TRK 272 UNTIL 3400",
                "PK720": "PK720 SPEED 230 TURN LEFT DIRECT",
                "PK800": "PK800 6000 HOLD AT PK800 RIGHT TURN INBOUNDCOURSE 047 ALT 6000 LEGTIME 1 FAF PK711 MAP RNW 27"
            },
            "transitions": [
                {
                    "name": "PK713",
                    "fixes": {
                        "PK713": "PK713 AT OR ABOVE 7000"
                    }
                },
                {
                    "name": "PK714",
                    "fixes": {
                        "PK714": "PK714 AT OR ABOVE 7000"
                    }
                }
            ]
        }
    ]
}