{
    "fixes": [
        {
            "name": "DOGIP",
            "lat": 20.736916666666666,
            "lon": 96.27461111666666
        },
        {
            "name": "FF17",
            "lat": 21.814983333333334,
            "lon": 95.94955
        },
        {
            "name": "FF35",
            "lat": 21.585163883333333,
            "lon": 95.99342778333333
        },
        {
            "name": "FI17",
            "lat": 21.835108333333334,
            "lon": 95.95174721666666
        },
        {
            "name": "FQ17",
            "lat": 21.815747216666665,
            "lon": 95.95278611666667
        },
        {
            "name": "FQ35",
            "lat": 21.585088883333334,
            "lon": 95.99263056666666
        },
        {
            "name": "HEHOO",
            "lat": 21.355444433333332,
            "lon": 96.27602778333333
        },
        {
            "name": "IBONA",
            "lat": 22.351388883333332,
            "lon": 96.8
        },
        {
            "name": "MA17",
            "lat": 21.738244433333332,
            "lon": 95.971575
        },
        {
            "name": "MA35",
            "lat": 21.666175,
            "lon": 95.98432778333333
        },
        {
            "name": "MALAY",
            "lat": 21.72825,
            "lon": 96.15475
        },
        {
            "name": "MDN01",
            "lat": 21.907777783333334,
            "lon": 96.03327778333333
        },
        {
            "name": "MDN02",
            "lat": 21.965527783333332,
            "lon": 95.92802778333333
        },
        {
            "name": "MDN03",
            "lat": 21.867027783333334,
            "lon": 95.85488888333333
        },
        {
            "name": "MDN04",
            "lat": 21.806222216666665,
            "lon": 95.95883333333333
        },
        {
            "name": "MDN05",
            "lat": 21.883444433333334,
            "lon": 95.94513888333333
        },
        {
            "name": "MDN07",
            "lat": 21.72875,
            "lon": 95.78625
        },
        {
            "name": "MDN08",
            "lat": 21.760111116666668,
            "lon": 95.94872221666667
        },
        {
            "name": "MDN09",
            "lat": 21.700083333333332,
            "lon": 95.78163888333333
        },
        {
            "name": "MDN10",
            "lat": 21.622027783333333,
            "lon": 95.81369443333334
        },
        {
            "name": "MDN11",
            "lat": 21.769638883333332,
            "lon": 95.96569443333334
        },
        {
            "name": "MDN13",
            "lat": 22.336333333333332,
            "lon": 96.52383333333333
        },
        {
            "name": "MDS01",
            "lat": 21.496277783333333,
            "lon": 95.91480556666667
        },
        {
            "name": "MDS02",
            "lat": 21.429333333333332,
            "lon": 96.02811111666666
        },
        {
            "name": "MDS03",
            "lat": 21.531138883333334,
            "lon": 96.10641666666666
        },
        {
            "name": "MDS04",
            "lat": 21.596583333333335,
            "lon": 95.99594443333334
        },
        {
            "name": "MDS05",
            "lat": 21.513722216666668,
            "lon": 96.01058333333333
        },
        {
            "name": "MDS07",
            "lat": 21.637555566666666,
            "lon": 95.98872221666667
        },
        {
            "name": "MDS08",
            "lat": 21.605555566666666,
            "lon": 95.81313888333334
        },
        {
            "name": "MDS09",
            "lat": 21.710638883333335,
            "lon": 95.79127778333333
        },
        {
            "name": "MDS10",
            "lat": 21.564555566666666,
            "lon": 95.82041666666667
        },
        {
            "name": "MDS11",
            "lat": 21.338916666666666,
            "lon": 96.20208333333333
        },
        {
            "name": "MDS13",
            "lat": 21.602027783333334,
            "lon": 96.17019443333334
        },
        {
            "name": "MDS14",
            "lat": 21.372583333333335,
            "lon": 96.31733333333334
        },
        {
            "name": "MIA",
            "lat": 21.711588883333334,
            "lon": 95.97922221666667
        },
        {
            "name": "MIANB",
            "lat": 21.688147216666668,
            "lon": 95.98685833333333
        },
        {
            "name": "MQ17",
            "lat": 21.738641666666666,
            "lon": 95.97338056666666
        },
        {
            "name": "MQ35",
            "lat": 21.657091666666666,
            "lon": 95.98859721666666
        },
        {
            "name": "SITHU",
            "lat": 21.462361116666667,
            "lon": 96.18713888333333
        },
        {
            "name": "TADAU",
            "lat": 21.8756,
            "lon": 95.94408056666667
        },
        {
            "name": "THADU",
            "lat": 21.934277783333332,
            "lon": 96.12975
        },
        {
            "name": "THAZI",
            "lat": 21.258666666666667,
            "lon": 96.35636111666666
        },
        {
            "name": "ZIDAW",
            "lat": 21.050944433333335,
            "lon": 96.08733333333333
        }
    ],
    "rnws": [
        "RNW 17",
        "RNW 35"
    ],
    "sids": [
        {
            "name": "DOGI1N",
            "rnw": "35",
            "fixes": {
                "MDN11": "OVERFLY MDN11 AT OR ABOVE 700 SPEED 205 TURN RIGHT DIRECT",
                "MDS13": "MDS13",
                "SITHU": "SITHU AT OR ABOVE 10000",
                "DOGIP": "DOGIP AT OR ABOVE 18000"
            },
            "sub_fixes": [],
            "transitions": []
        },
        {
            "name": "DOGI1S",
            "rnw": "17",
            "fixes": {
                "MDS02": "MDS02",
                "ZIDAW": "ZIDAW AT OR ABOVE 7000",
                "DOGIP": "DOGIP AT OR BELOW 14000"
            },
            "sub_fixes": [],
            "transitions": []
        },
        {
            "name": "IBON1N",
            "rnw": "35",
            "fixes": {
                "MDN02": "MDN02 AT OR ABOVE 5500 SPEED 205",
                "MDN13": "MDN13",
                "IBONA": "IBONA AT OR ABOVE 25000"
            },
            "sub_fixes": [],
            "transitions": []
        },
        {
            "name": "IBON1S",
            "rnw": "17",
            "fixes": {
                "MDS04": "MDS04",
                "MDS10": "MDS10 AT OR ABOVE 5400 SPEED 205",
                "MDN07": "MDN07 AT OR ABOVE 9000",
                "MDN02": "MDN02 AT OR ABOVE 12000",
                "MDN13": "MDN13",
                "IBONA": "IBONA AT OR ABOVE 25000"
            },
            "sub_fixes": [],
            "transitions": []
        },
        {
            "name": "THAZ1N",
            "rnw": "35",
            "fixes": {
                "MDN11": "OVERFLY MDN11 AT OR ABOVE 700 SPEED 205 TURN RIGHT DIRECT",
                "MDS13": "MDS13",
                "MDS14": "MDS14 AT OR ABOVE 13000",
                "THAZI": "THAZI"
            },
            "sub_fixes": [],
            "transitions": []
        },
        {
            "name": "THAZ1S",
            "rnw": "17",
            "fixes": {
                "MDS02": "MDS02",
                "MDS11": "MDS11 AT OR BELOW 6000",
                "THAZI": "THAZI AT OR BELOW 8000"
            },
            "sub_fixes": [],
            "transitions": []
        }
    ],
    "stars": [
        {
            "name": "DOGI1E",
            "runway": "RNW 17",
            "fixes": {
                "DOGIP": "DOGIP AT OR ABOVE 16000 SPEED 230",
                "SITHU": "SITHU AT OR ABOVE 14000 SPEED 230",
                "MALAY": "MALAY AT OR ABOVE 8000 SPEED 230",
                "MDN01": "MDN01 AT OR ABOVE 4200 SPEED 230"
            }
        },
        {
            "name": "DOGI1W",
            "runway": "RNW 35",
            "fixes": {
                "DOGIP": "DOGIP AT OR BELOW 16000",
                "ZIDAW": "ZIDAW AT OR ABOVE 8000 SPEED 230",
                "MDS02": "MDS02 AT OR ABOVE 5000 SPEED 230"
            }
        },
        {
            "name": "HEHO1E",
            "runway": "RNW 17",
            "fixes": {
                "HEHOO": "HEHOO AT OR ABOVE 12000 SPEED 230",
                "SITHU": "SITHU AT OR ABOVE 12000 SPEED 230",
                "MALAY": "MALAY AT OR ABOVE 8000 SPEED 230",
                "MDN01": "MDN01 AT OR ABOVE 4200 SPEED 230"
            }
        },
        {
            "name": "IBON1W",
            "runway": "RNW 35",
            "fixes": {
                "IBONA": "IBONA AT OR BELOW 24000",
                "THADU": "THADU AT OR ABOVE 6000",
                "MDS03": "MDS03 AT OR ABOVE 5000 SPEED 230"
            }
        },
        {
            "name": "THAD1E",
            "runway": "RNW 17",
            "fixes": {
                "THADU": "THADU AT OR ABOVE 6000 SPEED 230",
                "MDN01": "MDN01 AT OR ABOVE 4200 SPEED 230"
            }
        },
        {
            "name": "THAZ1W",
            "runway": "RNW 35",
            "fixes": {
                "THAZI": "THAZI AT OR BELOW 12000 SPEED 230",
                "MDS11": "MDS11 AT OR BELOW 9000",
                "MDS02": "MDS02 AT OR ABOVE 5000 SPEED 230"
            }
        }
    ],
    "approaches": [
        {
            "name": "VORD17",
            "fixes": {
                "FF17": "FF17 2200",
                "MA17": "MA17 687 RNW 17 HDG 166 UNTIL 2000 TURN RIGHT DIRECT",
                "MIA": "MIA FAF FF17 MAP MA17"
            },
            "transitions": [
                {
                    "name": "MIA1",
                    "fixes": {
                        "MIA": "MIA AT OR ABOVE 3000 TRK 016 UNTIL 6.4 FROM MIA"
                    }
                },
                {
                    "name": "MIA2",
                    "fixes": {
                        "MIA": "MIA AT OR ABOVE 3000 TRK 001 UNTIL 6.4 FROM MIA"
                    }
                }
            ]
        },
        {
            "name": "VORD35",
            "fixes": {
                "FF35": "FF35 2200",
                "MA35": "MA35 659 RNW 35 HDG 355 UNTIL 2000 TURN LEFT DIRECT",
                "MIA": "MIA FAF FF35 MAP MA35"
            },
            "transitions": [
                {
                    "name": "MIA1",
                    "fixes": {
                        "MIA": "MIA AT OR ABOVE 3000 TRK 205 UNTIL 7.6 FROM MIA"
                    }
                },
                {
                    "name": "MIA2",
                    "fixes": {
                        "MIA": "MIA AT OR ABOVE 3000 TRK 190 UNTIL 7.6 FROM MIA"
                    }
                }
            ]
        },
        {
            "name": "ILS17",
            "fixes": {
                "TADAU": "TADAU AT OR ABOVE 3350 TADAU FAF FI17 MAP RNW 17",
                "FI17": "FI17 2570 RNW 17 HDG 171 UNTIL 2000 TURN RIGHT DIRECT"
            },
            "transitions": [
                {
                    "name": "TADAU",
                    "fixes": {
                        "TADAU": "TADAU RIGHT TURN INBOUNDCOURSE 171 ALT 4000 LEGTIME 1"
                    }
                }
            ]
        },
        {
            "name": "NDBD17",
            "fixes": {
                "FQ17": "FQ17 2200",
                "MQ17": "MQ17 687 RNW 17 HDG 167 UNTIL 2000 TURN RIGHT DIRECT",
                "MIANB": "MIANB FAF FQ17 MAP MQ17"
            },
            "transitions": [
                {
                    "name": "MIA1",
                    "fixes": {
                        "MIANB": "MIANB AT OR ABOVE 3000 TRK 017 UNTIL 6.4 FROM",
                        "MIA": "MIA"
                    }
                },
                {
                    "name": "MIA2",
                    "fixes": {
                        "MIANB": "MIANB AT OR ABOVE 3000 TRK 002 UNTIL 6.4 FROM",
                        "MIA": "MIA"
                    }
                }
            ]
        },
        {
            "name": "NDBD35",
            "fixes": {
                "FQ35": "FQ35 2200",
                "MQ35": "MQ35 837 RNW 35 HDG 358 UNTIL 2000 TURN LEFT DIRECT",
                "MIANB": "MIANB FAF FQ35 MAP MQ35"
            },
            "transitions": [
                {
                    "name": "MIA1",
                    "fixes": {
                        "MIANB": "MIANB AT OR ABOVE 3000 TRK 208 UNTIL 7.6 FROM",
                        "MIA": "MIA"
                    }
                },
                {
                    "name": "MIA2",
                    "fixes": {
                        "MIANB": "MIANB AT OR ABOVE 3000 TRK 193 UNTIL 7.6 FROM",
                        "MIA": "MIA"
                    }
                }
            ]
        },
        {
            "name": "RNAV17",
            "fixes": {
                "MDN05": "MDN05 AT OR ABOVE 2800 SPEED 200",
                "MDN04": "MDN04 2000 RNW 17",
                "MDS07": "MDS07 AT OR ABOVE 1400",
                "MDS08": "MDS08 AT OR ABOVE 2900 SPEED 210",
                "MDS09": "OVERFLY MDS09 AT OR ABOVE 3000 SPEED 230 HOLD AT MDS09 RIGHT TURN INBOUNDCOURSE 050 ALT 3000 SPEED 230 LEGTIME 1 FAF MDN04 MAP RNW 17"
            },
            "transitions": [
                {
                    "name": "MDN02",
                    "fixes": {
                        "MDN02": "MDN02 SPEED 230"
                    }
                },
                {
                    "name": "MDN03",
                    "fixes": {
                        "MDN03": "MDN03 SPEED 230"
                    }
                },
                {
                    "name": "THADU",
                    "fixes": {
                        "THADU": "THADU AT OR ABOVE 6000 SPEED 230",
                        "MDN01": "MDN01 AT OR ABOVE 4200 SPEED 230"
                    }
                }
            ]
        },
        {
            "name": "RNAV35",
            "fixes": {
                "MDS05": "MDS05 AT OR ABOVE 3000 SPEED 200",
                "MDS04": "MDS04 2000 RNW 35",
                "MDN08": "MDN08 AT OR ABOVE 1400",
                "MDN09": "MDN09 AT OR ABOVE 2900 SPEED 210",
                "MDN10": "OVERFLY MDN10 AT OR ABOVE 3600 SPEED 230 HOLD AT MDN10 RIGHT TURN INBOUNDCOURSE 110 ALT 4000 SPEED 230 LEGTIME 1 FAF MDS04 MAP RNW 35"
            },
            "transitions": [
                {
                    "name": "MDS01",
                    "fixes": {
                        "MDS01": "MDS01 AT OR ABOVE 5000 SPEED 230"
                    }
                },
                {
                    "name": "MDS02",
                    "fixes": {
                        "MDS02": "MDS02 AT OR ABOVE 5000 SPEED 230"
                    }
                },
                {
                    "name": "MDS03",
                    "fixes": {
                        "MDS03": "MDS03 AT OR ABOVE 5000 SPEED 230"
                    }
                }
            ]
        }
    ]
}