{
    "fixes": [
        {
            "name": "ANY",
            "lat": 6.974694433333333,
            "lon": 110.38011111666667
        },
        {
            "name": "CD09",
            "lat": 7.791569433333334,
            "lon": 110.22584443333334
        },
        {
            "name": "CF09",
            "lat": 7.7949055666666665,
            "lon": 110.22784443333333
        },
        {
            "name": "EP09",
            "lat": 7.786061116666667,
            "lon": 110.42166111666667
        },
        {
            "name": "FF09",
            "lat": 7.79275,
            "lon": 110.31294443333333
        },
        {
            "name": "FN09",
            "lat": 7.7953777833333335,
            "lon": 110.35514721666667
        },
        {
            "name": "GURLA",
            "lat": 7.78575,
            "lon": 110.17647221666667
        },
        {
            "name": "HH401",
            "lat": 7.796083333333334,
            "lon": 110.22569443333333
        },
        {
            "name": "HH402",
            "lat": 7.792861116666667,
            "lon": 110.30961111666667
        },
        {
            "name": "JOG",
            "lat": 7.800333333333334,
            "lon": 110.30933333333333
        },
        {
            "name": "LASEM",
            "lat": 6.618333333333333,
            "lon": 111.615
        },
        {
            "name": "LILPO",
            "lat": 7.767777783333333,
            "lon": 110.01833333333333
        },
        {
            "name": "MD09",
            "lat": 7.790516666666667,
            "lon": 110.40285556666667
        },
        {
            "name": "OFNB",
            "lat": 7.784316666666666,
            "lon": 110.43411943333334
        },
        {
            "name": "PURWO",
            "lat": 7.196666666666666,
            "lon": 110.75222221666667
        },
        {
            "name": "SONB",
            "lat": 7.512138883333334,
            "lon": 110.74655556666667
        }
    ],
    "rnws": [
        "RNW 09",
        "RNW 27"
    ],
    "sids": [
        {
            "name": "LILP1A",
            "rnw": "09",
            "fixes": {
                "JOG": "JOG 3000",
                "LILPO": "LILPO"
            },
            "sub_fixes": [],
            "transitions": []
        },
        {
            "name": "LILP1B",
            "rnw": "27",
            "fixes": {
                "JOG": "JOG AT OR BELOW 3000",
                "LILPO": "LILPO"
            },
            "sub_fixes": [],
            "transitions": []
        },
        {
            "name": "YOGY1A",
            "rnw": "09",
            "fixes": {
                "SONB": "SONB AT OR ABOVE 6000",
                "PURWO": "PURWO"
            },
            "sub_fixes": [],
            "transitions": []
        },
        {
            "name": "YOGY1B",
            "rnw": "27",
            "fixes": {
                "SONB": "SONB AT OR ABOVE 6000",
                "PURWO": "PURWO"
            },
            "sub_fixes": [],
            "transitions": []
        }
    ],
    "stars": [
        {
            "name": "ANY1A",
            "runway": "RNW 09 RNW 27",
            "fixes": {
                "ANY": "ANY",
                "PURWO": "PURWO 12000",
                "SONB": "SONB 12000",
                "OFNB": "OFNB",
                "GURLA": "GURLA"
            }
        },
        {
            "name": "LASE1F",
            "runway": "RNW 09 RNW 27",
            "fixes": {
                "LASEM": "LASEM",
                "PURWO": "PURWO 12000",
                "SONB": "SONB 12000",
                "OFNB": "OFNB",
                "GURLA": "GURLA"
            }
        },
        {
            "name": "LILP1C",
            "runway": "RNW 09 RNW 27",
            "fixes": {
                "LILPO": "LILPO",
                "GURLA": "GURLA"
            }
        }
    ],
    "approaches": [
        {
            "name": "VORD09",
            "fixes": {
                "CD09": "CD09 AT OR ABOVE 3500",
                "JOG": "JOG 2500 JOG",
                "MD09": "MD09 790 RNW 09 TRK 083 UNTIL 880 TURN LEFT DIRECT",
                "GURLA": "GURLA AT OR ABOVE 4500 FAF JOG MAP MD09"
            },
            "transitions": [
                {
                    "name": "GURLA",
                    "fixes": {
                        "GURLA": "GURLA AT OR ABOVE 4500"
                    }
                }
            ]
        },
        {
            "name": "ILS09",
            "fixes": {
                "CF09": "CF09 AT OR ABOVE 3500",
                "FF09": "FF09 2500 RNW 09 TRK 087 UNTIL 880 TURN LEFT DIRECT",
                "JOG": "JOG",
                "GURLA": "GURLA AT OR ABOVE 4500 FAF FF09 MAP RNW 09"
            },
            "transitions": [
                {
                    "name": "GURLA",
                    "fixes": {
                        "GURLA": "GURLA AT OR ABOVE 4500"
                    }
                }
            ]
        },
        {
            "name": "NDBY09",
            "fixes": {
                "FN09": "FN09 1600",
                "EP09": "OVERFLY EP09 424",
                "OFNB": "OVERFLY OFNB AT OR ABOVE 880 RNW 09 TRK 081 UNTIL 1500 TURN LEFT DIRECT OFNB AT OR ABOVE 3500 FAF FN09 MAP OF"
            },
            "transitions": [
                {
                    "name": "OF",
                    "fixes": {
                        "OFNB": "OFNB AT OR ABOVE 3500 TRK 239 UNTIL 7.0 FROM OFNB"
                    }
                }
            ]
        },
        {
            "name": "NDBZ09",
            "fixes": {
                "FN09": "FN09 1600",
                "EP09": "OVERFLY EP09 424",
                "OFNB": "OVERFLY OFNB AT OR ABOVE 880 RNW 09 TRK 081 UNTIL 1500 TURN LEFT DIRECT OFNB AT OR ABOVE 3500 FAF FN09 MAP OF"
            },
            "transitions": [
                {
                    "name": "OF",
                    "fixes": {
                        "OFNB": "OFNB AT OR ABOVE 3500 TRK 249 UNTIL 5.8 FROM OFNB"
                    }
                }
            ]
        },
        {
            "name": "RNAV09",
            "fixes": {
                "HH401": "HH401 AT OR ABOVE 3500",
                "HH402": "HH402 2500 RNW 09 TURN LEFT DIRECT",
                "GURLA": "GURLA AT OR ABOVE 4500 SPEED 200 FAF HH402 MAP RNW 09"
            },
            "transitions": [
                {
                    "name": "GURLA",
                    "fixes": {
                        "GURLA": "GURLA AT OR ABOVE 4500"
                    }
                }
            ]
        }
    ]
}