{
    "fixes": [
        {
            "name": "ADGAB",
            "lat": 3.0955555666666665,
            "lon": 112.60083333333333
        },
        {
            "name": "AF001",
            "lat": 2.9939367833333335,
            "lon": 112.1688123
        },
        {
            "name": "AF002",
            "lat": 3.0288321666666667,
            "lon": 112.13263458333333
        },
        {
            "name": "AF003",
            "lat": 3.0513776666666668,
            "lon": 112.087687
        },
        {
            "name": "AF004",
            "lat": 3.059524816666667,
            "lon": 112.03805308333334
        },
        {
            "name": "AF005",
            "lat": 3.0525333333333333,
            "lon": 111.98824271666666
        },
        {
            "name": "AF006",
            "lat": 2.8960542166666667,
            "lon": 112.21965093333333
        },
        {
            "name": "AF007",
            "lat": 2.8362030166666665,
            "lon": 112.21068528333333
        },
        {
            "name": "AF008",
            "lat": 2.78252735,
            "lon": 112.18270036666667
        },
        {
            "name": "AF009",
            "lat": 2.947119783333333,
            "lon": 112.19390621666666
        },
        {
            "name": "AF010",
            "lat": 2.9999934333333336,
            "lon": 112.16396031666666
        },
        {
            "name": "AF011",
            "lat": 3.0386364666666665,
            "lon": 112.11702638333334
        },
        {
            "name": "AF012",
            "lat": 3.0579138833333332,
            "lon": 112.05933966666667
        },
        {
            "name": "AF013",
            "lat": 3.055263816666667,
            "lon": 111.99856595
        },
        {
            "name": "AF014",
            "lat": 2.8438620500000003,
            "lon": 112.21299451666667
        },
        {
            "name": "AF015",
            "lat": 2.80397645,
            "lon": 112.1966502
        },
        {
            "name": "AF016",
            "lat": 2.7690032833333333,
            "lon": 112.17143651666666
        },
        {
            "name": "AF017",
            "lat": 2.7441464333333334,
            "lon": 111.96079203333333
        },
        {
            "name": "AF018",
            "lat": 2.7872237166666665,
            "lon": 111.90704656666666
        },
        {
            "name": "AF019",
            "lat": 2.8483183833333334,
            "lon": 111.87530738333334
        },
        {
            "name": "AF020",
            "lat": 2.9170127166666666,
            "lon": 111.87099023333333
        },
        {
            "name": "AF021",
            "lat": 2.9815912166666667,
            "lon": 111.89483608333333
        },
        {
            "name": "AF022",
            "lat": 2.7119627833333335,
            "lon": 112.06587701666666
        },
        {
            "name": "AF023",
            "lat": 2.7224870833333332,
            "lon": 112.10387528333334
        },
        {
            "name": "AF024",
            "lat": 2.8206704333333334,
            "lon": 111.8857074
        },
        {
            "name": "AF025",
            "lat": 2.8658279,
            "lon": 111.87144491666666
        },
        {
            "name": "AF026",
            "lat": 2.9131689,
            "lon": 111.8704727
        },
        {
            "name": "AF027",
            "lat": 2.9588723333333333,
            "lon": 111.88287083333333
        },
        {
            "name": "AF028",
            "lat": 2.9992487666666667,
            "lon": 111.90764003333334
        },
        {
            "name": "AF029",
            "lat": 2.7302476833333333,
            "lon": 111.95136111666666
        },
        {
            "name": "AF030",
            "lat": 2.710902433333333,
            "lon": 112.0137434
        },
        {
            "name": "AF031",
            "lat": 2.7146008333333334,
            "lon": 112.07895743333333
        },
        {
            "name": "AF032",
            "lat": 3.031846616666667,
            "lon": 112.12822946666667
        },
        {
            "name": "AF033",
            "lat": 3.056473516666667,
            "lon": 112.06795786666666
        },
        {
            "name": "AF034",
            "lat": 3.0561897333333334,
            "lon": 112.00283583333334
        },
        {
            "name": "AF035",
            "lat": 2.9294059333333333,
            "lon": 112.21599903333333
        },
        {
            "name": "AF036",
            "lat": 2.8578735666666666,
            "lon": 112.21630018333333
        },
        {
            "name": "AF037",
            "lat": 2.7916708166666666,
            "lon": 112.18917175
        },
        {
            "name": "ATPUT",
            "lat": 2.9498194333333334,
            "lon": 111.99759166666666
        },
        {
            "name": "BASUV",
            "lat": 2.8737555666666665,
            "lon": 112.70372778333333
        },
        {
            "name": "D056L",
            "lat": 3.0062194333333334,
            "lon": 112.20118888333333
        },
        {
            "name": "D056M",
            "lat": 3.015663883333333,
            "lon": 112.21494721666667
        },
        {
            "name": "D070L",
            "lat": 2.9604777833333333,
            "lon": 112.22436388333334
        },
        {
            "name": "D070M",
            "lat": 2.9661083333333336,
            "lon": 112.24005278333334
        },
        {
            "name": "D092L",
            "lat": 2.8871888833333332,
            "lon": 112.235925
        },
        {
            "name": "D092M",
            "lat": 2.8867138833333335,
            "lon": 112.25257778333334
        },
        {
            "name": "D146G",
            "lat": 2.8028111166666667,
            "lon": 112.09694721666666
        },
        {
            "name": "D146K",
            "lat": 2.740125,
            "lon": 112.13856111666666
        },
        {
            "name": "D183L",
            "lat": 2.6921444333333335,
            "lon": 112.02593888333334
        },
        {
            "name": "D183M",
            "lat": 2.6754166666666666,
            "lon": 112.02509166666667
        },
        {
            "name": "D228L",
            "lat": 2.759125,
            "lon": 111.88690556666667
        },
        {
            "name": "D228M",
            "lat": 2.7479777833333334,
            "lon": 111.874475
        },
        {
            "name": "D326E",
            "lat": 2.955191666666667,
            "lon": 111.99395833333334
        },
        {
            "name": "D326J",
            "lat": 3.0317166666666666,
            "lon": 111.94294721666667
        },
        {
            "name": "GK364",
            "lat": 3.0283722166666664,
            "lon": 112.13404721666667
        },
        {
            "name": "GK365",
            "lat": 2.8778027833333333,
            "lon": 111.89362221666667
        },
        {
            "name": "GK366",
            "lat": 3.0484805666666666,
            "lon": 112.26275278333334
        },
        {
            "name": "GK367",
            "lat": 2.730347216666667,
            "lon": 112.07641111666666
        },
        {
            "name": "GK368",
            "lat": 3.0695138833333333,
            "lon": 112.41371111666666
        },
        {
            "name": "GK374",
            "lat": 2.8867166666666666,
            "lon": 112.25257221666666
        },
        {
            "name": "GK375",
            "lat": 2.6754222166666666,
            "lon": 112.02509166666667
        },
        {
            "name": "GK377",
            "lat": 2.6810833333333335,
            "lon": 111.79986666666667
        },
        {
            "name": "GK378",
            "lat": 2.8801,
            "lon": 112.48367778333333
        },
        {
            "name": "GK380",
            "lat": 3.0336833333333333,
            "lon": 112.42832778333333
        },
        {
            "name": "GOKOP",
            "lat": 2.9775194333333332,
            "lon": 111.97885833333333
        },
        {
            "name": "KAMTA",
            "lat": 2.9995222166666666,
            "lon": 111.96397221666666
        },
        {
            "name": "KILID",
            "lat": 2.7691111166666666,
            "lon": 112.19363333333334
        },
        {
            "name": "LEKUX",
            "lat": 3.0539,
            "lon": 112.00495278333334
        },
        {
            "name": "METIK",
            "lat": 2.6996583333333333,
            "lon": 112.09120833333333
        },
        {
            "name": "NOLUS",
            "lat": 2.5813444333333333,
            "lon": 112.02032778333333
        },
        {
            "name": "NUVRA",
            "lat": 2.7777888833333333,
            "lon": 112.11385
        },
        {
            "name": "PILAX",
            "lat": 2.3139,
            "lon": 111.3906
        },
        {
            "name": "POMUR",
            "lat": 2.982261116666667,
            "lon": 111.89917221666667
        },
        {
            "name": "SANAB",
            "lat": 2.9873250000000002,
            "lon": 112.173675
        },
        {
            "name": "SUPAB",
            "lat": 2.8054972166666667,
            "lon": 112.09513056666667
        },
        {
            "name": "TOSOD",
            "lat": 3.128986116666667,
            "lon": 112.38006111666667
        },
        {
            "name": "VATSO",
            "lat": 2.7543222166666665,
            "lon": 112.12969443333333
        },
        {
            "name": "VMH",
            "lat": 2.8928694333333334,
            "lon": 112.03611111666666
        }
    ],
    "rnws": [
        "RNW 15",
        "RNW 33"
    ],
    "sids": [
        {
            "name": "ADGA1J",
            "rnw": "15",
            "fixes": {
                "GK374": "GK374 AT OR ABOVE 3000",
                "GK380": "GK380 AT OR ABOVE 6000",
                "ADGAB": "ADGAB AT OR ABOVE 7000"
            },
            "sub_fixes": [],
            "transitions": []
        },
        {
            "name": "ADGA1K",
            "rnw": "33",
            "fixes": {
                "GK364": "GK364 AT OR ABOVE 2000",
                "GK366": "GK366 AT OR ABOVE 5000",
                "GK368": "GK368 AT OR ABOVE 7000",
                "ADGAB": "ADGAB AT OR ABOVE 7000"
            },
            "sub_fixes": [],
            "transitions": []
        },
        {
            "name": "ADGA1L",
            "rnw": "15",
            "fixes": {
                "GK380": "GK380 AT OR ABOVE 6000",
                "ADGAB": "ADGAB AT OR ABOVE 7000"
            },
            "sub_fixes": [],
            "transitions": []
        },
        {
            "name": "ADGA1M",
            "rnw": "33",
            "fixes": {
                "GK380": "GK380 AT OR ABOVE 6000",
                "ADGAB": "ADGAB AT OR ABOVE 7000"
            },
            "sub_fixes": [],
            "transitions": []
        },
        {
            "name": "BASU1J",
            "rnw": "15",
            "fixes": {
                "GK374": "GK374 AT OR ABOVE 3000",
                "GK378": "GK378 AT OR ABOVE 6000",
                "BASUV": "BASUV AT OR ABOVE 7000"
            },
            "sub_fixes": [],
            "transitions": []
        },
        {
            "name": "BASU1K",
            "rnw": "33",
            "fixes": {
                "GK364": "GK364 AT OR ABOVE 2000",
                "GK378": "GK378 AT OR ABOVE 7000",
                "BASUV": "BASUV AT OR ABOVE 7000"
            },
            "sub_fixes": [],
            "transitions": []
        },
        {
            "name": "BASU1L",
            "rnw": "15",
            "fixes": {
                "GK378": "GK378 AT OR ABOVE 6000",
                "BASUV": "BASUV AT OR ABOVE 7000"
            },
            "sub_fixes": [],
            "transitions": []
        },
        {
            "name": "BASU1M",
            "rnw": "33",
            "fixes": {
                "GK378": "GK378 AT OR ABOVE 6000",
                "BASUV": "BASUV AT OR ABOVE 7000"
            },
            "sub_fixes": [],
            "transitions": []
        },
        {
            "name": "NOLU1J",
            "rnw": "15",
            "fixes": {
                "GK367": "GK367 AT OR ABOVE 2000",
                "NOLUS": "NOLUS AT OR ABOVE 5000"
            },
            "sub_fixes": [],
            "transitions": []
        },
        {
            "name": "NOLU1K",
            "rnw": "33",
            "fixes": {
                "GK365": "GK365 AT OR ABOVE 2000 TURN LEFT DIRECT",
                "NOLUS": "NOLUS AT OR ABOVE 5000"
            },
            "sub_fixes": [],
            "transitions": []
        },
        {
            "name": "NOLU1L",
            "rnw": "15",
            "fixes": {
                "NOLUS": "NOLUS AT OR ABOVE 5000"
            },
            "sub_fixes": [],
            "transitions": []
        },
        {
            "name": "NOLU1M",
            "rnw": "33",
            "fixes": {
                "NOLUS": "NOLUS AT OR ABOVE 5000"
            },
            "sub_fixes": [],
            "transitions": []
        },
        {
            "name": "PILA1J",
            "rnw": "15",
            "fixes": {
                "GK367": "GK367 AT OR ABOVE 2000",
                "GK377": "GK377 AT OR ABOVE 5000",
                "PILAX": "PILAX AT OR ABOVE 7000"
            },
            "sub_fixes": [],
            "transitions": []
        },
        {
            "name": "PILA1K",
            "rnw": "33",
            "fixes": {
                "GK365": "GK365 AT OR ABOVE 2000",
                "GK377": "GK377 AT OR ABOVE 5000",
                "PILAX": "PILAX AT OR ABOVE 7000"
            },
            "sub_fixes": [],
            "transitions": []
        },
        {
            "name": "PILA1L",
            "rnw": "15",
            "fixes": {
                "GK377": "GK377 AT OR ABOVE 5000",
                "PILAX": "PILAX AT OR ABOVE 7000"
            },
            "sub_fixes": [],
            "transitions": []
        },
        {
            "name": "PILA1M",
            "rnw": "33",
            "fixes": {
                "GK377": "GK377 AT OR ABOVE 5000",
                "PILAX": "PILAX AT OR ABOVE 7000"
            },
            "sub_fixes": [],
            "transitions": []
        },
        {
            "name": "TOSO1J",
            "rnw": "15",
            "fixes": {
                "GK374": "GK374 AT OR ABOVE 3000",
                "TOSOD": "TOSOD AT OR ABOVE 7000"
            },
            "sub_fixes": [],
            "transitions": []
        },
        {
            "name": "TOSO1K",
            "rnw": "33",
            "fixes": {
                "GK364": "GK364 AT OR ABOVE 2000",
                "GK366": "GK366 AT OR ABOVE 5000",
                "TOSOD": "TOSOD AT OR ABOVE 7000"
            },
            "sub_fixes": [],
            "transitions": []
        },
        {
            "name": "TOSO1L",
            "rnw": "15",
            "fixes": {
                "TOSOD": "TOSOD AT OR ABOVE 7000"
            },
            "sub_fixes": [],
            "transitions": []
        },
        {
            "name": "TOSO1M",
            "rnw": "33",
            "fixes": {
                "TOSOD": "TOSOD AT OR ABOVE 7000"
            },
            "sub_fixes": [],
            "transitions": []
        }
    ],
    "stars": [
        {
            "name": "ADGA1N",
            "runway": "RNW 15",
            "fixes": {
                "ADGAB": "ADGAB AT OR ABOVE 7000",
                "GK368": "GK368 AT OR ABOVE 7000",
                "GK366": "GK366 AT OR ABOVE 6000",
                "LEKUX": "LEKUX AT OR ABOVE 2500",
                "KAMTA": "KAMTA AT OR ABOVE 1500"
            }
        },
        {
            "name": "ADGA1P",
            "runway": "RNW 33",
            "fixes": {
                "ADGAB": "ADGAB AT OR ABOVE 7000",
                "GK380": "GK380 AT OR ABOVE 7000",
                "GK374": "GK374 AT OR ABOVE 5000",
                "KILID": "KILID AT OR ABOVE 2800",
                "VATSO": "VATSO AT OR ABOVE 1700"
            }
        },
        {
            "name": "ADGA1Q",
            "runway": "RNW 15",
            "fixes": {
                "ADGAB": "ADGAB AT OR ABOVE 7000",
                "GK380": "GK380 AT OR ABOVE 7000",
                "D070L": "D070L AT OR ABOVE 3500",
                "AF001": "AF001",
                "AF002": "AF002",
                "AF003": "AF003",
                "AF004": "AF004",
                "AF005": "AF005",
                "D326J": "D326J",
                "KAMTA": "KAMTA AT OR ABOVE 1500"
            }
        },
        {
            "name": "ADGA1R",
            "runway": "RNW 33",
            "fixes": {
                "ADGAB": "ADGAB AT OR ABOVE 7000",
                "GK380": "GK380 AT OR ABOVE 7000",
                "D070M": "D070M AT OR ABOVE 3500",
                "AF006": "AF006",
                "AF007": "AF007",
                "AF008": "AF008",
                "D146K": "D146K",
                "VATSO": "VATSO AT OR ABOVE 1700"
            }
        },
        {
            "name": "BASU1N",
            "runway": "RNW 15",
            "fixes": {
                "BASUV": "BASUV AT OR ABOVE 7000",
                "GK378": "GK378 AT OR ABOVE 7000",
                "GK366": "GK366 AT OR ABOVE 6000",
                "LEKUX": "LEKUX AT OR ABOVE 2500",
                "KAMTA": "KAMTA AT OR ABOVE 1500"
            }
        },
        {
            "name": "BASU1P",
            "runway": "RNW 33",
            "fixes": {
                "BASUV": "BASUV AT OR ABOVE 7000",
                "GK378": "GK378 AT OR ABOVE 7000",
                "KILID": "KILID AT OR ABOVE 2800",
                "VATSO": "VATSO AT OR ABOVE 1700"
            }
        },
        {
            "name": "BASU1Q",
            "runway": "RNW 15",
            "fixes": {
                "BASUV": "BASUV AT OR ABOVE 7000",
                "GK378": "GK378 AT OR ABOVE 7000",
                "D092L": "D092L AT OR ABOVE 3500",
                "AF009": "AF009",
                "AF010": "AF010",
                "AF011": "AF011",
                "AF012": "AF012",
                "AF013": "AF013",
                "D326J": "D326J",
                "KAMTA": "KAMTA AT OR ABOVE 1500"
            }
        },
        {
            "name": "BASU1R",
            "runway": "RNW 33",
            "fixes": {
                "BASUV": "BASUV AT OR ABOVE 7000",
                "GK378": "GK378 AT OR ABOVE 7000",
                "D092M": "D092M AT OR ABOVE 3500",
                "AF014": "AF014",
                "AF015": "AF015",
                "AF016": "AF016",
                "D146K": "D146K",
                "VATSO": "VATSO AT OR ABOVE 1700"
            }
        },
        {
            "name": "NOLU1N",
            "runway": "RNW 15",
            "fixes": {
                "NOLUS": "NOLUS AT OR ABOVE 5000",
                "GK365": "GK365 AT OR ABOVE 3800",
                "POMUR": "POMUR AT OR ABOVE 2500",
                "KAMTA": "KAMTA AT OR ABOVE 1500"
            }
        },
        {
            "name": "NOLU1P",
            "runway": "RNW 33",
            "fixes": {
                "NOLUS": "NOLUS AT OR ABOVE 5000",
                "GK375": "GK375 AT OR ABOVE 3100",
                "METIK": "METIK AT OR ABOVE 2500",
                "VATSO": "VATSO AT OR ABOVE 1700"
            }
        },
        {
            "name": "NOLU1Q",
            "runway": "RNW 15",
            "fixes": {
                "NOLUS": "NOLUS AT OR ABOVE 5000",
                "D183L": "D183L AT OR ABOVE 3500",
                "AF017": "AF017",
                "AF018": "AF018",
                "AF019": "AF019",
                "AF020": "AF020",
                "AF021": "AF021",
                "D326J": "D326J",
                "KAMTA": "KAMTA AT OR ABOVE 1500"
            }
        },
        {
            "name": "NOLU1R",
            "runway": "RNW 33",
            "fixes": {
                "NOLUS": "NOLUS AT OR ABOVE 5000",
                "D183M": "D183M AT OR ABOVE 3500",
                "AF022": "AF022",
                "AF023": "AF023",
                "D146K": "D146K",
                "VATSO": "VATSO AT OR ABOVE 1700"
            }
        },
        {
            "name": "PILA1N",
            "runway": "RNW 15",
            "fixes": {
                "PILAX": "PILAX AT OR ABOVE 7000",
                "GK377": "GK377 AT OR ABOVE 5000",
                "GK365": "GK365 AT OR ABOVE 3800",
                "POMUR": "POMUR AT OR ABOVE 2500",
                "KAMTA": "KAMTA AT OR ABOVE 1500"
            }
        },
        {
            "name": "PILA1P",
            "runway": "RNW 33",
            "fixes": {
                "PILAX": "PILAX AT OR ABOVE 7000",
                "GK377": "GK377 AT OR ABOVE 5000",
                "GK375": "GK375 AT OR ABOVE 3100",
                "METIK": "METIK AT OR ABOVE 2500",
                "VATSO": "VATSO AT OR ABOVE 1700"
            }
        },
        {
            "name": "PILA1Q",
            "runway": "RNW 15",
            "fixes": {
                "PILAX": "PILAX AT OR ABOVE 7000",
                "D228L": "D228L AT OR ABOVE 3500",
                "AF024": "AF024",
                "AF025": "AF025",
                "AF026": "AF026",
                "AF027": "AF027",
                "AF028": "AF028",
                "D326J": "D326J",
                "KAMTA": "KAMTA AT OR ABOVE 1500"
            }
        },
        {
            "name": "PILA1R",
            "runway": "RNW 33",
            "fixes": {
                "PILAX": "PILAX AT OR ABOVE 5000",
                "D228M": "D228M AT OR ABOVE 3500",
                "AF029": "AF029",
                "AF030": "AF030",
                "AF031": "AF031",
                "D146K": "D146K",
                "VATSO": "VATSO AT OR ABOVE 1700"
            }
        },
        {
            "name": "TOSO1N",
            "runway": "RNW 15",
            "fixes": {
                "TOSOD": "TOSOD AT OR ABOVE 7000",
                "GK366": "GK366 AT OR ABOVE 6000",
                "LEKUX": "LEKUX AT OR ABOVE 2500",
                "KAMTA": "KAMTA AT OR ABOVE 1500"
            }
        },
        {
            "name": "TOSO1P",
            "runway": "RNW 33",
            "fixes": {
                "TOSOD": "TOSOD AT OR ABOVE 7000",
                "GK374": "GK374 AT OR ABOVE 5000",
                "KILID": "KILID AT OR ABOVE 2800",
                "VATSO": "VATSO AT OR ABOVE 1700"
            }
        },
        {
            "name": "TOSO1Q",
            "runway": "RNW 15",
            "fixes": {
                "TOSOD": "TOSOD AT OR ABOVE 7000",
                "D056L": "D056L AT OR ABOVE 3500",
                "AF032": "AF032",
                "AF033": "AF033",
                "AF034": "AF034",
                "D326J": "D326J",
                "KAMTA": "KAMTA AT OR ABOVE 1500"
            }
        },
        {
            "name": "TOSO1R",
            "runway": "RNW 33",
            "fixes": {
                "TOSOD": "TOSOD AT OR ABOVE 7000",
                "D056M": "D056M AT OR ABOVE 3500",
                "AF035": "AF035",
                "AF036": "AF036",
                "AF037": "AF037",
                "D146K": "D146K",
                "VATSO": "VATSO AT OR ABOVE 1700"
            }
        }
    ],
    "approaches": [
        {
            "name": "VORDY15",
            "fixes": {
                "GOKOP": "GOKOP AT OR ABOVE 1500",
                "ATPUT": "ATPUT 1500 RNW 15 TRK 146 UNTIL 1000 TURN RIGHT DIRECT",
                "VMH": "VMH AT OR ABOVE 2000 HOLD AT VMH RIGHT TURN INBOUNDCOURSE 326 ALT 2000 SPEED 170 LEGTIME 1 FAF ATPUT MAP RNW 15"
            },
            "transitions": [
                {
                    "name": "VMH",
                    "fixes": {
                        "VMH": "VMH AT OR ABOVE 2000",
                        "D326E": "D326E TRK 011 UNTIL 3.0 FROM D326E"
                    }
                }
            ]
        },
        {
            "name": "VORDZ15",
            "fixes": {
                "KAMTA": "KAMTA AT OR ABOVE 1500",
                "ATPUT": "ATPUT 1500 RNW 15 TRK 146 UNTIL 1000 TURN LEFT TRK 011 INTERCEPT RADIAL 056 TO",
                "SANAB": "SANAB SANAB AT OR ABOVE 2500 HOLD AT SANAB RIGHT TURN INBOUNDCOURSE 236 ALT 2500 SPEED 170 LEGTIME 1 FAF ATPUT MAP RNW 15"
            },
            "transitions": []
        },
        {
            "name": "VORDY33",
            "fixes": {
                "NUVRA": "NUVRA AT OR ABOVE 1700",
                "SUPAB": "SUPAB 1700 RNW 33 TRK 326 UNTIL 1000 TURN RIGHT DIRECT",
                "VMH": "VMH AT OR ABOVE 2000 HOLD AT VMH RIGHT TURN INBOUNDCOURSE 146 ALT 2000 SPEED 170 LEGTIME 1 FAF SUPAB MAP RNW 33"
            },
            "transitions": [
                {
                    "name": "VMH",
                    "fixes": {
                        "VMH": "VMH AT OR ABOVE 2000",
                        "D146G": "D146G TRK 191 UNTIL 3.0 FROM D146G"
                    }
                }
            ]
        },
        {
            "name": "VORDZ33",
            "fixes": {
                "VATSO": "VATSO AT OR ABOVE 1700",
                "SUPAB": "SUPAB 1700 RNW 33 TRK 326 UNTIL 1000 TURN RIGHT TRK 101 INTERCEPT RADIAL 056 TO",
                "SANAB": "SANAB SANAB AT OR ABOVE 2500 HOLD AT SANAB RIGHT TURN INBOUNDCOURSE 236 ALT 2500 SPEED 170 LEGTIME 1 FAF SUPAB MAP RNW 33"
            },
            "transitions": []
        },
        {
            "name": "RNAVZ15",
            "fixes": {
                "KAMTA": "KAMTA AT OR ABOVE 1500 SPEED 180",
                "ATPUT": "ATPUT 1500 SPEED 130 RNW 15 HDG 146 UNTIL 1000 TURN LEFT DIRECT",
                "SANAB": "SANAB AT OR ABOVE 2500 HOLD AT SANAB RIGHT TURN INBOUNDCOURSE 236 ALT 2500 SPEED 170 LEGTIME 1 FAF ATPUT MAP RNW 15"
            },
            "transitions": [
                {
                    "name": "LEKUX",
                    "fixes": {
                        "LEKUX": "LEKUX AT OR ABOVE 2500"
                    }
                },
                {
                    "name": "POMUR",
                    "fixes": {
                        "POMUR": "POMUR AT OR ABOVE 2500"
                    }
                }
            ]
        },
        {
            "name": "RNAVZ33",
            "fixes": {
                "VATSO": "VATSO AT OR ABOVE 1700 SPEED 180",
                "SUPAB": "SUPAB 1700 SPEED 130 RNW 33 HDG 326 UNTIL 1000 TURN RIGHT DIRECT",
                "SANAB": "SANAB AT OR ABOVE 2500 HOLD AT SANAB RIGHT TURN INBOUNDCOURSE 236 ALT 2500 SPEED 170 LEGTIME 1 FAF SUPAB MAP RNW 33"
            },
            "transitions": [
                {
                    "name": "KILID",
                    "fixes": {
                        "KILID": "KILID AT OR ABOVE 2800"
                    }
                },
                {
                    "name": "METIK",
                    "fixes": {
                        "METIK": "METIK AT OR ABOVE 2500"
                    }
                }
            ]
        }
    ]
}