{
    "fixes": [
        {
            "name": "AF001",
            "lat": 5.3113970833333335,
            "lon": 115.50826706666666
        },
        {
            "name": "AF002",
            "lat": 5.4108218,
            "lon": 115.47777786666667
        },
        {
            "name": "AF003",
            "lat": 5.489298683333334,
            "lon": 115.40929103333333
        },
        {
            "name": "AF004",
            "lat": 5.53324825,
            "lon": 115.3146453
        },
        {
            "name": "AF005",
            "lat": 5.535063266666667,
            "lon": 115.21021888333334
        },
        {
            "name": "AF006",
            "lat": 5.1180715,
            "lon": 115.07557338333334
        },
        {
            "name": "AF007",
            "lat": 5.189262483333334,
            "lon": 115.02822813333333
        },
        {
            "name": "AF008",
            "lat": 5.272169016666667,
            "lon": 115.00769388333333
        },
        {
            "name": "AF009",
            "lat": 5.357121383333333,
            "lon": 115.01637621666667
        },
        {
            "name": "AF010",
            "lat": 5.434207483333333,
            "lon": 115.05327356666666
        },
        {
            "name": "AF011",
            "lat": 5.1621106333333335,
            "lon": 115.04223161666667
        },
        {
            "name": "AF012",
            "lat": 5.231956733333333,
            "lon": 115.01386551666667
        },
        {
            "name": "AF013",
            "lat": 5.3070471333333336,
            "lon": 115.00767976666667
        },
        {
            "name": "AF014",
            "lat": 5.380562566666667,
            "lon": 115.02424398333333
        },
        {
            "name": "AF015",
            "lat": 5.445824366666667,
            "lon": 115.06206113333333
        },
        {
            "name": "AF016",
            "lat": 5.371004983333333,
            "lon": 115.02072246666667
        },
        {
            "name": "AF017",
            "lat": 5.418380433333334,
            "lon": 115.04289098333334
        },
        {
            "name": "AF018",
            "lat": 5.4601306166666665,
            "lon": 115.0744729
        },
        {
            "name": "AF019",
            "lat": 5.505052433333334,
            "lon": 115.38561666666666
        },
        {
            "name": "AF020",
            "lat": 5.536579166666667,
            "lon": 115.29743623333333
        },
        {
            "name": "AF021",
            "lat": 5.533729933333333,
            "lon": 115.20378135
        },
        {
            "name": "AF022",
            "lat": 5.169450716666667,
            "lon": 115.45896683333333
        },
        {
            "name": "AF023",
            "lat": 5.130502083333333,
            "lon": 115.42947986666667
        },
        {
            "name": "AF024",
            "lat": 5.057212566666666,
            "lon": 115.2785602
        },
        {
            "name": "AF025",
            "lat": 5.07039165,
            "lon": 115.33826246666666
        },
        {
            "name": "AF026",
            "lat": 5.090343416666666,
            "lon": 115.13632713333334
        },
        {
            "name": "AF027",
            "lat": 5.071334716666667,
            "lon": 115.17547053333334
        },
        {
            "name": "AF028",
            "lat": 5.230210233333334,
            "lon": 115.03155701666667
        },
        {
            "name": "AF029",
            "lat": 5.150838183333334,
            "lon": 115.06981751666666
        },
        {
            "name": "AF030",
            "lat": 5.091230783333334,
            "lon": 115.1348751
        },
        {
            "name": "AF031",
            "lat": 5.378913366666667,
            "lon": 115.47466971666667
        },
        {
            "name": "AF032",
            "lat": 5.3180511,
            "lon": 115.49073973333333
        },
        {
            "name": "AF033",
            "lat": 5.255126533333334,
            "lon": 115.48988888333334
        },
        {
            "name": "AF034",
            "lat": 5.194716633333333,
            "lon": 115.47218406666667
        },
        {
            "name": "AF035",
            "lat": 5.141214133333333,
            "lon": 115.43891725
        },
        {
            "name": "AF036",
            "lat": 5.310672516666667,
            "lon": 115.50832936666667
        },
        {
            "name": "AF037",
            "lat": 5.4095474333333335,
            "lon": 115.47848196666666
        },
        {
            "name": "AF038",
            "lat": 5.487977716666666,
            "lon": 115.4110353
        },
        {
            "name": "AF039",
            "lat": 5.53257715,
            "lon": 115.31748893333334
        },
        {
            "name": "AF040",
            "lat": 5.53573135,
            "lon": 115.21380978333333
        },
        {
            "name": "AF041",
            "lat": 5.118601033333333,
            "lon": 115.07507296666667
        },
        {
            "name": "AF042",
            "lat": 5.190596083333333,
            "lon": 115.02764531666666
        },
        {
            "name": "AF043",
            "lat": 5.274345933333334,
            "lon": 115.00754971666667
        },
        {
            "name": "AF044",
            "lat": 5.359917883333333,
            "lon": 115.01718043333334
        },
        {
            "name": "AF045",
            "lat": 5.437159133333333,
            "lon": 115.05540653333334
        },
        {
            "name": "AF046",
            "lat": 5.372035733333333,
            "lon": 115.02108103333333
        },
        {
            "name": "AF047",
            "lat": 5.42024595,
            "lon": 115.04402718333333
        },
        {
            "name": "AF048",
            "lat": 5.46250995,
            "lon": 115.07672986666667
        },
        {
            "name": "BRU",
            "lat": 4.874722216666667,
            "lon": 114.88555556666667
        },
        {
            "name": "BU601",
            "lat": 5.188386116666667,
            "lon": 115.24921111666667
        },
        {
            "name": "BU603",
            "lat": 5.191302783333334,
            "lon": 115.22681666666666
        },
        {
            "name": "BU692",
            "lat": 5.354577783333333,
            "lon": 115.21339443333333
        },
        {
            "name": "BU695",
            "lat": 5.306913883333333,
            "lon": 115.12574166666667
        },
        {
            "name": "BU703",
            "lat": 5.362019433333334,
            "lon": 115.17361943333333
        },
        {
            "name": "BU733",
            "lat": 5.308033333333333,
            "lon": 115.14342221666666
        },
        {
            "name": "BU793",
            "lat": 5.247988883333333,
            "lon": 115.286125
        },
        {
            "name": "BU795",
            "lat": 5.1786861166666665,
            "lon": 115.19620278333333
        },
        {
            "name": "D052P",
            "lat": 5.454594433333333,
            "lon": 115.46885278333333
        },
        {
            "name": "D109P",
            "lat": 5.202366666666666,
            "lon": 115.51086666666667
        },
        {
            "name": "D109Q",
            "lat": 5.196905566666667,
            "lon": 115.52665833333333
        },
        {
            "name": "D145N",
            "lat": 5.097577783333334,
            "lon": 115.39226666666667
        },
        {
            "name": "D190N",
            "lat": 5.05875,
            "lon": 115.21754166666666
        },
        {
            "name": "D207P",
            "lat": 5.050888883333333,
            "lon": 115.13682778333333
        },
        {
            "name": "D207Q",
            "lat": 5.035963883333333,
            "lon": 115.12924721666667
        },
        {
            "name": "D222P",
            "lat": 5.090494433333333,
            "lon": 115.079325
        },
        {
            "name": "D222Q",
            "lat": 5.078047216666667,
            "lon": 115.06815278333333
        },
        {
            "name": "D277P",
            "lat": 5.322255566666667,
            "lon": 114.9928
        },
        {
            "name": "D277Q",
            "lat": 5.324288883333334,
            "lon": 114.97621388333333
        },
        {
            "name": "D325O",
            "lat": 5.496713883333333,
            "lon": 115.116325
        },
        {
            "name": "D326O",
            "lat": 5.496738883333333,
            "lon": 115.11636111666667
        },
        {
            "name": "DAKBI",
            "lat": 5.467772216666667,
            "lon": 115.13612221666666
        },
        {
            "name": "DOKDU",
            "lat": 5.446958333333333,
            "lon": 115.05518333333333
        },
        {
            "name": "ESBOB",
            "lat": 5.356580566666667,
            "lon": 114.67764721666667
        },
        {
            "name": "FD14",
            "lat": 5.392783333333333,
            "lon": 115.18701666666666
        },
        {
            "name": "FD32",
            "lat": 5.2120750000000005,
            "lon": 115.31133056666667
        },
        {
            "name": "FF14",
            "lat": 5.392747216666667,
            "lon": 115.18732778333333
        },
        {
            "name": "GUSRI",
            "lat": 5.068794433333333,
            "lon": 115.31326943333333
        },
        {
            "name": "IDATU",
            "lat": 5.152977783333333,
            "lon": 115.65280833333334
        },
        {
            "name": "IDRIP",
            "lat": 5.136847216666666,
            "lon": 115.36192778333333
        },
        {
            "name": "IGNOP",
            "lat": 5.363347216666667,
            "lon": 115.35180833333334
        },
        {
            "name": "KAPLA",
            "lat": 5.217538883333333,
            "lon": 115.162825
        },
        {
            "name": "KL982",
            "lat": 5.398663883333334,
            "lon": 115.18330278333333
        },
        {
            "name": "KL984",
            "lat": 5.205972216666667,
            "lon": 115.31478611666667
        },
        {
            "name": "LATIL",
            "lat": 4.8944,
            "lon": 116.4469
        },
        {
            "name": "LAVED",
            "lat": 5.3403,
            "lon": 114.84335556666667
        },
        {
            "name": "NOLOT",
            "lat": 5.465472216666667,
            "lon": 115.48158611666666
        },
        {
            "name": "RF001",
            "lat": 5.216832016666666,
            "lon": 115.29620231666667
        },
        {
            "name": "RF002",
            "lat": 5.1849434500000005,
            "lon": 115.28701773333333
        },
        {
            "name": "RF003",
            "lat": 5.1636207333333335,
            "lon": 115.26149946666666
        },
        {
            "name": "RF004",
            "lat": 5.160153366666667,
            "lon": 115.22837238333334
        },
        {
            "name": "RF005",
            "lat": 5.329962016666666,
            "lon": 115.14370243333333
        },
        {
            "name": "RF006",
            "lat": 5.349144766666667,
            "lon": 115.15416158333333
        },
        {
            "name": "RF007",
            "lat": 5.372520883333333,
            "lon": 115.19081638333333
        },
        {
            "name": "RF008",
            "lat": 5.375240533333334,
            "lon": 115.16244921666667
        },
        {
            "name": "RF009",
            "lat": 5.362138366666667,
            "lon": 115.13717153333333
        },
        {
            "name": "RF010",
            "lat": 5.337442716666667,
            "lon": 115.12314048333333
        },
        {
            "name": "RUPUB",
            "lat": 5.168511116666667,
            "lon": 115.09755
        },
        {
            "name": "SARAX",
            "lat": 5.347316666666667,
            "lon": 115.21835
        },
        {
            "name": "TAVAD",
            "lat": 5.157611116666667,
            "lon": 115.44283888333334
        },
        {
            "name": "UKIBA",
            "lat": 5.3136,
            "lon": 115.0358
        },
        {
            "name": "UPDIT",
            "lat": 5.257138883333333,
            "lon": 115.27988333333333
        },
        {
            "name": "VASKA",
            "lat": 5.53585,
            "lon": 115.18478333333333
        },
        {
            "name": "VJN",
            "lat": 5.89925,
            "lon": 116.03397221666667
        },
        {
            "name": "VLB",
            "lat": 5.289658333333334,
            "lon": 115.25814443333333
        },
        {
            "name": "VLG",
            "lat": 4.7972777833333335,
            "lon": 115.00233333333334
        }
    ],
    "rnws": [
        "RNW 14",
        "RNW 32"
    ],
    "sids": [
        {
            "name": "BRU1R",
            "rnw": "14",
            "fixes": {
                "BRU": "BRU"
            },
            "sub_fixes": [],
            "transitions": []
        },
        {
            "name": "BRU1S",
            "rnw": "14",
            "fixes": {
                "BRU": "BRU"
            },
            "sub_fixes": [],
            "transitions": []
        },
        {
            "name": "BRU1U",
            "rnw": "32",
            "fixes": {
                "BRU": "BRU"
            },
            "sub_fixes": [],
            "transitions": []
        },
        {
            "name": "BRU1W",
            "rnw": "32",
            "fixes": {
                "BRU": "BRU"
            },
            "sub_fixes": [],
            "transitions": []
        },
        {
            "name": "IDAT1R",
            "rnw": "14",
            "fixes": {
                "IDATU": "IDATU AT OR ABOVE 5500",
                "LATIL": "LATIL AT OR ABOVE 9000"
            },
            "sub_fixes": [],
            "transitions": []
        },
        {
            "name": "IDAT1S",
            "rnw": "14",
            "fixes": {
                "IDATU": "IDATU",
                "LATIL": "LATIL AT OR ABOVE 9000"
            },
            "sub_fixes": [],
            "transitions": []
        },
        {
            "name": "IDAT1U",
            "rnw": "32",
            "fixes": {
                "IDATU": "IDATU AT OR ABOVE 7000",
                "LATIL": "LATIL AT OR ABOVE 11000"
            },
            "sub_fixes": [],
            "transitions": []
        },
        {
            "name": "IDAT1W",
            "rnw": "32",
            "fixes": {
                "IDATU": "IDATU AT OR ABOVE 7000",
                "LATIL": "LATIL"
            },
            "sub_fixes": [],
            "transitions": []
        },
        {
            "name": "LAVE1R",
            "rnw": "14",
            "fixes": {
                "UKIBA": "UKIBA AT OR ABOVE 6000 SPEED 250",
                "LAVED": "LAVED AT OR ABOVE 7000",
                "ESBOB": "ESBOB"
            },
            "sub_fixes": [],
            "transitions": []
        },
        {
            "name": "LAVE1S",
            "rnw": "14",
            "fixes": {
                "LAVED": "LAVED AT OR ABOVE 7000",
                "ESBOB": "ESBOB"
            },
            "sub_fixes": [],
            "transitions": []
        },
        {
            "name": "LAVE1U",
            "rnw": "32",
            "fixes": {
                "LAVED": "LAVED AT OR ABOVE 5000 SPEED 250",
                "ESBOB": "ESBOB AT OR ABOVE 7000"
            },
            "sub_fixes": [],
            "transitions": []
        },
        {
            "name": "LAVE1W",
            "rnw": "32",
            "fixes": {
                "LAVED": "LAVED",
                "ESBOB": "ESBOB AT OR ABOVE 7000"
            },
            "sub_fixes": [],
            "transitions": []
        },
        {
            "name": "NOLO1R",
            "rnw": "14",
            "fixes": {
                "NOLOT": "NOLOT AT OR ABOVE 6000",
                "VJN": "VJN"
            },
            "sub_fixes": [],
            "transitions": []
        },
        {
            "name": "NOLO1S",
            "rnw": "14",
            "fixes": {
                "NOLOT": "NOLOT",
                "VJN": "VJN"
            },
            "sub_fixes": [],
            "transitions": []
        },
        {
            "name": "NOLO1U",
            "rnw": "32",
            "fixes": {
                "NOLOT": "NOLOT AT OR ABOVE 6000",
                "VJN": "VJN"
            },
            "sub_fixes": [],
            "transitions": []
        },
        {
            "name": "NOLO1W",
            "rnw": "32",
            "fixes": {
                "VLB": "VLB TRK 102 INTERCEPT RADIAL 052 TO",
                "NOLOT": "NOLOT AT OR ABOVE 7000",
                "VJN": "VJN"
            },
            "sub_fixes": [],
            "transitions": []
        },
        {
            "name": "VLB1",
            "rnw": "32",
            "fixes": {},
            "sub_fixes": [
                {
                    "rwy": "RNW 14",
                    "fixes": {
                        "RNW 14": "RNW 14 HDG 146 UNTIL 1800 HDG 146 VECTORS"
                    }
                },
                {
                    "rwy": "RNW 32",
                    "fixes": {
                        "RNW 32": "RNW 32 HDG 326 UNTIL 1800 HDG 326 VECTORS"
                    }
                }
            ],
            "transitions": []
        },
        {
            "name": "VLB1S",
            "rnw": "14",
            "fixes": {
                "VLB": "VLB TRK 277 VECTORS"
            },
            "sub_fixes": [],
            "transitions": []
        },
        {
            "name": "VLB1W",
            "rnw": "32",
            "fixes": {
                "VLB": "VLB"
            },
            "sub_fixes": [],
            "transitions": []
        },
        {
            "name": "VLG1R",
            "rnw": "14",
            "fixes": {
                "VLG": "VLG"
            },
            "sub_fixes": [],
            "transitions": []
        },
        {
            "name": "VLG1S",
            "rnw": "14",
            "fixes": {
                "VLG": "VLG"
            },
            "sub_fixes": [],
            "transitions": []
        },
        {
            "name": "VLG1U",
            "rnw": "32",
            "fixes": {
                "VLG": "VLG"
            },
            "sub_fixes": [],
            "transitions": []
        },
        {
            "name": "VLG1W",
            "rnw": "32",
            "fixes": {
                "VLG": "VLG"
            },
            "sub_fixes": [],
            "transitions": []
        }
    ],
    "stars": [
        {
            "name": "BRU1P",
            "runway": "RNW 14",
            "fixes": {
                "BRU": "BRU",
                "KAPLA": "KAPLA AT OR ABOVE 7000 SPEED 250",
                "DOKDU": "DOKDU AT OR ABOVE 3000 SPEED 250 TURN RIGHT DIRECT",
                "DAKBI": "DAKBI AT OR ABOVE 2000 SPEED 220"
            }
        },
        {
            "name": "BRU1T",
            "runway": "RNW 32",
            "fixes": {
                "BRU": "BRU",
                "GUSRI": "GUSRI AT OR ABOVE 3000 SPEED 250",
                "IDRIP": "IDRIP AT OR ABOVE 2000 SPEED 220"
            }
        },
        {
            "name": "IDAT1P",
            "runway": "RNW 14",
            "fixes": {
                "LATIL": "LATIL",
                "IDATU": "IDATU AT OR ABOVE 11000",
                "IGNOP": "IGNOP AT OR ABOVE 7000 SPEED 250",
                "VASKA": "VASKA AT OR ABOVE 3000 SPEED 250 TURN LEFT DIRECT",
                "DAKBI": "DAKBI AT OR ABOVE 2000 SPEED 220"
            }
        },
        {
            "name": "IDAT1T",
            "runway": "RNW 32",
            "fixes": {
                "LATIL": "LATIL AT OR ABOVE 9000",
                "IDATU": "IDATU AT OR ABOVE 7000",
                "TAVAD": "TAVAD AT OR ABOVE 3000 SPEED 250",
                "IDRIP": "IDRIP AT OR ABOVE 2000 SPEED 220"
            }
        },
        {
            "name": "LAVE1P",
            "runway": "RNW 14",
            "fixes": {
                "ESBOB": "ESBOB AT OR ABOVE 9000 SPEED 250",
                "LAVED": "LAVED AT OR ABOVE 7000 SPEED 250",
                "DOKDU": "DOKDU AT OR ABOVE 3000 SPEED 250",
                "DAKBI": "DAKBI AT OR ABOVE 2000 SPEED 220"
            }
        },
        {
            "name": "LAVE1T",
            "runway": "RNW 32",
            "fixes": {
                "ESBOB": "ESBOB AT OR ABOVE 13000",
                "LAVED": "LAVED AT OR ABOVE 11000",
                "UKIBA": "UKIBA AT OR ABOVE 9000",
                "KAPLA": "KAPLA AT OR ABOVE 7000 SPEED 250",
                "GUSRI": "GUSRI AT OR ABOVE 3000 SPEED 250 TURN LEFT DIRECT",
                "IDRIP": "IDRIP AT OR ABOVE 2000 SPEED 220"
            }
        },
        {
            "name": "NOLO1P",
            "runway": "RNW 14",
            "fixes": {
                "VJN": "VJN SPEED 250",
                "NOLOT": "NOLOT AT OR ABOVE 8000 SPEED 250",
                "VASKA": "VASKA AT OR ABOVE 3000 SPEED 250",
                "DAKBI": "DAKBI AT OR ABOVE 2000 SPEED 220"
            }
        },
        {
            "name": "NOLO1T",
            "runway": "RNW 32",
            "fixes": {
                "VJN": "VJN",
                "NOLOT": "NOLOT AT OR ABOVE 9000",
                "IGNOP": "IGNOP AT OR ABOVE 7000 SPEED 250",
                "TAVAD": "TAVAD AT OR ABOVE 3000 SPEED 250 TURN RIGHT DIRECT",
                "IDRIP": "IDRIP AT OR ABOVE 2000 SPEED 220"
            }
        },
        {
            "name": "VLG1P",
            "runway": "RNW 14",
            "fixes": {
                "VLG": "VLG",
                "KAPLA": "KAPLA AT OR ABOVE 7000 SPEED 250",
                "DOKDU": "DOKDU AT OR ABOVE 3000 SPEED 250 TURN RIGHT DIRECT",
                "DAKBI": "DAKBI AT OR ABOVE 2000 SPEED 220"
            }
        },
        {
            "name": "VLG1T",
            "runway": "RNW 32",
            "fixes": {
                "VLG": "VLG",
                "GUSRI": "GUSRI AT OR ABOVE 3000 SPEED 250",
                "IDRIP": "IDRIP AT OR ABOVE 2000 SPEED 220"
            }
        }
    ],
    "approaches": [
        {
            "name": "VORDZ14",
            "fixes": {
                "DAKBI": "DAKBI AT OR ABOVE 2000",
                "FD14": "FD14 2000 RNW 14 TRK 145 UNTIL 1500 TURN LEFT TRK 352 INTERCEPT RADIAL 052 TO",
                "NOLOT": "NOLOT SPEED 250 NOLOT AT OR ABOVE 5500 HOLD AT NOLOT RIGHT TURN INBOUNDCOURSE 232 ALT 5500 LEGTIME 1 FAF FD14 MAP RNW 14"
            },
            "transitions": [
                {
                    "name": "D109Q",
                    "fixes": {
                        "D109Q": "D109Q AT OR ABOVE 7000",
                        "AF001": "AF001",
                        "AF002": "AF002",
                        "AF003": "AF003",
                        "AF004": "AF004",
                        "AF005": "AF005",
                        "D325O": "D325O AT OR ABOVE 3000"
                    }
                },
                {
                    "name": "D207Q",
                    "fixes": {
                        "D207Q": "D207Q AT OR ABOVE 7000",
                        "AF006": "AF006",
                        "AF007": "AF007",
                        "AF008": "AF008",
                        "AF009": "AF009",
                        "AF010": "AF010",
                        "D325O": "D325O AT OR ABOVE 3000"
                    }
                },
                {
                    "name": "D222Q",
                    "fixes": {
                        "D222Q": "D222Q AT OR ABOVE 7000",
                        "AF011": "AF011",
                        "AF012": "AF012",
                        "AF013": "AF013",
                        "AF014": "AF014",
                        "AF015": "AF015",
                        "D325O": "D325O AT OR ABOVE 3000"
                    }
                },
                {
                    "name": "D277Q",
                    "fixes": {
                        "D277Q": "D277Q AT OR ABOVE 5000",
                        "AF016": "AF016",
                        "AF017": "AF017",
                        "AF018": "AF018",
                        "D325O": "D325O AT OR ABOVE 3000"
                    }
                },
                {
                    "name": "NOLOT",
                    "fixes": {
                        "NOLOT": "NOLOT AT OR ABOVE 5500",
                        "AF019": "AF019",
                        "AF020": "AF020",
                        "AF021": "AF021",
                        "D325O": "D325O AT OR ABOVE 3000"
                    }
                }
            ]
        },
        {
            "name": "VORDZ32",
            "fixes": {
                "IDRIP": "IDRIP AT OR ABOVE 2000",
                "FD32": "FD32 2000",
                "VLB": "VLB 208 RNW 32 TRK 325 UNTIL 1500 TURN RIGHT TRK 120 INTERCEPT RADIAL 052 TO",
                "NOLOT": "NOLOT SPEED 250 NOLOT AT OR ABOVE 5500 HOLD AT NOLOT RIGHT TURN INBOUNDCOURSE 232 ALT 5500 LEGTIME 1 FAF FD32 MAP VLB"
            },
            "transitions": [
                {
                    "name": "D109P",
                    "fixes": {
                        "D109P": "D109P AT OR ABOVE 5000",
                        "AF022": "AF022",
                        "AF023": "AF023",
                        "D145N": "D145N AT OR ABOVE 3000"
                    }
                },
                {
                    "name": "D207P",
                    "fixes": {
                        "D207P": "D207P AT OR ABOVE 5000",
                        "D190N": "D190N AT OR ABOVE 4000",
                        "AF024": "AF024",
                        "AF025": "AF025",
                        "D145N": "D145N AT OR ABOVE 3000"
                    }
                },
                {
                    "name": "D222P",
                    "fixes": {
                        "D222P": "D222P AT OR ABOVE 5000",
                        "AF026": "AF026",
                        "AF027": "AF027",
                        "D190N": "D190N AT OR ABOVE 4000",
                        "AF024": "AF024",
                        "AF025": "AF025",
                        "D145N": "D145N AT OR ABOVE 3000"
                    }
                },
                {
                    "name": "D277P",
                    "fixes": {
                        "D277P": "D277P AT OR ABOVE 7000",
                        "AF028": "AF028",
                        "AF029": "AF029",
                        "AF030": "AF030",
                        "D190N": "D190N AT OR ABOVE 4000",
                        "AF024": "AF024",
                        "AF025": "AF025",
                        "D145N": "D145N AT OR ABOVE 3000"
                    }
                },
                {
                    "name": "NOLOT",
                    "fixes": {
                        "NOLOT": "NOLOT",
                        "D052P": "D052P AT OR ABOVE 7000",
                        "AF031": "AF031",
                        "AF032": "AF032",
                        "AF033": "AF033",
                        "AF034": "AF034",
                        "AF035": "AF035",
                        "D145N": "D145N AT OR ABOVE 3000"
                    }
                }
            ]
        },
        {
            "name": "ILSZ14",
            "fixes": {
                "DAKBI": "DAKBI AT OR ABOVE 2000",
                "FF14": "FF14 2000 RNW 14 TRK 146 UNTIL 1500 TURN LEFT TRK 352 INTERCEPT RADIAL 052 TO",
                "NOLOT": "NOLOT SPEED 250 NOLOT AT OR ABOVE 5500 HOLD AT NOLOT RIGHT TURN INBOUNDCOURSE 232 ALT 5500 LEGTIME 1 FAF FF14 MAP RNW 14"
            },
            "transitions": [
                {
                    "name": "D109Q",
                    "fixes": {
                        "D109Q": "D109Q AT OR ABOVE 7000",
                        "AF036": "AF036",
                        "AF037": "AF037",
                        "AF038": "AF038",
                        "AF039": "AF039",
                        "AF040": "AF040",
                        "D326O": "D326O AT OR ABOVE 3000"
                    }
                },
                {
                    "name": "D207Q",
                    "fixes": {
                        "D207Q": "D207Q AT OR ABOVE 7000",
                        "AF041": "AF041",
                        "AF042": "AF042",
                        "AF043": "AF043",
                        "AF044": "AF044",
                        "AF045": "AF045",
                        "D326O": "D326O AT OR ABOVE 3000"
                    }
                },
                {
                    "name": "D222Q",
                    "fixes": {
                        "D222Q": "D222Q AT OR ABOVE 7000",
                        "AF011": "AF011",
                        "AF012": "AF012",
                        "AF013": "AF013",
                        "AF014": "AF014",
                        "AF015": "AF015",
                        "D326O": "D326O AT OR ABOVE 3000"
                    }
                },
                {
                    "name": "D277Q",
                    "fixes": {
                        "D277Q": "D277Q AT OR ABOVE 5000",
                        "AF046": "AF046",
                        "AF047": "AF047",
                        "AF048": "AF048",
                        "D326O": "D326O AT OR ABOVE 3000"
                    }
                },
                {
                    "name": "NOLOT",
                    "fixes": {
                        "NOLOT": "NOLOT AT OR ABOVE 5000",
                        "AF019": "AF019",
                        "AF020": "AF020",
                        "AF021": "AF021",
                        "D326O": "D326O AT OR ABOVE 3000"
                    }
                }
            ]
        },
        {
            "name": "RNAVY14",
            "fixes": {
                "DAKBI": "DAKBI AT OR ABOVE 2000",
                "KL982": "KL982 2000 RNW 14 HDG 146 UNTIL 1500 TURN LEFT DIRECT",
                "IGNOP": "OVERFLY IGNOP AT OR ABOVE 4000 SPEED 250 HOLD AT IGNOP RIGHT TURN INBOUNDCOURSE 317 ALT 4000 SPEED 230 LEGTIME 1 FAF KL982 MAP RNW 14"
            },
            "transitions": []
        },
        {
            "name": "RNAVZ14",
            "fixes": {
                "SARAX": "SARAX 900 RNW 14",
                "BU793": "BU793",
                "RF001": "RF001",
                "RF002": "RF002",
                "RF003": "RF003",
                "RF004": "RF004",
                "BU795": "BU795 SPEED 230",
                "KAPLA": "KAPLA AT OR ABOVE 4000 FAF SARAX MAP RNW 14"
            },
            "transitions": [
                {
                    "name": "KAPLA",
                    "fixes": {
                        "KAPLA": "KAPLA AT OR ABOVE 4000",
                        "BU733": "BU733 AT OR ABOVE 3000 SPEED 210",
                        "RF005": "RF005",
                        "RF006": "RF006",
                        "BU703": "BU703 AT OR ABOVE 1800 SPEED 200"
                    }
                },
                {
                    "name": "LAVED",
                    "fixes": {
                        "LAVED": "LAVED AT OR ABOVE 4000",
                        "UKIBA": "UKIBA AT OR ABOVE 4000",
                        "BU703": "BU703 AT OR ABOVE 1800 SPEED 200"
                    }
                },
                {
                    "name": "UKIBA",
                    "fixes": {
                        "UKIBA": "UKIBA AT OR ABOVE 4000",
                        "BU703": "BU703 AT OR ABOVE 1800 SPEED 200"
                    }
                }
            ]
        },
        {
            "name": "RNAVY32",
            "fixes": {
                "IDRIP": "IDRIP AT OR ABOVE 2000",
                "KL984": "KL984 2000 RNW 32 HDG 326 UNTIL 1500 TURN RIGHT DIRECT",
                "IGNOP": "OVERFLY IGNOP AT OR ABOVE 4000 SPEED 250 HOLD AT IGNOP LEFT TURN INBOUNDCOURSE 155 ALT 4000 SPEED 230 LEGTIME 1 FAF KL984 MAP RNW 32"
            },
            "transitions": []
        },
        {
            "name": "RNAVZ32",
            "fixes": {
                "UPDIT": "UPDIT 900 RNW 32",
                "BU692": "BU692",
                "RF007": "RF007",
                "RF008": "RF008",
                "RF009": "RF009",
                "RF010": "RF010",
                "BU695": "BU695 SPEED 230",
                "KAPLA": "KAPLA AT OR ABOVE 4000 FAF UPDIT MAP RNW 32"
            },
            "transitions": [
                {
                    "name": "KAPLA",
                    "fixes": {
                        "KAPLA": "KAPLA AT OR ABOVE 4000",
                        "BU603": "BU603 AT OR ABOVE 2900 SPEED 210",
                        "BU601": "BU601 AT OR ABOVE 2500 SPEED 210"
                    }
                },
                {
                    "name": "LAVED",
                    "fixes": {
                        "LAVED": "LAVED AT OR ABOVE 4000",
                        "KAPLA": "KAPLA AT OR ABOVE 4000",
                        "BU603": "BU603 AT OR ABOVE 2900 SPEED 210",
                        "BU601": "BU601 AT OR ABOVE 2500 SPEED 210"
                    }
                },
                {
                    "name": "RUPUB",
                    "fixes": {
                        "RUPUB": "RUPUB AT OR ABOVE 4000",
                        "BU601": "BU601 AT OR ABOVE 2500 SPEED 210"
                    }
                }
            ]
        }
    ]
}