{
    "fixes": [
        {
            "name": "AMPEL",
            "lat": 6.512222216666666,
            "lon": 108.45555556666666
        },
        {
            "name": "ARESA",
            "lat": 7.078333333333333,
            "lon": 107.98027778333334
        },
        {
            "name": "CANB",
            "lat": 6.697980566666667,
            "lon": 108.55975833333333
        },
        {
            "name": "CD32",
            "lat": 6.765108333333333,
            "lon": 108.26032221666667
        },
        {
            "name": "CKG",
            "lat": 6.187888883333334,
            "lon": 106.52995
        },
        {
            "name": "CLP",
            "lat": 7.644638883333333,
            "lon": 109.03566666666667
        },
        {
            "name": "DAGOH",
            "lat": 6.881388883333333,
            "lon": 107.51222221666667
        },
        {
            "name": "EKIMO",
            "lat": 6.696111116666667,
            "lon": 107.92
        },
        {
            "name": "FD14",
            "lat": 6.575619433333333,
            "lon": 108.10590278333333
        },
        {
            "name": "FD32",
            "lat": 6.699130566666667,
            "lon": 108.20874721666667
        },
        {
            "name": "FF14",
            "lat": 6.575472216666666,
            "lon": 108.10511111666666
        },
        {
            "name": "GULSI",
            "lat": 7.134722216666667,
            "lon": 107.71111111666667
        },
        {
            "name": "GUNRA",
            "lat": 6.821194433333334,
            "lon": 108.20277778333333
        },
        {
            "name": "HLM",
            "lat": 6.271944433333333,
            "lon": 106.88697221666666
        },
        {
            "name": "IMABA",
            "lat": 7.0808333333333335,
            "lon": 107.51083333333334
        },
        {
            "name": "KECAP",
            "lat": 6.50075,
            "lon": 108.03891666666667
        },
        {
            "name": "KTJ",
            "lat": 6.647666666666667,
            "lon": 108.16852778333333
        },
        {
            "name": "LACAP",
            "lat": 6.8997222166666665,
            "lon": 108.66083333333333
        },
        {
            "name": "MASNO",
            "lat": 6.768888883333333,
            "lon": 108.06916666666666
        },
        {
            "name": "MD14",
            "lat": 6.619858333333333,
            "lon": 108.14435278333333
        },
        {
            "name": "MINIS",
            "lat": 6.721472216666667,
            "lon": 108.22788888333334
        },
        {
            "name": "ORIZA",
            "lat": 6.424722216666667,
            "lon": 108.13027778333333
        },
        {
            "name": "PALIM",
            "lat": 6.726944433333333,
            "lon": 108.39527778333333
        },
        {
            "name": "PAREV",
            "lat": 6.576194433333333,
            "lon": 108.10597221666667
        },
        {
            "name": "PIGEN",
            "lat": 6.6580555666666665,
            "lon": 108.04222221666667
        },
        {
            "name": "POSIM",
            "lat": 6.675555566666667,
            "lon": 108.25333333333333
        },
        {
            "name": "POVIS",
            "lat": 6.820277783333333,
            "lon": 108.2
        },
        {
            "name": "RUSMI",
            "lat": 6.536194433333334,
            "lon": 108.07211111666666
        },
        {
            "name": "SAHDI",
            "lat": 6.574666666666666,
            "lon": 108.10441666666667
        },
        {
            "name": "SAMEB",
            "lat": 6.767611116666666,
            "lon": 108.26669443333333
        },
        {
            "name": "SAPRO",
            "lat": 6.898888883333333,
            "lon": 108.10361111666667
        },
        {
            "name": "SEDAN",
            "lat": 6.756888883333334,
            "lon": 108.14877778333333
        },
        {
            "name": "SIRAW",
            "lat": 6.469722216666667,
            "lon": 108.32888888333333
        },
        {
            "name": "SUMED",
            "lat": 6.823055566666667,
            "lon": 107.84666666666666
        },
        {
            "name": "TANOT",
            "lat": 7.186944433333333,
            "lon": 107.90527778333333
        },
        {
            "name": "TKG",
            "lat": 5.2603388833333335,
            "lon": 105.19414721666666
        },
        {
            "name": "UBMER",
            "lat": 6.575,
            "lon": 107.95166666666667
        },
        {
            "name": "WINAN",
            "lat": 6.645,
            "lon": 108.475
        }
    ],
    "rnws": [
        "RNW 14",
        "RNW 32"
    ],
    "sids": [
        {
            "name": "CA1N",
            "rnw": "14",
            "fixes": {
                "PALIM": "PALIM",
                "CANB": "CANB AT OR BELOW 13000 AT OR ABOVE 9000"
            },
            "sub_fixes": [],
            "transitions": []
        },
        {
            "name": "CA1P",
            "rnw": "32",
            "fixes": {
                "SIRAW": "SIRAW 7000",
                "AMPEL": "AMPEL",
                "CANB": "CANB 13500"
            },
            "sub_fixes": [],
            "transitions": []
        },
        {
            "name": "CKG2A",
            "rnw": "14",
            "fixes": {
                "SAPRO": "SAPRO",
                "ARESA": "ARESA AT OR BELOW 11000",
                "TANOT": "TANOT AT OR ABOVE 14000",
                "GULSI": "GULSI AT OR ABOVE 16000",
                "IMABA": "IMABA",
                "CKG": "CKG"
            },
            "sub_fixes": [],
            "transitions": []
        },
        {
            "name": "CKG2B",
            "rnw": "32",
            "fixes": {
                "PAREV": "PAREV TURN LEFT DIRECT",
                "PIGEN": "PIGEN 3000",
                "MASNO": "MASNO",
                "SAPRO": "SAPRO",
                "ARESA": "ARESA AT OR BELOW 11000",
                "TANOT": "TANOT AT OR ABOVE 14000",
                "GULSI": "GULSI AT OR ABOVE 16000",
                "IMABA": "IMABA",
                "CKG": "CKG"
            },
            "sub_fixes": [],
            "transitions": []
        },
        {
            "name": "CKG2C",
            "rnw": "32",
            "fixes": {
                "POSIM": "POSIM AT OR BELOW 7000 AT OR ABOVE 5500",
                "POVIS": "POVIS",
                "SAPRO": "SAPRO",
                "ARESA": "ARESA AT OR BELOW 11000",
                "TANOT": "TANOT AT OR ABOVE 14000",
                "GULSI": "GULSI AT OR ABOVE 16000",
                "IMABA": "IMABA",
                "CKG": "CKG"
            },
            "sub_fixes": [],
            "transitions": []
        },
        {
            "name": "CLP1J",
            "rnw": "14",
            "fixes": {
                "PALIM": "PALIM",
                "LACAP": "LACAP 13500",
                "CLP": "CLP"
            },
            "sub_fixes": [],
            "transitions": []
        },
        {
            "name": "TKG2A",
            "rnw": "14",
            "fixes": {
                "SAPRO": "SAPRO",
                "ARESA": "ARESA AT OR BELOW 11000",
                "TANOT": "TANOT AT OR ABOVE 14000",
                "GULSI": "GULSI AT OR ABOVE 16000",
                "IMABA": "IMABA",
                "CKG": "CKG",
                "TKG": "TKG"
            },
            "sub_fixes": [],
            "transitions": []
        },
        {
            "name": "TKG2B",
            "rnw": "32",
            "fixes": {
                "PAREV": "PAREV TURN LEFT DIRECT",
                "PIGEN": "PIGEN 3000",
                "MASNO": "MASNO",
                "SAPRO": "SAPRO",
                "ARESA": "ARESA AT OR BELOW 11000",
                "TANOT": "TANOT AT OR ABOVE 14000",
                "GULSI": "GULSI AT OR ABOVE 16000",
                "IMABA": "IMABA",
                "CKG": "CKG",
                "TKG": "TKG"
            },
            "sub_fixes": [],
            "transitions": []
        },
        {
            "name": "TKG2C",
            "rnw": "32",
            "fixes": {
                "POSIM": "POSIM AT OR BELOW 7000 AT OR ABOVE 5500",
                "POVIS": "POVIS",
                "SAPRO": "SAPRO",
                "ARESA": "ARESA AT OR BELOW 11000",
                "TANOT": "TANOT AT OR ABOVE 14000",
                "GULSI": "GULSI AT OR ABOVE 16000",
                "IMABA": "IMABA",
                "CKG": "CKG",
                "TKG": "TKG"
            },
            "sub_fixes": [],
            "transitions": []
        }
    ],
    "stars": [
        {
            "name": "CA1Q",
            "runway": "RNW 14",
            "fixes": {
                "CANB": "CANB",
                "WINAN": "WINAN AT OR ABOVE 14500",
                "ORIZA": "ORIZA AT OR ABOVE 5000",
                "KECAP": "KECAP AT OR ABOVE 3000"
            }
        },
        {
            "name": "CA1R",
            "runway": "RNW 32",
            "fixes": {
                "CANB": "CANB",
                "WINAN": "WINAN AT OR ABOVE 14500",
                "ORIZA": "ORIZA AT OR ABOVE 9000",
                "KECAP": "KECAP AT OR ABOVE 8000"
            }
        },
        {
            "name": "DAGO2C",
            "runway": "RNW 14",
            "fixes": {
                "DAGOH": "DAGOH",
                "SUMED": "SUMED AT OR ABOVE 11000",
                "EKIMO": "EKIMO",
                "UBMER": "UBMER AT OR ABOVE 5000",
                "KECAP": "KECAP AT OR ABOVE 3000"
            }
        },
        {
            "name": "DAGO2D",
            "runway": "RNW 32",
            "fixes": {
                "DAGOH": "DAGOH",
                "SUMED": "SUMED AT OR ABOVE 15000",
                "EKIMO": "EKIMO",
                "UBMER": "UBMER AT OR ABOVE 10000",
                "KECAP": "KECAP AT OR ABOVE 8000"
            }
        },
        {
            "name": "HLM1C",
            "runway": "RNW 14",
            "fixes": {
                "HLM": "HLM",
                "DAGOH": "DAGOH",
                "SUMED": "SUMED AT OR ABOVE 11000",
                "EKIMO": "EKIMO",
                "UBMER": "UBMER AT OR ABOVE 5000",
                "KECAP": "KECAP AT OR ABOVE 3000"
            }
        },
        {
            "name": "HLM1D",
            "runway": "RNW 32",
            "fixes": {
                "HLM": "HLM",
                "DAGOH": "DAGOH",
                "SUMED": "SUMED AT OR ABOVE 15000",
                "EKIMO": "EKIMO",
                "UBMER": "UBMER AT OR ABOVE 10000",
                "KECAP": "KECAP AT OR ABOVE 8000"
            }
        }
    ],
    "approaches": [
        {
            "name": "VORD14",
            "fixes": {
                "KECAP": "KECAP AT OR ABOVE 3000 KECAP KECAP AT OR ABOVE 3000 HOLD AT KECAP LEFT TURN INBOUNDCOURSE 138 ALT 3000 LEGTIME 1 FAF FD14 MAP MD14",
                "FD14": "FD14 1700",
                "MD14": "MD14 581 RNW 14 TRK 138 UNTIL 1000 TURN LEFT TRK 288 INTERCEPT RADIAL 318 TO"
            },
            "transitions": [
                {
                    "name": "KECAP",
                    "fixes": {
                        "KECAP": "KECAP LEFT TURN INBOUNDCOURSE 138 ALT 3000 LEGTIME 1"
                    }
                }
            ]
        },
        {
            "name": "VORD32",
            "fixes": {
                "CD32": "CD32 AT OR ABOVE 2300",
                "FD32": "FD32 1200 RNW 32",
                "KTJ": "KTJ",
                "KECAP": "KECAP AT OR ABOVE 8000 HOLD AT KECAP LEFT TURN INBOUNDCOURSE 138 ALT 8000 LEGTIME 1 FAF FD32 MAP RNW 32"
            },
            "transitions": [
                {
                    "name": "KECAP",
                    "fixes": {
                        "KECAP": "KECAP AT OR ABOVE 8000",
                        "KTJ": "KTJ AT OR ABOVE 4500 TRK 162 UNTIL 8.9 FROM KTJ SPEED 210"
                    }
                }
            ]
        },
        {
            "name": "ILS14",
            "fixes": {
                "RUSMI": "RUSMI AT OR ABOVE 2100",
                "FF14": "FF14 1700 RNW 14 TRK 139 UNTIL 1000 TURN LEFT DIRECT",
                "KECAP": "KECAP AT OR ABOVE 3000 HOLD AT KECAP LEFT TURN INBOUNDCOURSE 138 ALT 3000 SPEED 250 LEGTIME 1 FAF FF14 MAP RNW 14"
            },
            "transitions": [
                {
                    "name": "KECAP",
                    "fixes": {
                        "KECAP": "KECAP AT OR ABOVE 3000"
                    }
                }
            ]
        },
        {
            "name": "RNAV14",
            "fixes": {
                "RUSMI": "RUSMI AT OR ABOVE 2100",
                "SAHDI": "SAHDI 1700 RNW 14 TRK 139 UNTIL 1000 TURN LEFT DIRECT",
                "KECAP": "KECAP AT OR ABOVE 3000 HOLD AT KECAP LEFT TURN INBOUNDCOURSE 138 ALT 3000 SPEED 250 LEGTIME 1 FAF SAHDI MAP RNW 14"
            },
            "transitions": [
                {
                    "name": "KECAP",
                    "fixes": {
                        "KECAP": "KECAP AT OR ABOVE 3000"
                    }
                }
            ]
        },
        {
            "name": "RNAV32",
            "fixes": {
                "SAMEB": "SAMEB AT OR ABOVE 2300 SPEED 200",
                "MINIS": "MINIS 1700 RNW 32",
                "PAREV": "PAREV",
                "KECAP": "KECAP AT OR ABOVE 5000 HOLD AT KECAP LEFT TURN INBOUNDCOURSE 138 ALT 8000 LEGTIME 1 FAF MINIS MAP RNW 32"
            },
            "transitions": [
                {
                    "name": "KECAP",
                    "fixes": {
                        "KECAP": "KECAP AT OR ABOVE 8000",
                        "PAREV": "PAREV AT OR ABOVE 6500",
                        "SEDAN": "SEDAN AT OR ABOVE 5000",
                        "GUNRA": "GUNRA AT OR ABOVE 3500 SPEED 200"
                    }
                }
            ]
        }
    ]
}