{
    "fixes": [
        {
            "name": "AF001",
            "lat": 5.997909916666667,
            "lon": 102.33366918333333
        },
        {
            "name": "AF002",
            "lat": 5.998685783333333,
            "lon": 102.28896136666667
        },
        {
            "name": "AF003",
            "lat": 6.0111881333333335,
            "lon": 102.24604973333334
        },
        {
            "name": "AF004",
            "lat": 6.034527633333333,
            "lon": 102.20798685
        },
        {
            "name": "AF005",
            "lat": 6.06704395,
            "lon": 102.17748121666666
        },
        {
            "name": "AF006",
            "lat": 6.134483283333333,
            "lon": 102.14913398333333
        },
        {
            "name": "AF007",
            "lat": 6.163423816666667,
            "lon": 102.14657823333333
        },
        {
            "name": "AF008",
            "lat": 6.012394066666666,
            "lon": 102.243388
        },
        {
            "name": "AF009",
            "lat": 6.035765183333333,
            "lon": 102.20648551666666
        },
        {
            "name": "AF010",
            "lat": 6.067836466666667,
            "lon": 102.17691941666666
        },
        {
            "name": "AF011",
            "lat": 6.046273333333334,
            "lon": 102.19501613333334
        },
        {
            "name": "AF012",
            "lat": 6.074290733333333,
            "lon": 102.17259368333333
        },
        {
            "name": "AF013",
            "lat": 6.063906816666667,
            "lon": 102.44865325
        },
        {
            "name": "AF014",
            "lat": 6.097414716666667,
            "lon": 102.46812056666667
        },
        {
            "name": "AF015",
            "lat": 5.996941916666667,
            "lon": 102.32152378333333
        },
        {
            "name": "AF016",
            "lat": 6.002460616666666,
            "lon": 102.35758813333334
        },
        {
            "name": "AF017",
            "lat": 6.015609333333333,
            "lon": 102.39159803333334
        },
        {
            "name": "AF018",
            "lat": 6.002274,
            "lon": 102.27154636666667
        },
        {
            "name": "AF019",
            "lat": 5.9970941,
            "lon": 102.32444461666667
        },
        {
            "name": "AF020",
            "lat": 6.008644833333333,
            "lon": 102.37631456666666
        },
        {
            "name": "AF021",
            "lat": 6.192365933333333,
            "lon": 102.4793118
        },
        {
            "name": "AF022",
            "lat": 6.163423816666667,
            "lon": 102.48184953333333
        },
        {
            "name": "AGPON",
            "lat": 6.135138883333333,
            "lon": 102.47891666666666
        },
        {
            "name": "ARALI",
            "lat": 5.915916666666667,
            "lon": 102.272625
        },
        {
            "name": "BIXOR",
            "lat": 5.9994,
            "lon": 102.2075
        },
        {
            "name": "CD10",
            "lat": 6.187377783333333,
            "lon": 102.17245556666667
        },
        {
            "name": "CD28",
            "lat": 6.141397216666666,
            "lon": 102.44249166666667
        },
        {
            "name": "CF10",
            "lat": 6.187330566666667,
            "lon": 102.17239166666667
        },
        {
            "name": "D070I",
            "lat": 6.214980566666667,
            "lon": 102.45574166666667
        },
        {
            "name": "D140J",
            "lat": 6.035147216666667,
            "lon": 102.42174443333333
        },
        {
            "name": "D158K",
            "lat": 5.992638883333333,
            "lon": 102.38314166666666
        },
        {
            "name": "D158L",
            "lat": 5.976913883333333,
            "lon": 102.38891943333333
        },
        {
            "name": "D158N",
            "lat": 5.946052783333333,
            "lon": 102.40193333333333
        },
        {
            "name": "D190K",
            "lat": 5.982027783333333,
            "lon": 102.28226111666666
        },
        {
            "name": "D213I",
            "lat": 6.0370333333333335,
            "lon": 102.23221111666666
        },
        {
            "name": "D213K",
            "lat": 6.008938883333333,
            "lon": 102.21399443333334
        },
        {
            "name": "D213O",
            "lat": 5.95275,
            "lon": 102.17756388333333
        },
        {
            "name": "D250J",
            "lat": 6.106147216666667,
            "lon": 102.15698888333333
        },
        {
            "name": "DOVLO",
            "lat": 5.931613883333333,
            "lon": 102.40703611666666
        },
        {
            "name": "DUBMU",
            "lat": 5.496177783333334,
            "lon": 102.34353611666667
        },
        {
            "name": "EMPUR",
            "lat": 5.7461111166666665,
            "lon": 102.24361111666667
        },
        {
            "name": "FD10",
            "lat": 6.181811116666666,
            "lon": 102.20545833333334
        },
        {
            "name": "FD28",
            "lat": 6.149894433333333,
            "lon": 102.39301666666667
        },
        {
            "name": "FF10",
            "lat": 6.181727783333334,
            "lon": 102.20538888333333
        },
        {
            "name": "GUGIT",
            "lat": 5.542361116666667,
            "lon": 102.56275
        },
        {
            "name": "IDSUS",
            "lat": 6.158605566666667,
            "lon": 102.34152221666666
        },
        {
            "name": "IPKIN",
            "lat": 6.0526694333333335,
            "lon": 102.46491943333334
        },
        {
            "name": "KC366",
            "lat": 6.182738883333333,
            "lon": 102.19971388333333
        },
        {
            "name": "KC368",
            "lat": 6.1500916666666665,
            "lon": 102.39150278333334
        },
        {
            "name": "KC369",
            "lat": 6.143633333333334,
            "lon": 102.42944443333333
        },
        {
            "name": "KC602",
            "lat": 6.174783333333333,
            "lon": 102.23845278333333
        },
        {
            "name": "KC604",
            "lat": 6.1634166666666665,
            "lon": 102.21110833333333
        },
        {
            "name": "KC606",
            "lat": 6.1233805666666665,
            "lon": 102.19520556666667
        },
        {
            "name": "KC608",
            "lat": 6.134063883333333,
            "lon": 102.17733888333333
        },
        {
            "name": "KC611",
            "lat": 6.155402783333333,
            "lon": 102.35229721666667
        },
        {
            "name": "KC612",
            "lat": 6.146452783333333,
            "lon": 102.36585278333334
        },
        {
            "name": "KC614",
            "lat": 6.113044433333333,
            "lon": 102.38050833333334
        },
        {
            "name": "KC616",
            "lat": 6.0605166666666666,
            "lon": 102.38125
        },
        {
            "name": "KC618",
            "lat": 6.120702783333333,
            "lon": 102.39305556666666
        },
        {
            "name": "KC621",
            "lat": 6.154769433333334,
            "lon": 102.36404721666666
        },
        {
            "name": "KC622",
            "lat": 6.049102783333334,
            "lon": 102.33396388333334
        },
        {
            "name": "KC631",
            "lat": 6.176130566666667,
            "lon": 102.23856943333334
        },
        {
            "name": "KC632",
            "lat": 6.066408333333333,
            "lon": 102.22761666666666
        },
        {
            "name": "LERKA",
            "lat": 5.1577416666666664,
            "lon": 102.47870278333333
        },
        {
            "name": "LIMVO",
            "lat": 5.9938111166666665,
            "lon": 102.38218888333333
        },
        {
            "name": "MIMOS",
            "lat": 6.191311116666666,
            "lon": 102.14913888333334
        },
        {
            "name": "NISED",
            "lat": 6.011416666666666,
            "lon": 102.11448888333334
        },
        {
            "name": "OPOMO",
            "lat": 5.591188883333333,
            "lon": 101.94238888333334
        },
        {
            "name": "PEGDI",
            "lat": 6.174241666666667,
            "lon": 102.24967778333334
        },
        {
            "name": "RF001",
            "lat": 6.140670483333333,
            "lon": 102.39265831666667
        },
        {
            "name": "RF002",
            "lat": 6.113644333333333,
            "lon": 102.40866628333333
        },
        {
            "name": "RF003",
            "lat": 6.082309566666667,
            "lon": 102.40728726666667
        },
        {
            "name": "RF004",
            "lat": 6.0567764833333335,
            "lon": 102.38896893333333
        },
        {
            "name": "RF005",
            "lat": 6.1377290166666665,
            "lon": 102.19583296666667
        },
        {
            "name": "RF006",
            "lat": 6.151384566666667,
            "lon": 102.20110385
        },
        {
            "name": "RF007",
            "lat": 6.172135366666667,
            "lon": 102.20670663333334
        },
        {
            "name": "RF008",
            "lat": 6.1509320333333335,
            "lon": 102.1821765
        },
        {
            "name": "RF009",
            "lat": 6.119715583333333,
            "lon": 102.17376711666667
        },
        {
            "name": "RF010",
            "lat": 6.089160416666667,
            "lon": 102.18435131666666
        },
        {
            "name": "RF011",
            "lat": 6.125264716666667,
            "lon": 102.3788609
        },
        {
            "name": "RF012",
            "lat": 6.136457083333333,
            "lon": 102.37396738333334
        },
        {
            "name": "RUPOS",
            "lat": 5.537330566666666,
            "lon": 102.20921943333333
        },
        {
            "name": "SUGUS",
            "lat": 6.064269433333333,
            "lon": 102.29674443333333
        },
        {
            "name": "TUTSA",
            "lat": 6.095416666666667,
            "lon": 102.13288888333334
        },
        {
            "name": "VKB",
            "lat": 6.16345,
            "lon": 102.31421388333334
        }
    ],
    "rnws": [
        "RNW 10",
        "RNW 28"
    ],
    "sids": [
        {
            "name": "DUBM1A",
            "rnw": "10",
            "fixes": {
                "LIMVO": "LIMVO AT OR ABOVE 5000 SPEED 250",
                "DUBMU": "DUBMU AT OR ABOVE 11000",
                "LERKA": "LERKA"
            },
            "sub_fixes": [],
            "transitions": []
        },
        {
            "name": "DUBM1B",
            "rnw": "28",
            "fixes": {
                "BIXOR": "BIXOR AT OR ABOVE 5000",
                "DUBMU": "DUBMU AT OR ABOVE 11000",
                "LERKA": "LERKA"
            },
            "sub_fixes": [],
            "transitions": []
        },
        {
            "name": "DUBM1C",
            "rnw": "10",
            "fixes": {
                "VKB": "VKB",
                "DUBMU": "DUBMU",
                "LERKA": "LERKA"
            },
            "sub_fixes": [],
            "transitions": []
        },
        {
            "name": "DUBM1D",
            "rnw": "28",
            "fixes": {
                "VKB": "VKB HDG 148 INTERCEPT RADIAL 178 TO",
                "DUBMU": "DUBMU",
                "LERKA": "LERKA"
            },
            "sub_fixes": [],
            "transitions": []
        },
        {
            "name": "GUGI1A",
            "rnw": "10",
            "fixes": {
                "LIMVO": "LIMVO AT OR ABOVE 5000 SPEED 250",
                "GUGIT": "GUGIT AT OR ABOVE 11000"
            },
            "sub_fixes": [],
            "transitions": []
        },
        {
            "name": "GUGI1B",
            "rnw": "28",
            "fixes": {
                "BIXOR": "BIXOR AT OR ABOVE 5000",
                "GUGIT": "GUGIT AT OR ABOVE 11000"
            },
            "sub_fixes": [],
            "transitions": []
        },
        {
            "name": "GUGI1C",
            "rnw": "10",
            "fixes": {
                "D158L": "D158L AT OR ABOVE 5000",
                "GUGIT": "GUGIT"
            },
            "sub_fixes": [],
            "transitions": []
        },
        {
            "name": "GUGI1D",
            "rnw": "28",
            "fixes": {
                "VKB": "VKB HDG 128 INTERCEPT RADIAL 158 TO",
                "GUGIT": "GUGIT"
            },
            "sub_fixes": [],
            "transitions": []
        },
        {
            "name": "OPOM1A",
            "rnw": "10",
            "fixes": {
                "LIMVO": "LIMVO AT OR ABOVE 5000 SPEED 250",
                "OPOMO": "OPOMO AT OR ABOVE 11000"
            },
            "sub_fixes": [],
            "transitions": []
        },
        {
            "name": "OPOM1B",
            "rnw": "28",
            "fixes": {
                "NISED": "NISED AT OR ABOVE 5000",
                "OPOMO": "OPOMO AT OR ABOVE 11000"
            },
            "sub_fixes": [],
            "transitions": []
        },
        {
            "name": "OPOM1C",
            "rnw": "10",
            "fixes": {
                "OPOMO": "OPOMO"
            },
            "sub_fixes": [],
            "transitions": []
        },
        {
            "name": "OPOM1D",
            "rnw": "28",
            "fixes": {
                "OPOMO": "OPOMO"
            },
            "sub_fixes": [],
            "transitions": []
        },
        {
            "name": "RUPO1A",
            "rnw": "10",
            "fixes": {
                "LIMVO": "LIMVO AT OR ABOVE 5000 SPEED 250",
                "EMPUR": "EMPUR AT OR ABOVE 8500",
                "RUPOS": "RUPOS AT OR ABOVE 11000"
            },
            "sub_fixes": [],
            "transitions": []
        },
        {
            "name": "RUPO1B",
            "rnw": "28",
            "fixes": {
                "BIXOR": "BIXOR AT OR ABOVE 5000",
                "RUPOS": "RUPOS AT OR ABOVE 11000"
            },
            "sub_fixes": [],
            "transitions": []
        },
        {
            "name": "RUPO1C",
            "rnw": "10",
            "fixes": {
                "VKB": "VKB TRK 220 INTERCEPT RADIAL 190 TO",
                "RUPOS": "RUPOS"
            },
            "sub_fixes": [],
            "transitions": []
        },
        {
            "name": "RUPO1D",
            "rnw": "28",
            "fixes": {
                "VKB": "VKB HDG 160 INTERCEPT RADIAL 190 TO",
                "RUPOS": "RUPOS"
            },
            "sub_fixes": [],
            "transitions": []
        },
        {
            "name": "VKB1",
            "rnw": "28",
            "fixes": {},
            "sub_fixes": [
                {
                    "rwy": "RNW 10",
                    "fixes": {
                        "RNW 10": "RNW 10 HDG 100 UNTIL 2500 HDG 100 VECTORS"
                    }
                },
                {
                    "rwy": "RNW 28",
                    "fixes": {
                        "RNW 28": "RNW 28 HDG 280 UNTIL 1500 HDG 280 VECTORS"
                    }
                }
            ],
            "transitions": []
        }
    ],
    "stars": [
        {
            "name": "GUGI1E",
            "runway": "RNW 10",
            "fixes": {
                "GUGIT": "GUGIT AT OR ABOVE 10000",
                "ARALI": "ARALI AT OR ABOVE 5500",
                "BIXOR": "BIXOR AT OR ABOVE 4500",
                "TUTSA": "TUTSA AT OR ABOVE 3000",
                "MIMOS": "MIMOS AT OR ABOVE 2000 SPEED 220"
            }
        },
        {
            "name": "GUGI1F",
            "runway": "RNW 28",
            "fixes": {
                "GUGIT": "GUGIT AT OR ABOVE 9000",
                "DOVLO": "DOVLO AT OR ABOVE 5500",
                "LIMVO": "LIMVO AT OR ABOVE 4500",
                "IPKIN": "IPKIN AT OR ABOVE 3000",
                "AGPON": "AGPON AT OR ABOVE 2000 SPEED 220"
            }
        },
        {
            "name": "OPOM1E",
            "runway": "RNW 10",
            "fixes": {
                "OPOMO": "OPOMO AT OR ABOVE 11000",
                "ARALI": "ARALI AT OR ABOVE 5500",
                "BIXOR": "BIXOR AT OR ABOVE 4500",
                "TUTSA": "TUTSA AT OR ABOVE 3000",
                "MIMOS": "MIMOS AT OR ABOVE 2000 SPEED 220"
            }
        },
        {
            "name": "OPOM1F",
            "runway": "RNW 28",
            "fixes": {
                "OPOMO": "OPOMO AT OR ABOVE 11000",
                "ARALI": "ARALI AT OR ABOVE 5500",
                "LIMVO": "LIMVO AT OR ABOVE 4500",
                "IPKIN": "IPKIN AT OR ABOVE 3000",
                "AGPON": "AGPON AT OR ABOVE 2000 SPEED 220"
            }
        },
        {
            "name": "RUPO1E",
            "runway": "RNW 10",
            "fixes": {
                "RUPOS": "RUPOS AT OR ABOVE 10000",
                "ARALI": "ARALI AT OR ABOVE 5500",
                "BIXOR": "BIXOR AT OR ABOVE 4500",
                "TUTSA": "TUTSA AT OR ABOVE 3000",
                "MIMOS": "MIMOS AT OR ABOVE 2000 SPEED 220"
            }
        },
        {
            "name": "RUPO1F",
            "runway": "RNW 28",
            "fixes": {
                "RUPOS": "RUPOS AT OR ABOVE 10000",
                "ARALI": "ARALI AT OR ABOVE 5500",
                "LIMVO": "LIMVO AT OR ABOVE 4500",
                "IPKIN": "IPKIN AT OR ABOVE 3000",
                "AGPON": "AGPON AT OR ABOVE 2000 SPEED 220"
            }
        }
    ],
    "approaches": [
        {
            "name": "VORDZ10",
            "fixes": {
                "CD10": "CD10 AT OR ABOVE 1600",
                "FD10": "FD10 1600 RNW 10",
                "VKB": "VKB TRK 100 UNTIL 1000 TURN LEFT DIRECT VKB AT OR ABOVE 3000 SPEED 230 HOLD AT VKB LEFT TURN INBOUNDCOURSE 225 ALT 3000 SPEED 230 LEGTIME 1 FAF FD10 MAP RNW 10"
            },
            "transitions": [
                {
                    "name": "D158K",
                    "fixes": {
                        "D158K": "D158K AT OR ABOVE 5500",
                        "AF001": "AF001",
                        "AF002": "AF002",
                        "AF003": "AF003",
                        "AF004": "AF004",
                        "AF005": "AF005",
                        "D250J": "D250J AT OR ABOVE 3000",
                        "AF006": "AF006",
                        "AF007": "AF007",
                        "MIMOS": "MIMOS AT OR ABOVE 2000"
                    }
                },
                {
                    "name": "D190K",
                    "fixes": {
                        "D190K": "D190K AT OR ABOVE 5000",
                        "AF008": "AF008",
                        "AF009": "AF009",
                        "AF010": "AF010",
                        "D250J": "D250J AT OR ABOVE 3000",
                        "AF006": "AF006",
                        "AF007": "AF007",
                        "MIMOS": "MIMOS AT OR ABOVE 2000"
                    }
                },
                {
                    "name": "D213O",
                    "fixes": {
                        "D213O": "D213O AT OR ABOVE 5500",
                        "D213K": "D213K AT OR ABOVE 4000",
                        "AF011": "AF011",
                        "AF012": "AF012",
                        "D250J": "D250J AT OR ABOVE 3000",
                        "AF006": "AF006",
                        "AF007": "AF007",
                        "MIMOS": "MIMOS AT OR ABOVE 2000"
                    }
                },
                {
                    "name": "MIMOS",
                    "fixes": {
                        "MIMOS": "MIMOS AT OR ABOVE 2000"
                    }
                },
                {
                    "name": "VKB",
                    "fixes": {
                        "VKB": "VKB",
                        "D213I": "D213I",
                        "AF011": "AF011",
                        "AF012": "AF012",
                        "D250J": "D250J AT OR ABOVE 3000",
                        "AF006": "AF006",
                        "AF007": "AF007",
                        "MIMOS": "MIMOS AT OR ABOVE 2000"
                    }
                }
            ]
        },
        {
            "name": "VORDZ28",
            "fixes": {
                "CD28": "CD28 AT OR ABOVE 1600",
                "FD28": "FD28 1600 RNW 28 TRK 280 UNTIL 1000 TURN LEFT DIRECT",
                "VKB": "VKB AT OR ABOVE 3000 SPEED 210 HOLD AT VKB RIGHT TURN INBOUNDCOURSE 060 ALT 3000 SPEED 230 LEGTIME 1 FAF FD28 MAP RNW 28"
            },
            "transitions": [
                {
                    "name": "AGPON",
                    "fixes": {
                        "AGPON": "AGPON AT OR ABOVE 2000"
                    }
                },
                {
                    "name": "D158N",
                    "fixes": {
                        "D158N": "D158N AT OR ABOVE 5000",
                        "D158K": "D158K AT OR ABOVE 4100",
                        "D140J": "D140J AT OR ABOVE 3500",
                        "AF013": "AF013",
                        "AF014": "AF014",
                        "AGPON": "AGPON AT OR ABOVE 2000"
                    }
                },
                {
                    "name": "D190K",
                    "fixes": {
                        "D190K": "D190K AT OR ABOVE 5000",
                        "AF015": "AF015",
                        "AF016": "AF016",
                        "AF017": "AF017",
                        "D140J": "D140J AT OR ABOVE 3500",
                        "AF013": "AF013",
                        "AF014": "AF014",
                        "AGPON": "AGPON AT OR ABOVE 2000"
                    }
                },
                {
                    "name": "D213K",
                    "fixes": {
                        "D213K": "D213K AT OR ABOVE 5500",
                        "AF018": "AF018",
                        "AF019": "AF019",
                        "AF020": "AF020",
                        "D140J": "D140J AT OR ABOVE 3500",
                        "AF013": "AF013",
                        "AF014": "AF014",
                        "AGPON": "AGPON AT OR ABOVE 2000"
                    }
                },
                {
                    "name": "VKB",
                    "fixes": {
                        "VKB": "VKB",
                        "D070I": "D070I",
                        "AF021": "AF021",
                        "AF022": "AF022",
                        "AGPON": "AGPON AT OR ABOVE 2000"
                    }
                }
            ]
        },
        {
            "name": "ILSZ10",
            "fixes": {
                "CF10": "CF10 AT OR ABOVE 1600",
                "FF10": "FF10 1600 RNW 10",
                "VKB": "VKB TRK 100 UNTIL 1000 TURN LEFT DIRECT VKB AT OR ABOVE 3000 SPEED 230 HOLD AT VKB LEFT TURN INBOUNDCOURSE 225 ALT 3000 SPEED 230 LEGTIME 1 FAF FF10 MAP RNW 10"
            },
            "transitions": [
                {
                    "name": "D158K",
                    "fixes": {
                        "D158K": "D158K AT OR ABOVE 5000",
                        "AF001": "AF001",
                        "AF002": "AF002",
                        "AF003": "AF003",
                        "AF004": "AF004",
                        "AF005": "AF005",
                        "D250J": "D250J AT OR ABOVE 3000",
                        "AF006": "AF006",
                        "AF007": "AF007",
                        "MIMOS": "MIMOS AT OR ABOVE 2000"
                    }
                },
                {
                    "name": "D190K",
                    "fixes": {
                        "D190K": "D190K AT OR ABOVE 5000",
                        "AF008": "AF008",
                        "AF009": "AF009",
                        "AF010": "AF010",
                        "D250J": "D250J AT OR ABOVE 3000",
                        "AF006": "AF006",
                        "AF007": "AF007",
                        "MIMOS": "MIMOS AT OR ABOVE 2000"
                    }
                },
                {
                    "name": "D213O",
                    "fixes": {
                        "D213O": "D213O AT OR ABOVE 5500",
                        "D213K": "D213K AT OR ABOVE 4000",
                        "AF011": "AF011",
                        "AF012": "AF012",
                        "D250J": "D250J AT OR ABOVE 3000",
                        "AF006": "AF006",
                        "AF007": "AF007",
                        "MIMOS": "MIMOS AT OR ABOVE 2000"
                    }
                },
                {
                    "name": "MIMOS",
                    "fixes": {
                        "MIMOS": "MIMOS AT OR ABOVE 2000"
                    }
                },
                {
                    "name": "VKB",
                    "fixes": {
                        "VKB": "VKB",
                        "D213I": "D213I",
                        "AF011": "AF011",
                        "AF012": "AF012",
                        "D250J": "D250J AT OR ABOVE 3000",
                        "AF006": "AF006",
                        "AF007": "AF007",
                        "MIMOS": "MIMOS AT OR ABOVE 2000"
                    }
                }
            ]
        },
        {
            "name": "RNAVY10",
            "fixes": {
                "MIMOS": "MIMOS AT OR ABOVE 2000 SPEED 220",
                "KC366": "KC366 1600 RNW 10 HDG 100 UNTIL 1000 TURN RIGHT DIRECT",
                "SUGUS": "OVERFLY SUGUS AT OR ABOVE 3000 SPEED 220 HOLD AT SUGUS LEFT TURN INBOUNDCOURSE 280 ALT 3000 SPEED 220 LEGTIME 1 FAF KC366 MAP RNW 10"
            },
            "transitions": []
        },
        {
            "name": "RNAVZ10",
            "fixes": {
                "PEGDI": "PEGDI 700 RNW 10",
                "KC621": "KC621",
                "RF001": "RF001",
                "RF002": "RF002",
                "RF003": "RF003",
                "RF004": "RF004",
                "KC622": "KC622 SPEED 230",
                "SUGUS": "SUGUS AT OR ABOVE 3000 SPEED 220 HOLD AT SUGUS LEFT TURN INBOUNDCOURSE 280 ALT 3000 SPEED 220 LEGTIME 1 FAF PEGDI MAP RNW 10"
            },
            "transitions": [
                {
                    "name": "GUGIT",
                    "fixes": {
                        "GUGIT": "GUGIT AT OR ABOVE 10000",
                        "ARALI": "ARALI AT OR ABOVE 5500",
                        "BIXOR": "BIXOR AT OR ABOVE 4000",
                        "KC606": "KC606 AT OR ABOVE 2100 SPEED 225",
                        "RF005": "RF005",
                        "RF006": "RF006",
                        "KC604": "KC604 AT OR ABOVE 1400",
                        "KC602": "KC602 AT OR ABOVE 900"
                    }
                },
                {
                    "name": "TUTSA",
                    "fixes": {
                        "TUTSA": "TUTSA AT OR ABOVE 3000",
                        "KC608": "KC608 AT OR ABOVE 2100",
                        "KC604": "KC604 AT OR ABOVE 1400 SPEED 225",
                        "KC602": "KC602 AT OR ABOVE 900"
                    }
                }
            ]
        },
        {
            "name": "RNAVY28",
            "fixes": {
                "KC369": "KC369 AT OR ABOVE 1600",
                "KC368": "KC368 1600 RNW 28 HDG 280 UNTIL 1000 TURN LEFT DIRECT",
                "SUGUS": "OVERFLY SUGUS AT OR ABOVE 3000 SPEED 210 HOLD AT SUGUS RIGHT TURN INBOUNDCOURSE 100 ALT 3000 SPEED 220 LEGTIME 1 FAF KC368 MAP RNW 28"
            },
            "transitions": [
                {
                    "name": "AGPON",
                    "fixes": {
                        "AGPON": "AGPON AT OR ABOVE 2000"
                    }
                }
            ]
        },
        {
            "name": "RNAVZ28",
            "fixes": {
                "IDSUS": "IDSUS 700 RNW 28",
                "KC631": "KC631",
                "RF007": "RF007",
                "RF008": "RF008",
                "RF009": "RF009",
                "RF010": "RF010",
                "KC632": "KC632 SPEED 230",
                "SUGUS": "SUGUS AT OR ABOVE 3000 SPEED 220 HOLD AT SUGUS RIGHT TURN INBOUNDCOURSE 100 ALT 3000 SPEED 220 LEGTIME 1 FAF IDSUS MAP RNW 28"
            },
            "transitions": [
                {
                    "name": "GUGIT",
                    "fixes": {
                        "GUGIT": "GUGIT AT OR ABOVE 9000",
                        "DOVLO": "DOVLO AT OR ABOVE 5500",
                        "LIMVO": "LIMVO AT OR ABOVE 4000",
                        "KC616": "KC616 AT OR ABOVE 2800",
                        "KC614": "KC614 AT OR ABOVE 1800 SPEED 230",
                        "RF011": "RF011",
                        "RF012": "RF012",
                        "KC612": "KC612 AT OR ABOVE 1100 SPEED 230",
                        "KC611": "KC611 AT OR ABOVE 900"
                    }
                },
                {
                    "name": "IPKIN",
                    "fixes": {
                        "IPKIN": "IPKIN AT OR ABOVE 3000",
                        "KC618": "KC618 AT OR ABOVE 1800",
                        "KC612": "KC612 AT OR ABOVE 1100 SPEED 230",
                        "KC611": "KC611 AT OR ABOVE 900"
                    }
                }
            ]
        }
    ]
}