{
    "fixes": [
        {
            "name": "30LOC",
            "lat": 27.595422216666666,
            "lon": 152.69379166666667
        },
        {
            "name": "30TAC",
            "lat": 27.689722216666667,
            "lon": 152.73158056666668
        },
        {
            "name": "35TAC",
            "lat": 27.588086116666666,
            "lon": 152.68935
        },
        {
            "name": "40LOC",
            "lat": 27.579847216666668,
            "lon": 152.68699166666667
        },
        {
            "name": "AF001",
            "lat": 27.587910533333332,
            "lon": 152.49866118333333
        },
        {
            "name": "AF002",
            "lat": 27.54139095,
            "lon": 152.52076933333333
        },
        {
            "name": "AF003",
            "lat": 27.501253183333333,
            "lon": 152.55528826666668
        },
        {
            "name": "AF004",
            "lat": 27.582052933333333,
            "lon": 152.50061571666666
        },
        {
            "name": "AF005",
            "lat": 27.53101355,
            "lon": 152.52803656666666
        },
        {
            "name": "AF006",
            "lat": 27.4888052,
            "lon": 152.57044036666667
        },
        {
            "name": "AF007",
            "lat": 27.759690316666667,
            "lon": 152.61175101666666
        },
        {
            "name": "AF008",
            "lat": 27.782469616666667,
            "lon": 152.65812353333334
        },
        {
            "name": "AF009",
            "lat": 27.791436283333333,
            "lon": 152.71019361666666
        },
        {
            "name": "AGONI",
            "lat": 27.725666666666665,
            "lon": 152.576
        },
        {
            "name": "AMB",
            "lat": 27.641527783333334,
            "lon": 152.71611111666667
        },
        {
            "name": "AMBND",
            "lat": 27.410855566666665,
            "lon": 152.70774166666666
        },
        {
            "name": "AMBNE",
            "lat": 27.388038883333333,
            "lon": 152.60343888333333
        },
        {
            "name": "AMBNF",
            "lat": 27.543830566666667,
            "lon": 152.67127778333332
        },
        {
            "name": "AMBNG",
            "lat": 27.467663883333334,
            "lon": 152.54376666666667
        },
        {
            "name": "AMBNH",
            "lat": 27.731980566666667,
            "lon": 152.753475
        },
        {
            "name": "AMBNI",
            "lat": 27.465938883333333,
            "lon": 152.63733333333334
        },
        {
            "name": "AMBNM",
            "lat": 27.621713883333335,
            "lon": 152.70526666666666
        },
        {
            "name": "AMBSF",
            "lat": 27.745983333333335,
            "lon": 152.73351388333333
        },
        {
            "name": "AMBSI",
            "lat": 27.812433333333335,
            "lon": 152.74171666666666
        },
        {
            "name": "AMBSK",
            "lat": 27.862272216666668,
            "lon": 152.74786943333334
        },
        {
            "name": "AMBSL",
            "lat": 27.849383333333332,
            "lon": 152.65740833333334
        },
        {
            "name": "AMBSM",
            "lat": 27.662919433333332,
            "lon": 152.72326943333334
        },
        {
            "name": "AMBWF",
            "lat": 27.693336116666668,
            "lon": 152.63161943333333
        },
        {
            "name": "AMBWH",
            "lat": 27.466363883333333,
            "lon": 152.69745556666666
        },
        {
            "name": "AMBWI",
            "lat": 27.742016666666668,
            "lon": 152.5553
        },
        {
            "name": "AMBWJ",
            "lat": 27.79065556666667,
            "lon": 152.47891388333332
        },
        {
            "name": "AMBWM",
            "lat": 27.644611116666667,
            "lon": 152.70786943333334
        },
        {
            "name": "AMBWN",
            "lat": 27.694675,
            "lon": 152.47772221666668
        },
        {
            "name": "BIGIX",
            "lat": 27.637833333333333,
            "lon": 152.49086111666668
        },
        {
            "name": "BOBOP",
            "lat": 28.931638883333335,
            "lon": 151.68063888333333
        },
        {
            "name": "CF15Y",
            "lat": 27.455177783333333,
            "lon": 152.63263611666667
        },
        {
            "name": "CI15Z",
            "lat": 27.505108333333332,
            "lon": 152.65437221666667
        },
        {
            "name": "CL15Z",
            "lat": 27.51616943333333,
            "lon": 152.65865278333334
        },
        {
            "name": "CT15",
            "lat": 27.50409721666667,
            "lon": 152.64744166666668
        },
        {
            "name": "CT33",
            "lat": 27.737913883333334,
            "lon": 152.74711943333332
        },
        {
            "name": "D153H",
            "lat": 27.770041666666668,
            "lon": 152.75748611666666
        },
        {
            "name": "D153I",
            "lat": 27.786105566666667,
            "lon": 152.76267221666666
        },
        {
            "name": "D318L",
            "lat": 27.469566666666665,
            "lon": 152.60024721666667
        },
        {
            "name": "D325K",
            "lat": 27.47355,
            "lon": 152.63221666666666
        },
        {
            "name": "D325L",
            "lat": 27.458277783333333,
            "lon": 152.62460833333333
        },
        {
            "name": "D326D",
            "lat": 27.579844433333335,
            "lon": 152.68723056666667
        },
        {
            "name": "D328I",
            "lat": 27.505277783333334,
            "lon": 152.65385833333335
        },
        {
            "name": "DER15",
            "lat": 27.647330566666668,
            "lon": 152.71647221666666
        },
        {
            "name": "DULIN",
            "lat": 27.64875,
            "lon": 152.7235
        },
        {
            "name": "FF15",
            "lat": 27.539347216666666,
            "lon": 152.66931943333333
        },
        {
            "name": "FT15",
            "lat": 27.549911116666667,
            "lon": 152.67029443333334
        },
        {
            "name": "FT33",
            "lat": 27.705786116666665,
            "lon": 152.73675833333334
        },
        {
            "name": "JEDDA",
            "lat": 27.157113883333334,
            "lon": 151.95285
        },
        {
            "name": "MA15",
            "lat": 27.61411388333333,
            "lon": 152.70195556666667
        },
        {
            "name": "MESED",
            "lat": 27.310341666666666,
            "lon": 151.85769443333334
        },
        {
            "name": "MT15",
            "lat": 27.609463883333333,
            "lon": 152.70003056666667
        },
        {
            "name": "MT33",
            "lat": 27.657591666666665,
            "lon": 152.72122778333335
        },
        {
            "name": "OREBI",
            "lat": 27.455183333333334,
            "lon": 152.63262778333333
        },
        {
            "name": "SHNAB",
            "lat": 27.412666666666667,
            "lon": 152.60083333333333
        },
        {
            "name": "SOOTY",
            "lat": 27.4085,
            "lon": 152.61233333333334
        },
        {
            "name": "TATEN",
            "lat": 28.49,
            "lon": 152.53666666666666
        }
    ],
    "rnws": [
        "RNW 04",
        "RNW 15",
        "RNW 22",
        "RNW 33"
    ],
    "sids": [
        {
            "name": "AMB3",
            "rnw": "22",
            "fixes": {},
            "sub_fixes": [
                {
                    "rwy": "RNW 15",
                    "fixes": {
                        "RNW 15": "RNW 15",
                        "DER15": "OVERFLY DER15 TRK 148 UNTIL 600 HDG 148 VECTORS"
                    }
                },
                {
                    "rwy": "RNW 33",
                    "fixes": {
                        "RNW 33": "RNW 33",
                        "D326D": "D326D TRK 328 UNTIL 900 HDG 328 VECTORS"
                    }
                }
            ],
            "transitions": []
        },
        {
            "name": "BOBOP4",
            "rnw": "22",
            "fixes": {},
            "sub_fixes": [
                {
                    "rwy": "RNW 15",
                    "fixes": {
                        "RNW 15": "RNW 15",
                        "DER15": "OVERFLY DER15 TRK 148 UNTIL 2700 TRK 235 INTERCEPT RADIAL 204 TO",
                        "BOBOP": "BOBOP BOBOP"
                    }
                },
                {
                    "rwy": "RNW 33",
                    "fixes": {
                        "RNW 33": "RNW 33",
                        "D326D": "D326D TRK 328 UNTIL 800 TURN LEFT TRK 185 INTERCEPT RADIAL 204 TO",
                        "BOBOP": "BOBOP BOBOP"
                    }
                }
            ],
            "transitions": []
        },
        {
            "name": "BRISY2",
            "rnw": "22",
            "fixes": {},
            "sub_fixes": [
                {
                    "rwy": "RNW 15",
                    "fixes": {
                        "RNW 15": "RNW 15",
                        "DER15": "OVERFLY DER15 TRK 148 UNTIL 2700 TRK 330 UNTIL 4000 HDG 330 VECTORS"
                    }
                },
                {
                    "rwy": "RNW 33",
                    "fixes": {
                        "RNW 33": "RNW 33",
                        "D326D": "D326D TRK 328 UNTIL 800 TRK 350 UNTIL 4000 HDG 350 VECTORS"
                    }
                }
            ],
            "transitions": []
        },
        {
            "name": "JEDDA4",
            "rnw": "22",
            "fixes": {},
            "sub_fixes": [
                {
                    "rwy": "RNW 15",
                    "fixes": {
                        "RNW 15": "RNW 15",
                        "DER15": "OVERFLY DER15 TRK 148 UNTIL 2700 TURN RIGHT TRK 324 INTERCEPT RADIAL 294 TO",
                        "JEDDA": "JEDDA JEDDA"
                    }
                },
                {
                    "rwy": "RNW 33",
                    "fixes": {
                        "RNW 33": "RNW 33",
                        "D326D": "D326D TRK 328 UNTIL 800 TRK 265 INTERCEPT RADIAL 294 TO",
                        "JEDDA": "JEDDA JEDDA"
                    }
                }
            ],
            "transitions": []
        },
        {
            "name": "MESED4",
            "rnw": "22",
            "fixes": {},
            "sub_fixes": [
                {
                    "rwy": "RNW 15",
                    "fixes": {
                        "RNW 15": "RNW 15",
                        "DER15": "OVERFLY DER15 TRK 148 UNTIL 2700 TURN RIGHT TRK 312 INTERCEPT RADIAL 282 TO",
                        "MESED": "MESED MESED"
                    }
                },
                {
                    "rwy": "RNW 33",
                    "fixes": {
                        "RNW 33": "RNW 33",
                        "D326D": "D326D TRK 328 UNTIL 800 TRK 252 INTERCEPT RADIAL 282 TO",
                        "MESED": "MESED MESED"
                    }
                }
            ],
            "transitions": []
        },
        {
            "name": "TATEN1",
            "rnw": "22",
            "fixes": {},
            "sub_fixes": [
                {
                    "rwy": "RNW 15",
                    "fixes": {
                        "RNW 15": "RNW 15",
                        "DER15": "OVERFLY DER15 TRK 148 UNTIL 2700 TRK 210 INTERCEPT RADIAL 180 TO",
                        "TATEN": "TATEN TATEN"
                    }
                },
                {
                    "rwy": "RNW 33",
                    "fixes": {
                        "RNW 33": "RNW 33",
                        "D326D": "D326D TRK 328 UNTIL 800 TURN LEFT TRK 150 INTERCEPT RADIAL 180 TO",
                        "TATEN": "TATEN TATEN"
                    }
                }
            ],
            "transitions": []
        }
    ],
    "stars": [],
    "approaches": [
        {
            "name": "ILSY15",
            "fixes": {
                "CF15Y": "CF15Y AT OR ABOVE 2500",
                "FF15": "FF15 1820 RNW 15 TRK 148 UNTIL 1100 HDG 270 VECTORS FAF FF15 MAP RNW 15"
            },
            "transitions": [
                {
                    "name": "BIGIX",
                    "fixes": {
                        "BIGIX": "BIGIX AT OR ABOVE 5100",
                        "AF001": "AF001",
                        "AF002": "AF002",
                        "AF003": "AF003",
                        "D318L": "D318L AT OR ABOVE 2500"
                    }
                },
                {
                    "name": "SOOTY",
                    "fixes": {
                        "SOOTY": "SOOTY AT OR ABOVE 3800"
                    }
                }
            ]
        },
        {
            "name": "ILSZ15",
            "fixes": {
                "CI15Z": "CI15Z AT OR ABOVE 2500",
                "FF15": "FF15 1820 RNW 15 TRK 148 UNTIL 500 TRK 185 UNTIL 2000 HDG 325 VECTORS FAF FF15 MAP RNW 15"
            },
            "transitions": [
                {
                    "name": "DULIN",
                    "fixes": {
                        "DULIN": "DULIN AT OR ABOVE 5100",
                        "FF15": "FF15 AT OR ABOVE 2500",
                        "CI15Z": "CI15Z AT OR ABOVE 2500 TRK 283 UNTIL 4.3 FROM CI15Z"
                    }
                },
                {
                    "name": "OREBI",
                    "fixes": {
                        "OREBI": "OREBI AT OR ABOVE 2500"
                    }
                }
            ]
        },
        {
            "name": "LOCY15",
            "fixes": {
                "CF15Y": "CF15Y AT OR ABOVE 2500",
                "FF15": "FF15 1990",
                "40LOC": "40LOC AT OR ABOVE 1070",
                "30LOC": "30LOC AT OR ABOVE 710",
                "MA15": "MA15 306 RNW 15 TRK 148 UNTIL 1100 HDG 270 VECTORS FAF FF15 MAP MA15"
            },
            "transitions": [
                {
                    "name": "BIGIX",
                    "fixes": {
                        "BIGIX": "BIGIX AT OR ABOVE 5100",
                        "AF001": "AF001",
                        "AF002": "AF002",
                        "AF003": "AF003",
                        "D318L": "D318L AT OR ABOVE 2500"
                    }
                },
                {
                    "name": "SOOTY",
                    "fixes": {
                        "SOOTY": "SOOTY AT OR ABOVE 3800"
                    }
                }
            ]
        },
        {
            "name": "LOCZ15",
            "fixes": {
                "CL15Z": "CL15Z AT OR ABOVE 2500",
                "FF15": "FF15 1990",
                "40LOC": "40LOC AT OR ABOVE 1080",
                "30LOC": "30LOC AT OR ABOVE 730",
                "MA15": "MA15 308 RNW 15 TRK 148 UNTIL 600 TRK 185 UNTIL 2000 HDG 325 VECTORS FAF FF15 MAP MA15"
            },
            "transitions": [
                {
                    "name": "DULIN",
                    "fixes": {
                        "DULIN": "DULIN AT OR ABOVE 5100",
                        "FF15": "FF15 AT OR ABOVE 2500",
                        "D328I": "D328I AT OR ABOVE 2500 TRK 283 UNTIL 4.3 FROM D328I"
                    }
                },
                {
                    "name": "OREBI",
                    "fixes": {
                        "OREBI": "OREBI AT OR ABOVE 2500"
                    }
                }
            ]
        },
        {
            "name": "RNAV04",
            "fixes": {
                "AMBWI": "AMBWI AT OR ABOVE 3530",
                "AMBWF": "AMBWF 1830",
                "AMBWM": "OVERFLY AMBWM 136 RNW 04 TRK 043 UNTIL 600",
                "AMBWH": "AMBWH HDG 315 VECTORS FAF AMBWF MAP AMBWM"
            },
            "transitions": [
                {
                    "name": "AMBWJ",
                    "fixes": {
                        "AMBWJ": "AMBWJ AT OR ABOVE 5100 SPEED 210"
                    }
                },
                {
                    "name": "AMBWN",
                    "fixes": {
                        "AMBWN": "AMBWN AT OR ABOVE 5100 SPEED 210"
                    }
                }
            ]
        },
        {
            "name": "RNAV15",
            "fixes": {
                "AMBNI": "AMBNI AT OR ABOVE 3330",
                "AMBNF": "AMBNF 1730",
                "AMBNM": "OVERFLY AMBNM 142 RNW 15",
                "AMBNH": "OVERFLY AMBNH HDG 270 VECTORS FAF AMBNF MAP AMBNM"
            },
            "transitions": [
                {
                    "name": "AMBND",
                    "fixes": {
                        "AMBND": "AMBND AT OR ABOVE 3800 SPEED 210"
                    }
                },
                {
                    "name": "AMBNE",
                    "fixes": {
                        "AMBNE": "AMBNE AT OR ABOVE 3800 SPEED 210"
                    }
                },
                {
                    "name": "AMBNG",
                    "fixes": {
                        "AMBNG": "AMBNG AT OR ABOVE 3800 SPEED 210"
                    }
                }
            ]
        },
        {
            "name": "RNAV33",
            "fixes": {
                "AMBSI": "AMBSI AT OR ABOVE 3320",
                "AMBSF": "AMBSF 2050",
                "AMBSM": "OVERFLY AMBSM 459 RNW 33 TRK 343 UNTIL 600 TRK 328 UNTIL 3800 FAF AMBSF MAP AMBSM"
            },
            "transitions": [
                {
                    "name": "AMBSK",
                    "fixes": {
                        "AMBSK": "AMBSK AT OR ABOVE 3400 SPEED 210"
                    }
                },
                {
                    "name": "AMBSL",
                    "fixes": {
                        "AMBSL": "AMBSL AT OR ABOVE 5100 SPEED 210"
                    }
                }
            ]
        },
        {
            "name": "VOR15",
            "fixes": {
                "CT15": "CT15 AT OR ABOVE 2500",
                "FT15": "FT15 1630",
                "35TAC": "35TAC AT OR ABOVE 810",
                "MT15": "MT15 391 RNW 15 TRK 145 UNTIL 1000 HDG 270 VECTORS FAF FT15 MAP MT15"
            },
            "transitions": [
                {
                    "name": "BIGIX",
                    "fixes": {
                        "BIGIX": "BIGIX AT OR ABOVE 5100",
                        "AF004": "AF004",
                        "AF005": "AF005",
                        "AF006": "AF006",
                        "D325L": "D325L AT OR ABOVE 2500",
                        "D325K": "D325K AT OR ABOVE 2500"
                    }
                },
                {
                    "name": "SHNAB",
                    "fixes": {
                        "SHNAB": "SHNAB AT OR ABOVE 3800",
                        "D325K": "D325K"
                    }
                }
            ]
        },
        {
            "name": "VOR33",
            "fixes": {
                "CT33": "CT33 AT OR ABOVE 2120",
                "FT33": "FT33 1420",
                "30TAC": "30TAC AT OR ABOVE 1070",
                "MT33": "MT33 373 RNW 33 TRK 333 UNTIL 1000 HDG 270 VECTORS FAF FT33 MAP MT33"
            },
            "transitions": [
                {
                    "name": "AGONI",
                    "fixes": {
                        "AGONI": "AGONI AT OR ABOVE 5100",
                        "AF007": "AF007",
                        "AF008": "AF008",
                        "AF009": "AF009",
                        "D153I": "D153I AT OR ABOVE 3100",
                        "D153H": "D153H AT OR ABOVE 2830"
                    }
                }
            ]
        }
    ]
}