{
    "fixes": [
        {
            "name": "AGSAL",
            "lat": 26.575011116666666,
            "lon": 153.22966943333333
        },
        {
            "name": "AKERO",
            "lat": 26.707413883333334,
            "lon": 153.36060556666666
        },
        {
            "name": "BIDKI",
            "lat": 26.240830566666666,
            "lon": 152.95439721666668
        },
        {
            "name": "BSZNF",
            "lat": 26.517016666666667,
            "lon": 153.01773888333332
        },
        {
            "name": "BSZNH",
            "lat": 26.622938883333333,
            "lon": 153.10860556666665
        },
        {
            "name": "BSZNI",
            "lat": 26.450786116666666,
            "lon": 152.96103056666666
        },
        {
            "name": "BSZSC",
            "lat": 26.799177783333334,
            "lon": 153.26028333333332
        },
        {
            "name": "BSZSF",
            "lat": 26.666916666666665,
            "lon": 153.14639721666666
        },
        {
            "name": "BSZSH",
            "lat": 26.573175,
            "lon": 153.06588611666666
        },
        {
            "name": "BSZSI",
            "lat": 26.733072216666667,
            "lon": 153.20331943333332
        },
        {
            "name": "BSZSM",
            "lat": 26.612888883333333,
            "lon": 153.099975
        },
        {
            "name": "BUKRA",
            "lat": 26.459222216666667,
            "lon": 153.29551111666666
        },
        {
            "name": "DOVMI",
            "lat": 26.615841666666668,
            "lon": 153.38712778333334
        },
        {
            "name": "DUKEL",
            "lat": 26.354302783333335,
            "lon": 153.17386943333332
        },
        {
            "name": "ELNAX",
            "lat": 26.519988883333333,
            "lon": 153.19943888333333
        },
        {
            "name": "FF205",
            "lat": 26.524077783333333,
            "lon": 153.14669166666667
        },
        {
            "name": "FV205",
            "lat": 26.525283333333334,
            "lon": 153.14876111666666
        },
        {
            "name": "GUVIX",
            "lat": 26.73429721666667,
            "lon": 153.36290556666665
        },
        {
            "name": "IGOLO",
            "lat": 26.518080566666665,
            "lon": 153.01865
        },
        {
            "name": "IKISA",
            "lat": 26.489041666666665,
            "lon": 153.28358056666667
        },
        {
            "name": "ITIDE",
            "lat": 26.735144433333332,
            "lon": 153.48991111666666
        },
        {
            "name": "KASGU",
            "lat": 26.642655566666665,
            "lon": 153.12554166666666
        },
        {
            "name": "LUXAV",
            "lat": 26.649258333333332,
            "lon": 153.30124166666667
        },
        {
            "name": "METUK",
            "lat": 26.339444433333334,
            "lon": 153.05305556666667
        },
        {
            "name": "MOOLO",
            "lat": 26.825625,
            "lon": 153.36258333333333
        },
        {
            "name": "NOGAM",
            "lat": 26.448983333333334,
            "lon": 153.04780833333334
        },
        {
            "name": "NUVTO",
            "lat": 26.746438883333333,
            "lon": 153.25983888333334
        },
        {
            "name": "OLTUD",
            "lat": 26.433569433333332,
            "lon": 152.88923056666667
        },
        {
            "name": "OMDUN",
            "lat": 26.441805566666666,
            "lon": 153.11444443333335
        },
        {
            "name": "OVRUL",
            "lat": 26.733808333333332,
            "lon": 153.29642778333334
        },
        {
            "name": "PASPO",
            "lat": 26.111891666666665,
            "lon": 153.08545556666667
        },
        {
            "name": "REBEG",
            "lat": 25.974844433333335,
            "lon": 153.11277778333334
        },
        {
            "name": "RF001",
            "lat": 26.465008616666665,
            "lon": 153.0380256
        },
        {
            "name": "RF002",
            "lat": 26.485053433333334,
            "lon": 153.02290978333335
        },
        {
            "name": "RF003",
            "lat": 26.509104,
            "lon": 153.02007386666668
        },
        {
            "name": "RF004",
            "lat": 26.5554577,
            "lon": 153.33085153333334
        },
        {
            "name": "RF005",
            "lat": 26.583815466666668,
            "lon": 153.33336818333333
        },
        {
            "name": "RF006",
            "lat": 26.611096166666666,
            "lon": 153.32435221666665
        },
        {
            "name": "RF007",
            "lat": 26.633673866666665,
            "lon": 153.30499451666665
        },
        {
            "name": "SAKAP",
            "lat": 26.693586116666665,
            "lon": 153.29595278333332
        },
        {
            "name": "SEBVA",
            "lat": 26.289861116666668,
            "lon": 152.65054166666667
        },
        {
            "name": "SU",
            "lat": 26.597683333333332,
            "lon": 153.09029721666667
        },
        {
            "name": "SU430",
            "lat": 26.453475,
            "lon": 153.06202221666666
        },
        {
            "name": "SU440",
            "lat": 26.532783333333334,
            "lon": 153.03125
        },
        {
            "name": "SU450",
            "lat": 26.622938883333333,
            "lon": 153.10860556666665
        },
        {
            "name": "SU460",
            "lat": 26.675877783333334,
            "lon": 153.15410278333334
        },
        {
            "name": "SU615",
            "lat": 26.52948333333333,
            "lon": 153.316575
        },
        {
            "name": "SU625",
            "lat": 26.649561116666668,
            "lon": 153.27471388333333
        },
        {
            "name": "SU630",
            "lat": 26.672844433333335,
            "lon": 153.19899166666667
        },
        {
            "name": "SU640",
            "lat": 26.664055566666665,
            "lon": 153.158
        },
        {
            "name": "SU650",
            "lat": 26.64774166666667,
            "lon": 153.12991388333333
        },
        {
            "name": "SU660",
            "lat": 26.563277783333334,
            "lon": 153.05739443333334
        },
        {
            "name": "SUNB",
            "lat": 26.592222216666666,
            "lon": 153.09166666666667
        },
        {
            "name": "TAPET",
            "lat": 26.109083333333334,
            "lon": 152.96497221666667
        },
        {
            "name": "UPLOT",
            "lat": 26.37465,
            "lon": 152.99923333333334
        },
        {
            "name": "VEKNU",
            "lat": 26.444641666666666,
            "lon": 153.13016111666667
        },
        {
            "name": "VIKIL",
            "lat": 26.433027783333333,
            "lon": 153.23030556666666
        },
        {
            "name": "VISIB",
            "lat": 26.453333333333333,
            "lon": 152.96322221666668
        }
    ],
    "rnws": [
        "RNW 13",
        "RNW 31"
    ],
    "sids": [
        {
            "name": "MOOLO1",
            "rnw": "24",
            "fixes": {},
            "sub_fixes": [
                {
                    "rwy": "RNW 13",
                    "fixes": {
                        "RNW 13": "RNW 13",
                        "KASGU": "KASGU",
                        "MOOLO": "MOOLO"
                    }
                },
                {
                    "rwy": "RNW 31",
                    "fixes": {
                        "RNW 31": "RNW 31",
                        "IGOLO": "IGOLO",
                        "NOGAM": "NOGAM",
                        "VEKNU": "VEKNU SPEED 260",
                        "AGSAL": "AGSAL AT OR ABOVE 8000",
                        "MOOLO": "MOOLO"
                    }
                }
            ],
            "transitions": []
        },
        {
            "name": "TAPET1",
            "rnw": "24",
            "fixes": {},
            "sub_fixes": [
                {
                    "rwy": "RNW 13",
                    "fixes": {
                        "RNW 13": "RNW 13",
                        "KASGU": "KASGU",
                        "NUVTO": "NUVTO TURN LEFT DIRECT",
                        "LUXAV": "LUXAV SPEED 250",
                        "ELNAX": "ELNAX AT OR ABOVE 9000",
                        "DUKEL": "DUKEL AT OR ABOVE 12000",
                        "TAPET": "TAPET"
                    }
                },
                {
                    "rwy": "RNW 31",
                    "fixes": {
                        "RNW 31": "RNW 31",
                        "VISIB": "VISIB",
                        "BIDKI": "BIDKI AT OR BELOW 9000",
                        "TAPET": "TAPET"
                    }
                }
            ],
            "transitions": []
        }
    ],
    "stars": [
        {
            "name": "ITID2W.13",
            "runway": "RNW 13",
            "fixes": {
                "ITIDE": "ITIDE",
                "BUKRA": "BUKRA AT OR BELOW 8000 AT OR ABOVE 4100",
                "VIKIL": "VIKIL",
                "OMDUN": "OMDUN 4100"
            }
        },
        {
            "name": "ITID2W.31",
            "runway": "RNW 31",
            "fixes": {
                "ITIDE": "ITIDE",
                "AKERO": "AKERO AT OR ABOVE 5000",
                "SAKAP": "SAKAP AT OR ABOVE 4000"
            }
        },
        {
            "name": "ITID2Z.13",
            "runway": "RNW 13",
            "fixes": {
                "ITIDE": "ITIDE",
                "BUKRA": "BUKRA AT OR BELOW 8000",
                "DUKEL": "DUKEL",
                "METUK": "METUK AT OR ABOVE 4100",
                "UPLOT": "UPLOT SPEED 210"
            }
        },
        {
            "name": "ITID2Z.31",
            "runway": "RNW 31",
            "fixes": {
                "ITIDE": "ITIDE",
                "GUVIX": "GUVIX AT OR ABOVE 5000",
                "OVRUL": "OVRUL AT OR ABOVE 4000 SPEED 230"
            }
        },
        {
            "name": "REBE2X",
            "runway": "RNW 31",
            "fixes": {
                "REBEG": "REBEG",
                "DUKEL": "DUKEL",
                "IKISA": "IKISA AT OR BELOW 7000 AT OR ABOVE 4000"
            }
        },
        {
            "name": "REBE2Z.13",
            "runway": "RNW 13",
            "fixes": {
                "REBEG": "REBEG",
                "PASPO": "PASPO AT OR BELOW 10000",
                "METUK": "METUK AT OR ABOVE 4100",
                "UPLOT": "UPLOT SPEED 210"
            }
        },
        {
            "name": "REBE2Z.31",
            "runway": "RNW 31",
            "fixes": {
                "REBEG": "REBEG",
                "DUKEL": "DUKEL",
                "IKISA": "IKISA AT OR BELOW 7000",
                "DOVMI": "DOVMI",
                "OVRUL": "OVRUL AT OR ABOVE 4000 SPEED 230"
            }
        },
        {
            "name": "SEBV1X",
            "runway": "RNW 31",
            "fixes": {
                "SEBVA": "SEBVA",
                "METUK": "METUK AT OR ABOVE 10000",
                "DUKEL": "DUKEL",
                "IKISA": "IKISA AT OR BELOW 7000 AT OR ABOVE 4000"
            }
        },
        {
            "name": "SEBV1Z.13",
            "runway": "RNW 13",
            "fixes": {
                "SEBVA": "SEBVA",
                "OLTUD": "OLTUD AT OR ABOVE 4100 SPEED 210"
            }
        },
        {
            "name": "SEBV1Z.31",
            "runway": "RNW 31",
            "fixes": {
                "SEBVA": "SEBVA",
                "METUK": "METUK AT OR ABOVE 10000",
                "DUKEL": "DUKEL",
                "IKISA": "IKISA AT OR BELOW 7000",
                "DOVMI": "DOVMI",
                "OVRUL": "OVRUL AT OR ABOVE 4000 SPEED 230"
            }
        }
    ],
    "approaches": [
        {
            "name": "NDBB13",
            "fixes": {
                "FF205": "FF205 1800",
                "SUNB": "SUNB 1160 RNW 13 TRK 090 UNTIL 3000 FAF FF205 MAP SU"
            },
            "transitions": [
                {
                    "name": "SU1",
                    "fixes": {
                        "SUNB": "SUNB AT OR ABOVE 3000 SPEED 180 TRK 045 UNTIL 6.0 FROM SUNB"
                    }
                },
                {
                    "name": "SU2",
                    "fixes": {
                        "SUNB": "SUNB AT OR ABOVE 3000 TRK 037 UNTIL 9.0 FROM SUNB"
                    }
                }
            ]
        },
        {
            "name": "NDBB31",
            "fixes": {
                "FF205": "FF205 1800",
                "SUNB": "SUNB 1160 RNW 31 TRK 090 UNTIL 3000 FAF FF205 MAP SU"
            },
            "transitions": [
                {
                    "name": "SU1",
                    "fixes": {
                        "SUNB": "SUNB AT OR ABOVE 3000 SPEED 180 TRK 045 UNTIL 6.0 FROM SUNB"
                    }
                },
                {
                    "name": "SU2",
                    "fixes": {
                        "SUNB": "SUNB AT OR ABOVE 3000 TRK 037 UNTIL 9.0 FROM SUNB"
                    }
                }
            ]
        },
        {
            "name": "RNAVW13",
            "fixes": {
                "OMDUN": "OMDUN 4100",
                "SU430": "SU430 3170",
                "RF001": "RF001",
                "RF002": "RF002",
                "RF003": "RF003",
                "SU440": "SU440 RNW 13",
                "SU450": "SU450",
                "SU460": "SU460 AT OR ABOVE 2000 FAF SU430 MAP RNW 13"
            },
            "transitions": []
        },
        {
            "name": "RNAVZ13",
            "fixes": {
                "BSZNI": "BSZNI AT OR ABOVE 3250",
                "BSZNF": "BSZNF 1660 RNW 13",
                "BSZNH": "BSZNH TRK 132 UNTIL 2000 FAF BSZNF MAP RNW 13"
            },
            "transitions": [
                {
                    "name": "OLTUD",
                    "fixes": {
                        "OLTUD": "OLTUD AT OR ABOVE 4100 SPEED 210"
                    }
                },
                {
                    "name": "UPLOT",
                    "fixes": {
                        "UPLOT": "UPLOT AT OR ABOVE 4100 SPEED 210"
                    }
                }
            ]
        },
        {
            "name": "RNAVW31",
            "fixes": {
                "SU630": "SU630 2500",
                "SU640": "SU640 1780 SPEED 165",
                "SU650": "SU650 RNW 31",
                "SU660": "SU660",
                "VISIB": "VISIB AT OR ABOVE 2800 FAF SU640 MAP RNW 31"
            },
            "transitions": [
                {
                    "name": "SAKAP",
                    "fixes": {
                        "SAKAP": "SAKAP AT OR ABOVE 4000"
                    }
                }
            ]
        },
        {
            "name": "RNAVX31",
            "fixes": {
                "SU630": "SU630 2500",
                "SU640": "SU640 1780 SPEED 165",
                "SU650": "SU650 RNW 31",
                "SU660": "SU660",
                "VISIB": "VISIB AT OR ABOVE 2800 FAF SU640 MAP RNW 31"
            },
            "transitions": [
                {
                    "name": "IKISA",
                    "fixes": {
                        "IKISA": "IKISA AT OR BELOW 7000 AT OR ABOVE 4000",
                        "SU615": "SU615 AT OR ABOVE 4000 SPEED 220",
                        "RF004": "RF004",
                        "RF005": "RF005",
                        "RF006": "RF006",
                        "RF007": "RF007",
                        "SU625": "SU625 AT OR ABOVE 4000"
                    }
                }
            ]
        },
        {
            "name": "RNAVY31",
            "fixes": {
                "BSZSI": "BSZSI AT OR ABOVE 3250",
                "BSZSF": "BSZSF 1660 RNW 31",
                "BSZSH": "BSZSH TRK 312 UNTIL 2800 FAF BSZSF MAP RNW 31"
            },
            "transitions": [
                {
                    "name": "BSZSC",
                    "fixes": {
                        "BSZSC": "BSZSC AT OR ABOVE 4000 SPEED 230"
                    }
                },
                {
                    "name": "OVRUL",
                    "fixes": {
                        "OVRUL": "OVRUL AT OR ABOVE 4000 SPEED 230"
                    }
                }
            ]
        },
        {
            "name": "RNAVZ31",
            "fixes": {
                "BSZSI": "BSZSI AT OR ABOVE 3250",
                "BSZSF": "BSZSF 1660",
                "BSZSM": "OVERFLY BSZSM 358 RNW 31",
                "BSZSH": "BSZSH TRK 312 UNTIL 2800 FAF BSZSF MAP BSZSM"
            },
            "transitions": [
                {
                    "name": "BSZSC",
                    "fixes": {
                        "BSZSC": "BSZSC AT OR ABOVE 4000 SPEED 230"
                    }
                },
                {
                    "name": "OVRUL",
                    "fixes": {
                        "OVRUL": "OVRUL AT OR ABOVE 4000 SPEED 230"
                    }
                }
            ]
        },
        {
            "name": "VORB13",
            "fixes": {
                "FV205": "FV205 1800",
                "SU": "SU 1160 RNW 13 TRK 090 UNTIL 3000 FAF FV205 MAP SU"
            },
            "transitions": [
                {
                    "name": "SU1",
                    "fixes": {
                        "SU": "SU AT OR ABOVE 3000 SPEED 180 TRK 045 UNTIL 6.0 FROM SU"
                    }
                },
                {
                    "name": "SU2",
                    "fixes": {
                        "SU": "SU AT OR ABOVE 3000 TRK 037 UNTIL 9.0 FROM SU"
                    }
                }
            ]
        },
        {
            "name": "VORB31",
            "fixes": {
                "FV205": "FV205 1800",
                "SU": "SU 1160 RNW 31 TRK 090 UNTIL 3000 FAF FV205 MAP SU"
            },
            "transitions": [
                {
                    "name": "SU1",
                    "fixes": {
                        "SU": "SU AT OR ABOVE 3000 SPEED 180 TRK 045 UNTIL 6.0 FROM SU"
                    }
                },
                {
                    "name": "SU2",
                    "fixes": {
                        "SU": "SU AT OR ABOVE 3000 TRK 037 UNTIL 9.0 FROM SU"
                    }
                }
            ]
        }
    ]
}