{
    "fixes": [
        {
            "name": "GRMED",
            "lat": 27.888563883333333,
            "lon": 123.94636666666666
        },
        {
            "name": "GRMEE",
            "lat": 27.929272216666668,
            "lon": 124.07125
        },
        {
            "name": "GRMEF",
            "lat": 27.999475,
            "lon": 123.90044166666667
        },
        {
            "name": "GRMEG",
            "lat": 28.040222216666667,
            "lon": 124.02543611666667
        },
        {
            "name": "GRMEH",
            "lat": 28.065702783333332,
            "lon": 123.73862221666667
        },
        {
            "name": "GRMEI",
            "lat": 27.9644,
            "lon": 123.985875
        },
        {
            "name": "GRMWA",
            "lat": 28.180625,
            "lon": 123.68238888333333
        },
        {
            "name": "GRMWB",
            "lat": 28.139563883333334,
            "lon": 123.55736111666667
        },
        {
            "name": "GRMWC",
            "lat": 28.028772216666667,
            "lon": 123.6037
        },
        {
            "name": "GRMWF",
            "lat": 28.069788883333334,
            "lon": 123.72861388333334
        },
        {
            "name": "GRMWH",
            "lat": 28.003666666666668,
            "lon": 123.89026388333333
        },
        {
            "name": "GRMWI",
            "lat": 28.104702783333334,
            "lon": 123.64301666666667
        }
    ],
    "rnws": [
        "RNW 06",
        "RNW 24"
    ],
    "sids": [],
    "stars": [],
    "approaches": [
        {
            "name": "RNAV06",
            "fixes": {
                "GRMWI": "GRMWI AT OR ABOVE 3000",
                "GRMWF": "GRMWF 3000 RNW 06",
                "GRMWH": "GRMWH TRK 063 UNTIL 3000 FAF GRMWF MAP RNW 06"
            },
            "transitions": [
                {
                    "name": "GRMWA",
                    "fixes": {
                        "GRMWA": "GRMWA AT OR ABOVE 3000"
                    }
                },
                {
                    "name": "GRMWB",
                    "fixes": {
                        "GRMWB": "GRMWB AT OR ABOVE 3000"
                    }
                },
                {
                    "name": "GRMWC",
                    "fixes": {
                        "GRMWC": "GRMWC AT OR ABOVE 3000"
                    }
                }
            ]
        },
        {
            "name": "RNAV24",
            "fixes": {
                "GRMEI": "GRMEI AT OR ABOVE 3000",
                "GRMEF": "GRMEF 3000 RNW 24",
                "GRMEH": "GRMEH TRK 243 UNTIL 3000 FAF GRMEF MAP RNW 24"
            },
            "transitions": [
                {
                    "name": "GRMED",
                    "fixes": {
                        "GRMED": "GRMED AT OR ABOVE 3000"
                    }
                },
                {
                    "name": "GRMEE",
                    "fixes": {
                        "GRMEE": "GRMEE AT OR ABOVE 3000"
                    }
                },
                {
                    "name": "GRMEG",
                    "fixes": {
                        "GRMEG": "GRMEG AT OR ABOVE 3000"
                    }
                }
            ]
        }
    ]
}