{
    "fixes": [
        {
            "name": "FF12",
            "lat": 20.759019433333332,
            "lon": 144.16123056666666
        },
        {
            "name": "HGDEA",
            "lat": 20.875258333333335,
            "lon": 144.44711388333334
        },
        {
            "name": "HGDEB",
            "lat": 20.971094433333334,
            "lon": 144.44224443333334
        },
        {
            "name": "HGDEC",
            "lat": 20.999544433333334,
            "lon": 144.34467778333334
        },
        {
            "name": "HGDEF",
            "lat": 20.868663883333333,
            "lon": 144.30149166666666
        },
        {
            "name": "HGDEH",
            "lat": 20.776377783333334,
            "lon": 144.17498056666668
        },
        {
            "name": "HGDEI",
            "lat": 20.919894433333333,
            "lon": 144.37184443333334
        },
        {
            "name": "HGDWD",
            "lat": 20.750155566666667,
            "lon": 144.00296388333334
        },
        {
            "name": "HGDWE",
            "lat": 20.654330566666665,
            "lon": 144.00810278333333
        },
        {
            "name": "HGDWF",
            "lat": 20.757002783333334,
            "lon": 144.14845833333334
        },
        {
            "name": "HGDWG",
            "lat": 20.626072216666667,
            "lon": 144.10551111666666
        },
        {
            "name": "HGDWH",
            "lat": 20.849311116666666,
            "lon": 144.27493888333333
        },
        {
            "name": "HGDWI",
            "lat": 20.705683333333333,
            "lon": 144.07825833333334
        },
        {
            "name": "HUGNB",
            "lat": 20.820622216666667,
            "lon": 144.22903611666666
        }
    ],
    "rnws": [
        "RNW 06",
        "RNW 12",
        "RNW 24",
        "RNW 30"
    ],
    "sids": [],
    "stars": [],
    "approaches": [
        {
            "name": "NDB12",
            "fixes": {
                "FF12": "FF12 2500 RNW 12",
                "HUGNB": "OVERFLY HUGNB TRK 127 UNTIL 3700 FAF FF12 MAP RNW 12"
            },
            "transitions": [
                {
                    "name": "HUG1",
                    "fixes": {
                        "HUGNB": "HUGNB AT OR ABOVE 3700 SPEED 210 TRK 340 UNTIL 5.3 FROM HUGNB"
                    }
                },
                {
                    "name": "HUG2",
                    "fixes": {
                        "HUGNB": "HUGNB AT OR ABOVE 3700 SPEED 140 TRK 321 UNTIL 5.8 FROM HUGNB"
                    }
                }
            ]
        },
        {
            "name": "RNAV12",
            "fixes": {
                "HGDWI": "HGDWI AT OR ABOVE 3700",
                "HGDWF": "HGDWF 2670 RNW 12",
                "HGDWH": "HGDWH TRK 121 UNTIL 3700 FAF HGDWF MAP RNW 12"
            },
            "transitions": [
                {
                    "name": "HGDWD",
                    "fixes": {
                        "HGDWD": "HGDWD AT OR ABOVE 3700 SPEED 210"
                    }
                },
                {
                    "name": "HGDWE",
                    "fixes": {
                        "HGDWE": "HGDWE AT OR ABOVE 3700 SPEED 210"
                    }
                },
                {
                    "name": "HGDWG",
                    "fixes": {
                        "HGDWG": "HGDWG AT OR ABOVE 3700 SPEED 210"
                    }
                }
            ]
        },
        {
            "name": "RNAV30",
            "fixes": {
                "HGDEI": "HGDEI AT OR ABOVE 3700",
                "HGDEF": "HGDEF 2680 RNW 30",
                "HGDEH": "HGDEH TRK 301 UNTIL 3700 FAF HGDEF MAP RNW 30"
            },
            "transitions": [
                {
                    "name": "HGDEA",
                    "fixes": {
                        "HGDEA": "HGDEA AT OR ABOVE 3700 SPEED 210"
                    }
                },
                {
                    "name": "HGDEB",
                    "fixes": {
                        "HGDEB": "HGDEB AT OR ABOVE 3700 SPEED 210"
                    }
                },
                {
                    "name": "HGDEC",
                    "fixes": {
                        "HGDEC": "HGDEC AT OR ABOVE 3700 SPEED 210"
                    }
                }
            ]
        }
    ]
}