{
    "fixes": [
        {
            "name": "FN160",
            "lat": 30.512438883333335,
            "lon": 138.41924721666666
        },
        {
            "name": "LECEA",
            "lat": 30.654097216666667,
            "lon": 138.69048611666668
        },
        {
            "name": "LECEB",
            "lat": 30.749897216666668,
            "lon": 138.692625
        },
        {
            "name": "LECEC",
            "lat": 30.784358333333333,
            "lon": 138.58909166666666
        },
        {
            "name": "LECEF",
            "lat": 30.656688883333334,
            "lon": 138.53219443333333
        },
        {
            "name": "LECEH",
            "lat": 30.544991666666668,
            "lon": 138.43458333333334
        },
        {
            "name": "LECEI",
            "lat": 30.703294433333333,
            "lon": 138.61238888333332
        },
        {
            "name": "LECEM",
            "lat": 30.610083333333332,
            "lon": 138.45203611666668
        },
        {
            "name": "LECNB",
            "lat": 30.598713883333332,
            "lon": 138.44225278333334
        },
        {
            "name": "LECWD",
            "lat": 30.479072216666665,
            "lon": 138.16268888333335
        },
        {
            "name": "LECWE",
            "lat": 30.385005566666667,
            "lon": 138.18375556666666
        },
        {
            "name": "LECWF",
            "lat": 30.505097216666666,
            "lon": 138.31778888333332
        },
        {
            "name": "LECWG",
            "lat": 30.369933333333332,
            "lon": 138.29289443333334
        },
        {
            "name": "LECWH",
            "lat": 30.625177783333335,
            "lon": 138.45199443333334
        },
        {
            "name": "LECWI",
            "lat": 30.445052783333335,
            "lon": 138.25075278333333
        },
        {
            "name": "LECWM",
            "lat": 30.589169433333332,
            "lon": 138.4117
        }
    ],
    "rnws": [
        "RNW 02",
        "RNW 11",
        "RNW 20",
        "RNW 29"
    ],
    "sids": [],
    "stars": [],
    "approaches": [
        {
            "name": "NDBA02",
            "fixes": {
                "FN160": "FN160 3100",
                "LECNB": "LECNB 1830 RNW 02 TRK 160 UNTIL 4800 FAF FN160 MAP LEC"
            },
            "transitions": [
                {
                    "name": "LEC1",
                    "fixes": {
                        "LECNB": "LECNB AT OR ABOVE 4800 SPEED 210 TRK 013 UNTIL 5.3 FROM LECNB"
                    }
                },
                {
                    "name": "LEC2",
                    "fixes": {
                        "LECNB": "LECNB AT OR ABOVE 4800 TRK 354 UNTIL 7.5 FROM LECNB"
                    }
                }
            ]
        },
        {
            "name": "NDBA11",
            "fixes": {
                "FN160": "FN160 3100",
                "LECNB": "LECNB 1830 RNW 11 TRK 160 UNTIL 4800 FAF FN160 MAP LEC"
            },
            "transitions": [
                {
                    "name": "LEC1",
                    "fixes": {
                        "LECNB": "LECNB AT OR ABOVE 4800 SPEED 210 TRK 013 UNTIL 5.3 FROM LECNB"
                    }
                },
                {
                    "name": "LEC2",
                    "fixes": {
                        "LECNB": "LECNB AT OR ABOVE 4800 TRK 354 UNTIL 7.5 FROM LECNB"
                    }
                }
            ]
        },
        {
            "name": "NDBA20",
            "fixes": {
                "FN160": "FN160 3100",
                "LECNB": "LECNB 1830 RNW 20 TRK 160 UNTIL 4800 FAF FN160 MAP LEC"
            },
            "transitions": [
                {
                    "name": "LEC1",
                    "fixes": {
                        "LECNB": "LECNB AT OR ABOVE 4800 SPEED 210 TRK 013 UNTIL 5.3 FROM LECNB"
                    }
                },
                {
                    "name": "LEC2",
                    "fixes": {
                        "LECNB": "LECNB AT OR ABOVE 4800 TRK 354 UNTIL 7.5 FROM LECNB"
                    }
                }
            ]
        },
        {
            "name": "NDBA29",
            "fixes": {
                "FN160": "FN160 3100",
                "LECNB": "LECNB 1830 RNW 29 TRK 160 UNTIL 4800 FAF FN160 MAP LEC"
            },
            "transitions": [
                {
                    "name": "LEC1",
                    "fixes": {
                        "LECNB": "LECNB AT OR ABOVE 4800 SPEED 210 TRK 013 UNTIL 5.3 FROM LECNB"
                    }
                },
                {
                    "name": "LEC2",
                    "fixes": {
                        "LECNB": "LECNB AT OR ABOVE 4800 TRK 354 UNTIL 7.5 FROM LECNB"
                    }
                }
            ]
        },
        {
            "name": "RNAV11",
            "fixes": {
                "LECWI": "LECWI AT OR ABOVE 4800",
                "LECWF": "LECWF 3370",
                "LECWM": "OVERFLY LECWM 1138 RNW 11",
                "LECWH": "OVERFLY LECWH HDG 330 VECTORS FAF LECWF MAP LECWM"
            },
            "transitions": [
                {
                    "name": "LECWD",
                    "fixes": {
                        "LECWD": "LECWD AT OR ABOVE 4800 SPEED 210"
                    }
                },
                {
                    "name": "LECWE",
                    "fixes": {
                        "LECWE": "LECWE AT OR ABOVE 4800 SPEED 210"
                    }
                },
                {
                    "name": "LECWG",
                    "fixes": {
                        "LECWG": "LECWG AT OR ABOVE 4800 SPEED 210"
                    }
                }
            ]
        },
        {
            "name": "RNAV29",
            "fixes": {
                "LECEI": "LECEI AT OR ABOVE 4330",
                "LECEF": "LECEF 2730",
                "LECEM": "OVERFLY LECEM 1141 RNW 29 TRK 297 UNTIL 1360 TURN RIGHT DIRECT",
                "LECEH": "LECEH HDG 000 VECTORS FAF LECEF MAP LECEM"
            },
            "transitions": [
                {
                    "name": "LECEA",
                    "fixes": {
                        "LECEA": "LECEA AT OR ABOVE 4800 SPEED 210"
                    }
                },
                {
                    "name": "LECEB",
                    "fixes": {
                        "LECEB": "LECEB AT OR ABOVE 4800 SPEED 210"
                    }
                },
                {
                    "name": "LECEC",
                    "fixes": {
                        "LECEC": "LECEC AT OR ABOVE 4800 SPEED 210"
                    }
                }
            ]
        }
    ]
}