{
    "fixes": [
        {
            "name": "OAGED",
            "lat": 33.43848611666667,
            "lon": 149.38709721666666
        },
        {
            "name": "OAGEE",
            "lat": 33.53414721666667,
            "lon": 149.38625833333333
        },
        {
            "name": "OAGEF",
            "lat": 33.43737221666667,
            "lon": 149.22386666666668
        },
        {
            "name": "OAGEG",
            "lat": 33.56623056666667,
            "lon": 149.27834443333333
        },
        {
            "name": "OAGEH",
            "lat": 33.32934721666667,
            "lon": 149.07213611666666
        },
        {
            "name": "OAGEI",
            "lat": 33.48578611666667,
            "lon": 149.30501666666666
        },
        {
            "name": "OAGWA",
            "lat": 33.305202783333336,
            "lon": 148.84289166666667
        },
        {
            "name": "OAGWB",
            "lat": 33.20943056666667,
            "lon": 148.84424166666668
        },
        {
            "name": "OAGWC",
            "lat": 33.177694433333336,
            "lon": 148.95172221666667
        },
        {
            "name": "OAGWF",
            "lat": 33.316433333333336,
            "lon": 149.02195278333335
        },
        {
            "name": "OAGWH",
            "lat": 33.40379166666666,
            "lon": 149.16767778333335
        },
        {
            "name": "OAGWI",
            "lat": 33.2581,
            "lon": 148.92496666666668
        }
    ],
    "rnws": [
        "RNW 04",
        "RNW 11",
        "RNW 22",
        "RNW 29"
    ],
    "sids": [],
    "stars": [],
    "approaches": [
        {
            "name": "RNAVZ11",
            "fixes": {
                "OAGWI": "OAGWI AT OR ABOVE 6100",
                "OAGWF": "OAGWF 5060 RNW 11",
                "OAGWH": "OAGWH TRK 114 UNTIL 5200 FAF OAGWF MAP RNW 11"
            },
            "transitions": [
                {
                    "name": "OAGWA",
                    "fixes": {
                        "OAGWA": "OAGWA AT OR ABOVE 6100 SPEED 210"
                    }
                },
                {
                    "name": "OAGWB",
                    "fixes": {
                        "OAGWB": "OAGWB AT OR ABOVE 6100 SPEED 210"
                    }
                },
                {
                    "name": "OAGWC",
                    "fixes": {
                        "OAGWC": "OAGWC AT OR ABOVE 6100 SPEED 210"
                    }
                }
            ]
        },
        {
            "name": "RNAVZ29",
            "fixes": {
                "OAGEI": "OAGEI AT OR ABOVE 5200",
                "OAGEF": "OAGEF 4840 RNW 29",
                "OAGEH": "OAGEH TRK 308 UNTIL 6100 FAF OAGEF MAP RNW 29"
            },
            "transitions": [
                {
                    "name": "OAGED",
                    "fixes": {
                        "OAGED": "OAGED AT OR ABOVE 5200 SPEED 210"
                    }
                },
                {
                    "name": "OAGEE",
                    "fixes": {
                        "OAGEE": "OAGEE AT OR ABOVE 5200 SPEED 210"
                    }
                },
                {
                    "name": "OAGEG",
                    "fixes": {
                        "OAGEG": "OAGEG AT OR ABOVE 5200 SPEED 210"
                    }
                }
            ]
        }
    ]
}