{
    "fixes": [
        {
            "name": "30VOR",
            "lat": 15.802072216666666,
            "lon": 128.7527
        },
        {
            "name": "AF001",
            "lat": 15.672057616666667,
            "lon": 128.84450606666667
        },
        {
            "name": "AF002",
            "lat": 15.6980308,
            "lon": 128.86205188333332
        },
        {
            "name": "AF003",
            "lat": 15.761602866666667,
            "lon": 128.88130558333333
        },
        {
            "name": "AF004",
            "lat": 15.797159233333334,
            "lon": 128.88044891666667
        },
        {
            "name": "AF005",
            "lat": 15.831730916666666,
            "lon": 128.87176975
        },
        {
            "name": "AF006",
            "lat": 15.932327033333333,
            "lon": 128.76729145
        },
        {
            "name": "AF007",
            "lat": 15.916017616666666,
            "lon": 128.80184183333333
        },
        {
            "name": "AF008",
            "lat": 15.892773366666667,
            "lon": 128.83179056666665
        },
        {
            "name": "CD30",
            "lat": 15.837530566666667,
            "lon": 128.81135556666666
        },
        {
            "name": "D038J",
            "lat": 15.649127783333334,
            "lon": 128.82204443333333
        },
        {
            "name": "D070J",
            "lat": 15.726475,
            "lon": 128.87396666666666
        },
        {
            "name": "D119J",
            "lat": 15.864111116666667,
            "lon": 128.85536111666667
        },
        {
            "name": "D170J",
            "lat": 15.941588883333333,
            "lon": 128.72980278333333
        },
        {
            "name": "FD30",
            "lat": 15.819802783333333,
            "lon": 128.782025
        },
        {
            "name": "FF190",
            "lat": 15.689038883333334,
            "lon": 128.72931943333333
        },
        {
            "name": "FN190",
            "lat": 15.697455566666667,
            "lon": 128.72448611666667
        },
        {
            "name": "KNXEA",
            "lat": 15.810622216666667,
            "lon": 128.93260833333332
        },
        {
            "name": "KNXEB",
            "lat": 15.906194433333333,
            "lon": 128.94191666666666
        },
        {
            "name": "KNXEC",
            "lat": 15.947333333333333,
            "lon": 128.85228056666668
        },
        {
            "name": "KNXEF",
            "lat": 15.823441666666668,
            "lon": 128.79161943333332
        },
        {
            "name": "KNXEH",
            "lat": 15.723152783333333,
            "lon": 128.65506388333333
        },
        {
            "name": "KNXEI",
            "lat": 15.864833333333333,
            "lon": 128.86675278333334
        },
        {
            "name": "KNXWD",
            "lat": 15.745019433333333,
            "lon": 128.48566666666667
        },
        {
            "name": "KNXWE",
            "lat": 15.649427783333334,
            "lon": 128.47657778333334
        },
        {
            "name": "KNXWF",
            "lat": 15.732397216666667,
            "lon": 128.62661943333333
        },
        {
            "name": "KNXWG",
            "lat": 15.608441666666666,
            "lon": 128.56616111666668
        },
        {
            "name": "KNXWH",
            "lat": 15.7987,
            "lon": 128.74674166666668
        },
        {
            "name": "KNXWI",
            "lat": 15.690925,
            "lon": 128.55158333333333
        },
        {
            "name": "KU",
            "lat": 15.775472216666667,
            "lon": 128.70872221666667
        },
        {
            "name": "KUNB",
            "lat": 15.783888883333333,
            "lon": 128.70388888333332
        }
    ],
    "rnws": [
        "RNW 12",
        "RNW 30"
    ],
    "sids": [],
    "stars": [],
    "approaches": [
        {
            "name": "VORD30",
            "fixes": {
                "CD30": "CD30 AT OR ABOVE 2510",
                "FD30": "FD30 1790",
                "30VOR": "30VOR AT OR ABOVE 1070 RNW 30",
                "KU": "OVERFLY KU AT OR ABOVE 650 HDG 020 VECTORS FAF FD30 MAP RNW 30"
            },
            "transitions": [
                {
                    "name": "D038J",
                    "fixes": {
                        "D038J": "D038J SPEED 210",
                        "AF001": "AF001",
                        "AF002": "AF002",
                        "D070J": "D070J AT OR ABOVE 2600",
                        "AF003": "AF003",
                        "AF004": "AF004",
                        "AF005": "AF005",
                        "D119J": "D119J AT OR ABOVE 2600"
                    }
                },
                {
                    "name": "D119J",
                    "fixes": {
                        "D119J": "D119J AT OR ABOVE 2600 SPEED 210"
                    }
                },
                {
                    "name": "D170J",
                    "fixes": {
                        "D170J": "D170J AT OR ABOVE 3100 SPEED 210",
                        "AF006": "AF006",
                        "AF007": "AF007",
                        "AF008": "AF008",
                        "D119J": "D119J AT OR ABOVE 3100"
                    }
                },
                {
                    "name": "KU1",
                    "fixes": {
                        "KU": "KU AT OR ABOVE 3100 SPEED 210 TRK 093 UNTIL 7.0 FROM KU"
                    }
                },
                {
                    "name": "KU2",
                    "fixes": {
                        "KU": "KU AT OR ABOVE 3100 SPEED 210 TRK 106 UNTIL 7.0 FROM KU"
                    }
                }
            ]
        },
        {
            "name": "NDBA12",
            "fixes": {
                "FN190": "FN190 2200",
                "KUNB": "KUNB 1250 RNW 12 TRK 140 UNTIL 3100 FAF FN190 MAP KU"
            },
            "transitions": [
                {
                    "name": "KU1",
                    "fixes": {
                        "KUNB": "KUNB AT OR ABOVE 3100 SPEED 210 TRK 042 UNTIL 5.3 FROM KUNB"
                    }
                },
                {
                    "name": "KU2",
                    "fixes": {
                        "KUNB": "KUNB AT OR ABOVE 3100 SPEED 210 TRK 028 UNTIL 6.0 FROM KUNB"
                    }
                }
            ]
        },
        {
            "name": "NDBA30",
            "fixes": {
                "FN190": "FN190 2200",
                "KUNB": "KUNB 1250 RNW 30 TRK 140 UNTIL 3100 FAF FN190 MAP KU"
            },
            "transitions": [
                {
                    "name": "KU1",
                    "fixes": {
                        "KUNB": "KUNB AT OR ABOVE 3100 SPEED 210 TRK 042 UNTIL 5.3 FROM KUNB"
                    }
                },
                {
                    "name": "KU2",
                    "fixes": {
                        "KUNB": "KUNB AT OR ABOVE 3100 SPEED 210 TRK 028 UNTIL 6.0 FROM KUNB"
                    }
                }
            ]
        },
        {
            "name": "RNAV12",
            "fixes": {
                "KNXWI": "KNXWI AT OR ABOVE 3100",
                "KNXWF": "KNXWF 1780 RNW 12",
                "KNXWH": "KNXWH TRK 117 UNTIL 3100 FAF KNXWF MAP RNW 12"
            },
            "transitions": [
                {
                    "name": "KNXWD",
                    "fixes": {
                        "KNXWD": "KNXWD AT OR ABOVE 3100 SPEED 210"
                    }
                },
                {
                    "name": "KNXWE",
                    "fixes": {
                        "KNXWE": "KNXWE AT OR ABOVE 3100 SPEED 210"
                    }
                },
                {
                    "name": "KNXWG",
                    "fixes": {
                        "KNXWG": "KNXWG AT OR ABOVE 3100 SPEED 210"
                    }
                }
            ]
        },
        {
            "name": "RNAV30",
            "fixes": {
                "KNXEI": "KNXEI AT OR ABOVE 3100",
                "KNXEF": "KNXEF 1790 RNW 30 TRK 297 UNTIL 650",
                "KNXEH": "OVERFLY KNXEH SPEED 200 HDG 320 VECTORS FAF KNXEF MAP RNW 30"
            },
            "transitions": [
                {
                    "name": "KNXEA",
                    "fixes": {
                        "KNXEA": "KNXEA AT OR ABOVE 3100 SPEED 210"
                    }
                },
                {
                    "name": "KNXEB",
                    "fixes": {
                        "KNXEB": "KNXEB AT OR ABOVE 3100 SPEED 210"
                    }
                },
                {
                    "name": "KNXEC",
                    "fixes": {
                        "KNXEC": "KNXEC AT OR ABOVE 3100 SPEED 210"
                    }
                }
            ]
        },
        {
            "name": "VORA12",
            "fixes": {
                "FF190": "FF190 2200",
                "KU": "KU 1250 RNW 12 TRK 140 UNTIL 3100 FAF FF190 MAP KU"
            },
            "transitions": [
                {
                    "name": "KU1",
                    "fixes": {
                        "KU": "KU AT OR ABOVE 3100 SPEED 210 TRK 042 UNTIL 5.3 FROM KU"
                    }
                },
                {
                    "name": "KU2",
                    "fixes": {
                        "KU": "KU AT OR ABOVE 3100 SPEED 210 TRK 028 UNTIL 6.0 FROM KU"
                    }
                }
            ]
        },
        {
            "name": "VORA30",
            "fixes": {
                "FF190": "FF190 2200",
                "KU": "KU 1250 RNW 30 TRK 140 UNTIL 3100 FAF FF190 MAP KU"
            },
            "transitions": [
                {
                    "name": "KU1",
                    "fixes": {
                        "KU": "KU AT OR ABOVE 3100 SPEED 210 TRK 042 UNTIL 5.3 FROM KU"
                    }
                },
                {
                    "name": "KU2",
                    "fixes": {
                        "KU": "KU AT OR ABOVE 3100 SPEED 210 TRK 028 UNTIL 6.0 FROM KU"
                    }
                }
            ]
        }
    ]
}