{
    "fixes": [
        {
            "name": "AF001",
            "lat": 10.553083083333334,
            "lon": 105.77685001666667
        },
        {
            "name": "AF002",
            "lat": 10.571171866666667,
            "lon": 105.74152206666666
        },
        {
            "name": "AF003",
            "lat": 10.556720466666667,
            "lon": 105.60735081666667
        },
        {
            "name": "AF004",
            "lat": 10.571171866666667,
            "lon": 105.6371446
        },
        {
            "name": "AF005",
            "lat": 10.578938333333333,
            "lon": 105.66941588333333
        },
        {
            "name": "AF006",
            "lat": 10.333893416666667,
            "lon": 105.78305528333334
        },
        {
            "name": "AF007",
            "lat": 10.31194805,
            "lon": 105.75191053333333
        },
        {
            "name": "AF008",
            "lat": 10.299449766666667,
            "lon": 105.71577135
        },
        {
            "name": "AF009",
            "lat": 10.330735283333333,
            "lon": 105.59908615
        },
        {
            "name": "AF010",
            "lat": 10.3141679,
            "lon": 105.62259851666667
        },
        {
            "name": "AF011",
            "lat": 10.302883733333333,
            "lon": 105.64914651666666
        },
        {
            "name": "D060H",
            "lat": 10.363280566666667,
            "lon": 105.80660556666666
        },
        {
            "name": "D130I",
            "lat": 10.527055566666666,
            "lon": 105.80599166666667
        },
        {
            "name": "D175I",
            "lat": 10.580322216666668,
            "lon": 105.70261388333333
        },
        {
            "name": "D225I",
            "lat": 10.536752783333334,
            "lon": 105.58165833333334
        },
        {
            "name": "D306H",
            "lat": 10.351525,
            "lon": 105.57999721666667
        },
        {
            "name": "D355H",
            "lat": 10.296836116666666,
            "lon": 105.67765556666667
        },
        {
            "name": "FF18",
            "lat": 10.370227783333334,
            "lon": 105.68413611666666
        },
        {
            "name": "FF36",
            "lat": 10.535286116666667,
            "lon": 105.69863056666667
        },
        {
            "name": "FS36",
            "lat": 10.526958333333333,
            "lon": 105.69789443333333
        },
        {
            "name": "MA36",
            "lat": 10.4719,
            "lon": 105.693025
        },
        {
            "name": "XCHND",
            "lat": 10.251780566666667,
            "lon": 105.59488611666667
        },
        {
            "name": "XCHNE",
            "lat": 10.190466666666667,
            "lon": 105.66950833333334
        },
        {
            "name": "XCHNF",
            "lat": 10.377369433333334,
            "lon": 105.68496666666667
        },
        {
            "name": "XCHNG",
            "lat": 10.238933333333334,
            "lon": 105.75320833333333
        },
        {
            "name": "XCHNH",
            "lat": 10.490844433333333,
            "lon": 105.69436943333334
        },
        {
            "name": "XCHNI",
            "lat": 10.273905566666667,
            "lon": 105.67640833333333
        },
        {
            "name": "XCHSA",
            "lat": 10.653202783333333,
            "lon": 105.78762778333333
        },
        {
            "name": "XCHSB",
            "lat": 10.714544433333334,
            "lon": 105.71291943333334
        },
        {
            "name": "XCHSC",
            "lat": 10.666069433333334,
            "lon": 105.62909721666666
        },
        {
            "name": "XCHSF",
            "lat": 10.535191666666666,
            "lon": 105.69804721666667
        },
        {
            "name": "XCHSH",
            "lat": 10.414172216666667,
            "lon": 105.68801943333334
        },
        {
            "name": "XCHSI",
            "lat": 10.631108333333334,
            "lon": 105.70599721666666
        },
        {
            "name": "XCHSM",
            "lat": 10.464233333333333,
            "lon": 105.69216666666667
        },
        {
            "name": "XMX",
            "lat": 10.430222216666667,
            "lon": 105.68933333333334
        }
    ],
    "rnws": [
        "RNW 18",
        "RNW 36"
    ],
    "sids": [],
    "stars": [],
    "approaches": [
        {
            "name": "VORDZ36",
            "fixes": {
                "FF36": "FF36 2300",
                "MA36": "MA36 1090 RNW 36 TRK 355 UNTIL 2400 FAF FF36 MAP MA36"
            },
            "transitions": [
                {
                    "name": "D130I",
                    "fixes": {
                        "D130I": "D130I AT OR ABOVE 2400 SPEED 210",
                        "AF001": "AF001",
                        "AF002": "AF002",
                        "D175I": "D175I AT OR ABOVE 2300"
                    }
                },
                {
                    "name": "D175I",
                    "fixes": {
                        "D175I": "D175I AT OR ABOVE 2400 SPEED 210"
                    }
                },
                {
                    "name": "D225I",
                    "fixes": {
                        "D225I": "D225I AT OR ABOVE 2400 SPEED 210",
                        "AF003": "AF003",
                        "AF004": "AF004",
                        "AF005": "AF005",
                        "D175I": "D175I AT OR ABOVE 2300"
                    }
                },
                {
                    "name": "XMX1",
                    "fixes": {
                        "XMX": "XMX AT OR ABOVE 2400 SPEED 210 TRK 149 UNTIL 7.0 FROM XMX SPEED 210"
                    }
                },
                {
                    "name": "XMX2",
                    "fixes": {
                        "XMX": "XMX AT OR ABOVE 2400 SPEED 140 TRK 162 UNTIL 7.0 FROM XMX SPEED 140"
                    }
                }
            ]
        },
        {
            "name": "RNAV18",
            "fixes": {
                "XCHNI": "XCHNI AT OR ABOVE 2400",
                "XCHNF": "XCHNF 2250 RNW 18",
                "XCHNH": "OVERFLY XCHNH HDG 020 VECTORS FAF XCHNF MAP RNW 18"
            },
            "transitions": [
                {
                    "name": "XCHND",
                    "fixes": {
                        "XCHND": "XCHND AT OR ABOVE 2400 SPEED 210"
                    }
                },
                {
                    "name": "XCHNE",
                    "fixes": {
                        "XCHNE": "XCHNE AT OR ABOVE 2400 SPEED 210"
                    }
                },
                {
                    "name": "XCHNG",
                    "fixes": {
                        "XCHNG": "XCHNG AT OR ABOVE 2400 SPEED 210"
                    }
                }
            ]
        },
        {
            "name": "RNAV36",
            "fixes": {
                "XCHSI": "XCHSI AT OR ABOVE 2400",
                "XCHSF": "XCHSF 2300",
                "XCHSM": "OVERFLY XCHSM 944 RNW 36",
                "XCHSH": "OVERFLY XCHSH HDG 160 VECTORS FAF XCHSF MAP XCHSM"
            },
            "transitions": [
                {
                    "name": "XCHSA",
                    "fixes": {
                        "XCHSA": "XCHSA AT OR ABOVE 2400 SPEED 210"
                    }
                },
                {
                    "name": "XCHSB",
                    "fixes": {
                        "XCHSB": "XCHSB AT OR ABOVE 2400 SPEED 210"
                    }
                },
                {
                    "name": "XCHSC",
                    "fixes": {
                        "XCHSC": "XCHSC AT OR ABOVE 2400 SPEED 210"
                    }
                }
            ]
        },
        {
            "name": "VOR18",
            "fixes": {
                "FF18": "FF18 2400",
                "XMX": "XMX 1176 RNW 18 TRK 175 UNTIL 2400 FAF FF18 MAP XMX"
            },
            "transitions": [
                {
                    "name": "D060H",
                    "fixes": {
                        "D060H": "D060H AT OR ABOVE 2400 SPEED 210",
                        "AF006": "AF006",
                        "AF007": "AF007",
                        "AF008": "AF008",
                        "D355H": "D355H AT OR ABOVE 2400"
                    }
                },
                {
                    "name": "D306H",
                    "fixes": {
                        "D306H": "D306H AT OR ABOVE 2400 SPEED 210",
                        "AF009": "AF009",
                        "AF010": "AF010",
                        "AF011": "AF011",
                        "D355H": "D355H AT OR ABOVE 2400"
                    }
                },
                {
                    "name": "D355H",
                    "fixes": {
                        "D355H": "D355H AT OR ABOVE 2400 SPEED 210"
                    }
                },
                {
                    "name": "XMX1",
                    "fixes": {
                        "XMX": "XMX AT OR ABOVE 2400 SPEED 210 TRK 019 UNTIL 7.0 FROM XMX"
                    }
                },
                {
                    "name": "XMX2",
                    "fixes": {
                        "XMX": "XMX AT OR ABOVE 2400 SPEED 210 TRK 010 UNTIL 7.5 FROM XMX"
                    }
                }
            ]
        },
        {
            "name": "VORY36",
            "fixes": {
                "FS36": "FS36 2300 RNW 36",
                "XMX": "OVERFLY XMX TRK 355 UNTIL 2400 FAF FS36 MAP RNW 36"
            },
            "transitions": [
                {
                    "name": "XMX1",
                    "fixes": {
                        "XMX": "XMX AT OR ABOVE 2400 SPEED 210 TRK 151 UNTIL 7.0 FROM XMX"
                    }
                },
                {
                    "name": "XMX2",
                    "fixes": {
                        "XMX": "XMX AT OR ABOVE 2400 SPEED 140 TRK 160 UNTIL 5.8 FROM XMX"
                    }
                }
            ]
        }
    ]
}