{
    "fixes": [
        {
            "name": "RTIEA",
            "lat": 31.944438883333333,
            "lon": 115.7163
        },
        {
            "name": "RTIEB",
            "lat": 32.00737778333333,
            "lon": 115.74783888333333
        },
        {
            "name": "RTIEC",
            "lat": 32.06999166666667,
            "lon": 115.7154
        },
        {
            "name": "RTIEF",
            "lat": 32.006672216666665,
            "lon": 115.61063333333334
        },
        {
            "name": "RTIEH",
            "lat": 32.005916666666664,
            "lon": 115.47343333333333
        },
        {
            "name": "RTIEI",
            "lat": 32.007072216666664,
            "lon": 115.68903611666667
        },
        {
            "name": "RTIEM",
            "lat": 32.006366666666665,
            "lon": 115.55183333333333
        },
        {
            "name": "RTIWD",
            "lat": 32.08326111666667,
            "lon": 115.30252221666667
        },
        {
            "name": "RTIWE",
            "lat": 32.0043,
            "lon": 115.23883888333333
        },
        {
            "name": "RTIWF",
            "lat": 32.00568333333333,
            "lon": 115.43483611666667
        },
        {
            "name": "RTIWG",
            "lat": 31.926319433333333,
            "lon": 115.30410833333333
        },
        {
            "name": "RTIWH",
            "lat": 32.05126666666666,
            "lon": 115.48090556666666
        },
        {
            "name": "RTIWI",
            "lat": 32.00503056666667,
            "lon": 115.33683611666666
        }
    ],
    "rnws": [
        "RNW 09",
        "RNW 27"
    ],
    "sids": [],
    "stars": [],
    "approaches": [
        {
            "name": "RNAV09",
            "fixes": {
                "RTIWI": "RTIWI AT OR ABOVE 1800",
                "RTIWF": "RTIWF 1650 RNW 09 TURN RIGHT DIRECT",
                "RTIWH": "RTIWH HDG 272 VECTORS FAF RTIWF MAP RNW 09"
            },
            "transitions": [
                {
                    "name": "RTIWD",
                    "fixes": {
                        "RTIWD": "RTIWD AT OR ABOVE 1800"
                    }
                },
                {
                    "name": "RTIWE",
                    "fixes": {
                        "RTIWE": "RTIWE AT OR ABOVE 1800"
                    }
                },
                {
                    "name": "RTIWG",
                    "fixes": {
                        "RTIWG": "RTIWG AT OR ABOVE 1800"
                    }
                }
            ]
        },
        {
            "name": "RNAVE09",
            "fixes": {
                "RTIEI": "RTIEI AT OR ABOVE 2400",
                "RTIEF": "RTIEF 1130",
                "RTIEM": "OVERFLY RTIEM 173 RNW 09",
                "RTIEH": "OVERFLY RTIEH HDG 090 VECTORS FAF RTIEF MAP RTIEM"
            },
            "transitions": [
                {
                    "name": "RTIEA",
                    "fixes": {
                        "RTIEA": "RTIEA AT OR ABOVE 2900"
                    }
                },
                {
                    "name": "RTIEB",
                    "fixes": {
                        "RTIEB": "RTIEB AT OR ABOVE 2900"
                    }
                },
                {
                    "name": "RTIEC",
                    "fixes": {
                        "RTIEC": "RTIEC AT OR ABOVE 2900"
                    }
                }
            ]
        },
        {
            "name": "RNAVE27",
            "fixes": {
                "RTIEI": "RTIEI AT OR ABOVE 2400",
                "RTIEF": "RTIEF 1130",
                "RTIEM": "OVERFLY RTIEM 173 RNW 27",
                "RTIEH": "OVERFLY RTIEH HDG 090 VECTORS FAF RTIEF MAP RTIEM"
            },
            "transitions": [
                {
                    "name": "RTIEA",
                    "fixes": {
                        "RTIEA": "RTIEA AT OR ABOVE 2900"
                    }
                },
                {
                    "name": "RTIEB",
                    "fixes": {
                        "RTIEB": "RTIEB AT OR ABOVE 2900"
                    }
                },
                {
                    "name": "RTIEC",
                    "fixes": {
                        "RTIEC": "RTIEC AT OR ABOVE 2900"
                    }
                }
            ]
        }
    ]
}