{
    "fixes": [
        {
            "name": "TGTED",
            "lat": 20.570697216666666,
            "lon": 130.58393333333333
        },
        {
            "name": "TGTEE",
            "lat": 20.6656,
            "lon": 130.59894721666666
        },
        {
            "name": "TGTEF",
            "lat": 20.590855566666665,
            "lon": 130.43998056666666
        },
        {
            "name": "TGTEG",
            "lat": 20.711319433333333,
            "lon": 130.50930833333334
        },
        {
            "name": "TGTEH",
            "lat": 20.523558333333334,
            "lon": 130.29699166666666
        },
        {
            "name": "TGTEI",
            "lat": 20.628227783333333,
            "lon": 130.51945556666666
        },
        {
            "name": "TGTWA",
            "lat": 20.524572216666666,
            "lon": 130.11286666666666
        },
        {
            "name": "TGTWB",
            "lat": 20.429638883333332,
            "lon": 130.09806943333334
        },
        {
            "name": "TGTWC",
            "lat": 20.384047216666666,
            "lon": 130.18762221666665
        },
        {
            "name": "TGTWF",
            "lat": 20.504591666666666,
            "lon": 130.25676388333332
        },
        {
            "name": "TGTWH",
            "lat": 20.56445,
            "lon": 130.38383056666666
        },
        {
            "name": "TGTWI",
            "lat": 20.467133333333333,
            "lon": 130.17739721666666
        },
        {
            "name": "TGTWM",
            "lat": 20.542013883333333,
            "lon": 130.33616943333334
        }
    ],
    "rnws": [
        "RNW 11",
        "RNW 29"
    ],
    "sids": [],
    "stars": [],
    "approaches": [
        {
            "name": "RNAV11",
            "fixes": {
                "TGTWI": "TGTWI AT OR ABOVE 3000",
                "TGTWF": "TGTWF 3000",
                "TGTWM": "OVERFLY TGTWM 1416 RNW 11",
                "TGTWH": "OVERFLY TGTWH HDG 270 VECTORS FAF TGTWF MAP TGTWM"
            },
            "transitions": [
                {
                    "name": "TGTWA",
                    "fixes": {
                        "TGTWA": "TGTWA AT OR ABOVE 3000 SPEED 210"
                    }
                },
                {
                    "name": "TGTWB",
                    "fixes": {
                        "TGTWB": "TGTWB AT OR ABOVE 3000 SPEED 210"
                    }
                },
                {
                    "name": "TGTWC",
                    "fixes": {
                        "TGTWC": "TGTWC AT OR ABOVE 3000 SPEED 210"
                    }
                }
            ]
        },
        {
            "name": "RNAV29",
            "fixes": {
                "TGTEI": "TGTEI AT OR ABOVE 3000",
                "TGTEF": "TGTEF 2940 RNW 29",
                "TGTEH": "TGTEH TRK 293 UNTIL 2600 FAF TGTEF MAP RNW 29"
            },
            "transitions": [
                {
                    "name": "TGTED",
                    "fixes": {
                        "TGTED": "TGTED AT OR ABOVE 3000 SPEED 210"
                    }
                },
                {
                    "name": "TGTEE",
                    "fixes": {
                        "TGTEE": "TGTEE AT OR ABOVE 3000 SPEED 210"
                    }
                },
                {
                    "name": "TGTEG",
                    "fixes": {
                        "TGTEG": "TGTEG AT OR ABOVE 3000 SPEED 210"
                    }
                }
            ]
        }
    ]
}