{
    "fixes": [
        {
            "name": "TMUSA",
            "lat": 35.50797778333333,
            "lon": 148.14664443333334
        },
        {
            "name": "TMUSB",
            "lat": 35.573622216666664,
            "lon": 148.19492221666667
        },
        {
            "name": "TMUSC",
            "lat": 35.558936116666665,
            "lon": 148.28693056666665
        },
        {
            "name": "TMUSF",
            "lat": 35.451594433333334,
            "lon": 148.26126388333333
        },
        {
            "name": "TMUSI",
            "lat": 35.51260833333333,
            "lon": 148.22810833333332
        },
        {
            "name": "TMUSM",
            "lat": 35.2856,
            "lon": 148.23977778333332
        },
        {
            "name": "TMUST",
            "lat": 35.15013056666667,
            "lon": 148.14128611666666
        }
    ],
    "rnws": [
        "RNW 17",
        "RNW 35"
    ],
    "sids": [],
    "stars": [],
    "approaches": [
        {
            "name": "RNAVS17",
            "fixes": {
                "TMUSI": "TMUSI AT OR ABOVE 6240",
                "TMUSF": "TMUSF 4800",
                "TMUSM": "OVERFLY TMUSM 1184 RNW 17",
                "TMUST": "OVERFLY TMUST TURN LEFT DIRECT",
                "TMUSA": "TMUSA AT OR ABOVE 6900 FAF TMUSF MAP TMUSM"
            },
            "transitions": [
                {
                    "name": "TMUSA",
                    "fixes": {
                        "TMUSA": "TMUSA AT OR ABOVE 6900"
                    }
                },
                {
                    "name": "TMUSB",
                    "fixes": {
                        "TMUSB": "TMUSB AT OR ABOVE 6900"
                    }
                },
                {
                    "name": "TMUSC",
                    "fixes": {
                        "TMUSC": "TMUSC AT OR ABOVE 6900"
                    }
                }
            ]
        },
        {
            "name": "RNAVS35",
            "fixes": {
                "TMUSI": "TMUSI AT OR ABOVE 6240",
                "TMUSF": "TMUSF 4800",
                "TMUSM": "OVERFLY TMUSM 1184 RNW 35",
                "TMUST": "OVERFLY TMUST TURN LEFT DIRECT",
                "TMUSA": "TMUSA AT OR ABOVE 6900 FAF TMUSF MAP TMUSM"
            },
            "transitions": [
                {
                    "name": "TMUSA",
                    "fixes": {
                        "TMUSA": "TMUSA AT OR ABOVE 6900"
                    }
                },
                {
                    "name": "TMUSB",
                    "fixes": {
                        "TMUSB": "TMUSB AT OR ABOVE 6900"
                    }
                },
                {
                    "name": "TMUSC",
                    "fixes": {
                        "TMUSC": "TMUSC AT OR ABOVE 6900"
                    }
                }
            ]
        }
    ]
}