{
    "fixes": [
        {
            "name": "WCKEA",
            "lat": 28.103666666666665,
            "lon": 152.18766666666667
        },
        {
            "name": "WCKEB",
            "lat": 28.189694433333333,
            "lon": 152.23538888333334
        },
        {
            "name": "WCKEC",
            "lat": 28.258861116666665,
            "lon": 152.16047221666668
        },
        {
            "name": "WCKEF",
            "lat": 28.164055566666665,
            "lon": 152.04902778333334
        },
        {
            "name": "WCKEH",
            "lat": 28.143527783333333,
            "lon": 151.89997221666667
        },
        {
            "name": "WCKEI",
            "lat": 28.176861116666668,
            "lon": 152.14219443333334
        },
        {
            "name": "WCKEM",
            "lat": 28.15125,
            "lon": 151.95586111666665
        }
    ],
    "rnws": [
        "RNW 09",
        "RNW 27"
    ],
    "sids": [],
    "stars": [],
    "approaches": [
        {
            "name": "RNAVE09",
            "fixes": {
                "WCKEI": "WCKEI AT OR ABOVE 5210",
                "WCKEF": "WCKEF 3620",
                "WCKEM": "OVERFLY WCKEM 2290 RNW 09",
                "WCKEH": "OVERFLY WCKEH TRK 268 UNTIL 4200 HDG 045 VECTORS FAF WCKEF MAP WCKEM"
            },
            "transitions": [
                {
                    "name": "WCKEA",
                    "fixes": {
                        "WCKEA": "WCKEA AT OR ABOVE 5700 SPEED 210"
                    }
                },
                {
                    "name": "WCKEB",
                    "fixes": {
                        "WCKEB": "WCKEB AT OR ABOVE 5700 SPEED 210"
                    }
                },
                {
                    "name": "WCKEC",
                    "fixes": {
                        "WCKEC": "WCKEC AT OR ABOVE 5700 SPEED 210"
                    }
                }
            ]
        },
        {
            "name": "RNAVE27",
            "fixes": {
                "WCKEI": "WCKEI AT OR ABOVE 5210",
                "WCKEF": "WCKEF 3620",
                "WCKEM": "OVERFLY WCKEM 2290 RNW 27",
                "WCKEH": "OVERFLY WCKEH TRK 268 UNTIL 4200 HDG 045 VECTORS FAF WCKEF MAP WCKEM"
            },
            "transitions": [
                {
                    "name": "WCKEA",
                    "fixes": {
                        "WCKEA": "WCKEA AT OR ABOVE 5700 SPEED 210"
                    }
                },
                {
                    "name": "WCKEB",
                    "fixes": {
                        "WCKEB": "WCKEB AT OR ABOVE 5700 SPEED 210"
                    }
                },
                {
                    "name": "WCKEC",
                    "fixes": {
                        "WCKEC": "WCKEC AT OR ABOVE 5700 SPEED 210"
                    }
                }
            ]
        }
    ]
}