{
    "fixes": [
        {
            "name": "FF27",
            "lat": 41.007575,
            "lon": 145.85456666666667
        },
        {
            "name": "WYYED",
            "lat": 40.953127783333336,
            "lon": 146.01439443333334
        },
        {
            "name": "WYYEE",
            "lat": 41.03924443333333,
            "lon": 146.06935
        },
        {
            "name": "WYYEF",
            "lat": 41.012538883333335,
            "lon": 145.85198333333332
        },
        {
            "name": "WYYEG",
            "lat": 41.14876388333333,
            "lon": 145.99151943333334
        },
        {
            "name": "WYYEH",
            "lat": 40.98844166666667,
            "lon": 145.65644166666667
        },
        {
            "name": "WYYEI",
            "lat": 41.025891666666666,
            "lon": 145.96065556666667
        },
        {
            "name": "WYYNB",
            "lat": 40.99797221666667,
            "lon": 145.70823056666666
        },
        {
            "name": "WYYWA",
            "lat": 41.070872216666665,
            "lon": 145.42556666666667
        },
        {
            "name": "WYYWB",
            "lat": 40.955386116666666,
            "lon": 145.39243333333334
        },
        {
            "name": "WYYWC",
            "lat": 40.887127783333334,
            "lon": 145.48045833333333
        },
        {
            "name": "WYYWF",
            "lat": 40.982613883333336,
            "lon": 145.6095
        },
        {
            "name": "WYYWH",
            "lat": 40.99442221666666,
            "lon": 145.812425
        },
        {
            "name": "WYYWI",
            "lat": 40.96905,
            "lon": 145.50094443333333
        }
    ],
    "rnws": [
        "RNW 05",
        "RNW 09",
        "RNW 23",
        "RNW 27"
    ],
    "sids": [],
    "stars": [],
    "approaches": [
        {
            "name": "NDB27",
            "fixes": {
                "FF27": "FF27 1700 RNW 27",
                "WYYNB": "OVERFLY WYYNB TRK 262 UNTIL 570 HDG 340 VECTORS FAF FF27 MAP RNW 27"
            },
            "transitions": [
                {
                    "name": "WYY1",
                    "fixes": {
                        "WYYNB": "WYYNB AT OR ABOVE 3100 SPEED 210 TRK 064 UNTIL 8.8 FROM WYYNB"
                    }
                },
                {
                    "name": "WYY2",
                    "fixes": {
                        "WYYNB": "WYYNB AT OR ABOVE 3100 TRK 072 UNTIL 8.2 FROM WYYNB"
                    }
                }
            ]
        },
        {
            "name": "RNAVZ09",
            "fixes": {
                "WYYWI": "WYYWI AT OR ABOVE 3380",
                "WYYWF": "WYYWF 1790 RNW 09",
                "WYYWH": "OVERFLY WYYWH HDG 000 VECTORS FAF WYYWF MAP RNW 09"
            },
            "transitions": [
                {
                    "name": "WYYWA",
                    "fixes": {
                        "WYYWA": "WYYWA AT OR ABOVE 5600 SPEED 210"
                    }
                },
                {
                    "name": "WYYWB",
                    "fixes": {
                        "WYYWB": "WYYWB AT OR ABOVE 4000 SPEED 210"
                    }
                },
                {
                    "name": "WYYWC",
                    "fixes": {
                        "WYYWC": "WYYWC AT OR ABOVE 4000 SPEED 210"
                    }
                }
            ]
        },
        {
            "name": "RNAVZ27",
            "fixes": {
                "WYYEI": "WYYEI AT OR ABOVE 3270",
                "WYYEF": "WYYEF 1680 RNW 27",
                "WYYEH": "OVERFLY WYYEH AT OR ABOVE 1000 HDG 060 VECTORS FAF WYYEF MAP RNW 27"
            },
            "transitions": [
                {
                    "name": "WYYED",
                    "fixes": {
                        "WYYED": "WYYED AT OR ABOVE 3270 SPEED 210"
                    }
                },
                {
                    "name": "WYYEE",
                    "fixes": {
                        "WYYEE": "WYYEE AT OR ABOVE 3270 SPEED 210"
                    }
                },
                {
                    "name": "WYYEG",
                    "fixes": {
                        "WYYEG": "WYYEG AT OR ABOVE 5600 SPEED 210"
                    }
                }
            ]
        }
    ]
}