{
    "fixes": [
        {
            "name": "47DME",
            "lat": 28.081802783333334,
            "lon": 102.17807778333334
        },
        {
            "name": "51VOR",
            "lat": 28.088447216666665,
            "lon": 102.17830278333334
        },
        {
            "name": "88DME",
            "lat": 28.149811116666665,
            "lon": 102.16865556666667
        },
        {
            "name": "91VOR",
            "lat": 28.1552,
            "lon": 102.17435278333333
        },
        {
            "name": "BOPTU",
            "lat": 28.576111116666667,
            "lon": 104.04472221666667
        },
        {
            "name": "CF36",
            "lat": 27.772075,
            "lon": 102.19254721666667
        },
        {
            "name": "D179R",
            "lat": 27.705261116666666,
            "lon": 102.19508056666666
        },
        {
            "name": "D184U",
            "lat": 27.656188883333332,
            "lon": 102.1629
        },
        {
            "name": "D194T",
            "lat": 27.672738883333334,
            "lon": 102.09760833333333
        },
        {
            "name": "FD18",
            "lat": 28.27368888333333,
            "lon": 102.16732778333333
        },
        {
            "name": "FF36",
            "lat": 27.849672216666665,
            "lon": 102.18936943333334
        },
        {
            "name": "FI36",
            "lat": 27.845566666666667,
            "lon": 102.18975833333333
        },
        {
            "name": "FQ18",
            "lat": 28.27255278333333,
            "lon": 102.15161666666667
        },
        {
            "name": "GO",
            "lat": 27.919144433333333,
            "lon": 102.18703056666666
        },
        {
            "name": "MD18",
            "lat": 28.058405566666668,
            "lon": 102.18007778333333
        },
        {
            "name": "MD36",
            "lat": 27.919822216666667,
            "lon": 102.18661388333334
        },
        {
            "name": "MUBOP",
            "lat": 27.214722216666665,
            "lon": 101.45888888333333
        },
        {
            "name": "SBNB",
            "lat": 27.74,
            "lon": 102.165
        },
        {
            "name": "UZ",
            "lat": 28.055597216666666,
            "lon": 102.18170833333333
        },
        {
            "name": "XIC",
            "lat": 28.003333333333334,
            "lon": 102.18333333333334
        }
    ],
    "rnws": [
        "RNW 18",
        "RNW 36"
    ],
    "sids": [
        {
            "name": "BOP0ZD",
            "rnw": "18",
            "fixes": {
                "XIC": "XIC TRK 199 INTERCEPT RADIAL 184 TO",
                "SBNB": "SBNB RIGHT TURN INBOUNDCOURSE 184 ALT 15750 LEGTIME 1 TURN LEFT DIRECT",
                "BOPTU": "BOPTU"
            },
            "sub_fixes": [],
            "transitions": []
        },
        {
            "name": "BOP1ZD",
            "rnw": "36",
            "fixes": {
                "XIC": "XIC AT OR ABOVE 12470 SPEED 190",
                "SBNB": "SBNB AT OR ABOVE 15750 TURN LEFT DIRECT",
                "BOPTU": "BOPTU"
            },
            "sub_fixes": [],
            "transitions": []
        },
        {
            "name": "MUB0ZD",
            "rnw": "18",
            "fixes": {
                "XIC": "XIC TRK 199 INTERCEPT RADIAL 184 TO",
                "SBNB": "SBNB RIGHT TURN INBOUNDCOURSE 184 ALT 15750 LEGTIME 1",
                "MUBOP": "MUBOP"
            },
            "sub_fixes": [],
            "transitions": []
        },
        {
            "name": "MUB1ZD",
            "rnw": "36",
            "fixes": {
                "XIC": "XIC AT OR ABOVE 12470 SPEED 190",
                "SBNB": "SBNB AT OR ABOVE 15750",
                "MUBOP": "MUBOP"
            },
            "sub_fixes": [],
            "transitions": []
        }
    ],
    "stars": [
        {
            "name": "BOP0YA",
            "runway": "RNW 18",
            "fixes": {
                "BOPTU": "BOPTU",
                "SBNB": "SBNB TURN RIGHT DIRECT",
                "XIC": "XIC AT OR ABOVE 14770",
                "UZ": "UZ AT OR ABOVE 14770 SPEED 190"
            }
        },
        {
            "name": "BOP0ZA",
            "runway": "RNW 18",
            "fixes": {
                "BOPTU": "BOPTU",
                "SBNB": "SBNB TURN RIGHT DIRECT",
                "XIC": "XIC AT OR ABOVE 14770 SPEED 190"
            }
        },
        {
            "name": "BOP1ZA",
            "runway": "RNW 36",
            "fixes": {
                "BOPTU": "BOPTU",
                "SBNB": "SBNB AT OR ABOVE 14770 SPEED 190"
            }
        },
        {
            "name": "MUB0ZA",
            "runway": "RNW 18",
            "fixes": {
                "MUBOP": "MUBOP",
                "SBNB": "SBNB",
                "XIC": "XIC AT OR ABOVE 14770 SPEED 190"
            }
        },
        {
            "name": "MUB1ZA",
            "runway": "RNW 36",
            "fixes": {
                "MUBOP": "MUBOP",
                "SBNB": "SBNB AT OR ABOVE 14770 SPEED 190"
            }
        }
    ],
    "approaches": [
        {
            "name": "VORD18",
            "fixes": {
                "FD18": "FD18 11160",
                "91VOR": "91VOR AT OR ABOVE 8540",
                "51VOR": "51VOR AT OR ABOVE 6990",
                "MD18": "MD18 6354 RNW 18",
                "XIC": "XIC",
                "SBNB": "SBNB AT OR ABOVE 9190 HOLD AT SBNB LEFT TURN INBOUNDCOURSE 359 ALT 15750 LEGTIME 1 FAF FD18 MAP MD18"
            },
            "transitions": [
                {
                    "name": "XIC1",
                    "fixes": {
                        "XIC": "XIC AT OR ABOVE 14770 SPEED 190 TRK 345 UNTIL 16.2 FROM XIC"
                    }
                },
                {
                    "name": "XIC2",
                    "fixes": {
                        "XIC": "XIC AT OR ABOVE 14770 SPEED 190 TRK 351 UNTIL 16.2 FROM XIC"
                    }
                }
            ]
        },
        {
            "name": "VORD36",
            "fixes": {
                "CF36": "CF36 AT OR ABOVE 8540",
                "FF36": "FF36 7550",
                "MD36": "MD36 6162 RNW 36",
                "XIC": "XIC TRK 000 UNTIL 8860 TURN LEFT DIRECT XIC 12470 SPEED 190",
                "SBNB": "SBNB 14770 FAF FF36 MAP MD36"
            },
            "transitions": [
                {
                    "name": "SB",
                    "fixes": {
                        "SBNB": "SBNB AT OR ABOVE 14770 SPEED 190 TURN LEFT DIRECT",
                        "D194T": "OVERFLY D194T AT OR ABOVE 11820 TURN LEFT DIRECT",
                        "D184U": "OVERFLY D184U AT OR ABOVE 10180",
                        "D179R": "D179R AT OR ABOVE 9850"
                    }
                }
            ]
        },
        {
            "name": "ILS36",
            "fixes": {
                "CF36": "CF36 AT OR ABOVE 8540",
                "FI36": "FI36 7550 RNW 36 TRK 000 UNTIL 8860 TURN LEFT DIRECT",
                "XIC": "XIC 12470 SPEED 190",
                "SBNB": "SBNB 14770 FAF FI36 MAP RNW 36"
            },
            "transitions": [
                {
                    "name": "SB",
                    "fixes": {
                        "SBNB": "SBNB AT OR ABOVE 14770 SPEED 190 TURN LEFT DIRECT",
                        "D194T": "OVERFLY D194T AT OR ABOVE 11820 TURN LEFT DIRECT",
                        "D184U": "OVERFLY D184U AT OR ABOVE 10180",
                        "D179R": "D179R AT OR ABOVE 9850"
                    }
                }
            ]
        },
        {
            "name": "NDBD18",
            "fixes": {
                "FQ18": "FQ18 11160",
                "88DME": "88DME AT OR ABOVE 8370",
                "47DME": "47DME AT OR ABOVE 6830",
                "UZ": "UZ 6287 RNW 18",
                "XIC": "XIC",
                "SBNB": "SBNB AT OR ABOVE 9190 HOLD AT SBNB LEFT TURN INBOUNDCOURSE 359 ALT 15750 LEGTIME 1 FAF FQ18 MAP UZ"
            },
            "transitions": [
                {
                    "name": "UZ1",
                    "fixes": {
                        "UZ": "UZ AT OR ABOVE 14770 SPEED 190 TRK 337 UNTIL 16.2 FROM",
                        "XIC": "XIC"
                    }
                },
                {
                    "name": "UZ2",
                    "fixes": {
                        "UZ": "UZ AT OR ABOVE 14770 SPEED 190 TRK 342 UNTIL 16.2 FROM",
                        "XIC": "XIC"
                    }
                }
            ]
        },
        {
            "name": "NDBD36",
            "fixes": {
                "CF36": "CF36 AT OR ABOVE 8540",
                "FF36": "FF36 7550",
                "GO": "GO 6175 RNW 36",
                "XIC": "XIC TRK 000 UNTIL 8860 TURN LEFT DIRECT XIC 12470 SPEED 190",
                "SBNB": "SBNB 14770 FAF FF36 MAP GO"
            },
            "transitions": [
                {
                    "name": "SB",
                    "fixes": {
                        "SBNB": "SBNB 14770 SPEED 190 TURN LEFT DIRECT",
                        "D194T": "OVERFLY D194T AT OR ABOVE 11820 TURN LEFT DIRECT",
                        "D184U": "D184U AT OR ABOVE 10180",
                        "D179R": "D179R AT OR ABOVE 9850"
                    }
                }
            ]
        }
    ]
}